t,controller_id,state_code,wp_idx,x,y,dist,yaw_deg,yaw_to_wp_deg,yaw_ref_deg,yaw_err_deg,yaw_rate_deg_s,speed_ref,speed_meas,roll_deg,roll_rate_deg_s,roll_rms_window_deg,roll_rms_total_deg,pitch_deg,pitch_rate_deg_s,pitch_rms_window_deg,pitch_rms_total_deg,base_cmd,diff_cmd,T_left,T_right,J_inst,J_goal,J_wave_roll,J_progress,J_smooth,J_mpc_distance,J_mpc_final,J_mpc_heading,J_mpc_wrong_way,J_mpc_pitch,J_mpc_control,J_mpc_slew,J_mpc_turn,J_total,J_roll,J_pitch,J_roll_rate,J_pitch_rate,J_goal_heading,J_no_progress,J_control,I_roll,I_pitch,I_roll_rate,I_pitch_rate,I_control,I_no_progress,I_goal_heading
0.200,2,1,1,-532.006,189.993,50.006,57.115407,0.007873,0.007873,-57.107534,0.386747,nan,0.000000,-2.435332,-0.128916,2.508212,0.000000,-2.207484,-0.358099,2.112545,0.000000,2.500000,-9.500000,12.000000,-7.000000,1054.65222114,0.000000,0.01222150,63.90800690,0.000000,420.68329427,388.50403699,178.69935021,0.00001694,2.62868918,0.14235617,0.02588392,0.04836505,0.00000000,0.00000000,0.00000000,0.00000000,0.00000000,0.00000000,0.00000000,0.00000000,0.00000000,0.00000000,0.00000000,0.00000000,0.00000000,0.00000000,0.00000000
0.514,2,1,1,-532.006,189.993,50.006,57.115407,0.007873,0.007873,-57.107534,0.386747,nan,0.000000,-2.435332,-0.128916,2.508212,2.435332,-2.207484,-0.358099,2.112545,2.207484,2.500000,-21.500000,24.000000,-19.000000,1005.19649845,0.000000,0.01023045,51.41780683,0.000000,420.13540630,387.79704581,142.98163962,0.00000416,2.63650440,0.14319550,0.02603595,0.04862945,0.54526498,0.00680163,0.00093141,0.00000397,0.00000613,0.24934004,0.28671197,0.00146984,0.00056680,0.00046570,0.00000159,0.00001226,0.02939680,0.14335598,0.31167505
0.600,2,1,1,-531.999,189.993,49.999,56.964894,0.007937,0.007937,-56.956957,-0.974028,nan,0.009683,-1.462470,2.821817,2.179481,2.261199,-1.138987,3.022352,1.820654,2.025295,8.000000,-28.000000,36.000000,-20.000000,975.40589223,0.000000,0.00064030,41.53600003,0.000000,418.66781456,385.88825245,126.62968072,0.00002677,2.47413602,0.14240122,0.01868086,0.04825930,0.69403922,0.00747609,0.00099959,0.00052709,0.00012615,0.31754008,0.36516884,0.00220139,0.00062301,0.00049980,0.00021084,0.00025230,0.04402774,0.18258442,0.39692510
0.700,2,1,1,-531.996,189.994,49.996,56.873048,0.007411,0.007411,-56.865637,-1.360775,nan,0.019325,-1.140225,3.008028,1.996654,2.085711,-0.846492,3.265859,1.664674,1.850552,14.000000,-34.000000,48.000000,-20.000000,953.26285760,0.000000,0.00000000,34.53475440,0.000000,417.10868622,383.81005024,115.16537160,0.00005294,2.43709769,0.14333280,0.01459726,0.04891444,0.86631532,0.00795153,0.00104326,0.00121644,0.00028867,0.39637600,0.45588549,0.00355395,0.00066263,0.00052163,0.00048657,0.00057733,0.07107892,0.22794274,0.49547000
0.800,2,1,1,-531.992,189.995,49.992,56.741508,0.006228,0.006228,-56.735279,-1.604282,nan,0.029491,-0.774814,3.924761,1.663493,1.930157,-0.530149,4.325831,1.385009,1.703195,20.000000,-40.000000,60.000000,-20.000000,934.18791430,0.000000,0.00000000,29.51497533,0.000000,415.50113129,381.68550071,104.94572663,0.00005875,2.33178081,0.14565175,0.01290166,0.05018737,1.03866908,0.00817087,0.00106038,0.00238894,0.00057354,0.47478127,0.54614108,0.00555300,0.00068091,0.00053019,0.00095558,0.00114709,0.11105997,0.27307054,0.59347658
0.900,2,1,1,-531.986,189.997,49.986,56.589020,0.003663,0.003663,-56.585357,-2.922085,nan,0.042559,-0.412078,3.853141,1.291784,1.793650,-0.215376,3.638282,1.014138,1.578858,26.000000,-46.000000,72.000000,-20.000000,914.38790294,0.000000,0.00000000,24.71058455,0.000000,413.79252403,379.45410557,94.04300229,0.00002619,2.17241795,0.14912875,0.01368974,0.05242387,1.21089183,0.00823299,0.00106321,0.00352053,0.00077533,0.55287498,0.63607745,0.00834733,0.00068608,0.00053160,0.00140821,0.00155065,0.16694669,0.31803873,0.69109373
1.125,2,1,1,-531.986,189.997,49.986,56.589020,0.003663,0.003663,-56.585357,-2.922085,nan,0.042559,-0.412078,3.853141,1.291784,1.573949,-0.215376,3.638282,1.014138,1.377983,32.000000,-52.000000,84.000000,-20.000000,903.62632661,0.000000,0.00000000,23.49591585,0.000000,412.57345219,377.92416247,87.19345261,0.00000595,2.21414079,0.15402208,0.01591947,0.05525520,1.59925557,0.00837233,0.00106955,0.00605846,0.00122788,0.72802427,0.83778756,0.01671552,0.00069769,0.00053477,0.00242338,0.00245576,0.33431045,0.41889378,0.91003033
1.200,2,1,1,-531.964,190.014,49.964,55.787945,-0.015897,-0.015897,-55.803843,-3.265859,nan,0.066461,0.863063,4.168268,0.875504,1.531781,0.974287,4.984733,0.720287,1.351685,38.000000,-58.000000,96.000000,-20.000000,888.56594359,0.000000,0.00000000,20.90778027,0.000000,411.04412043,376.15265137,77.99952323,0.00000000,2.22571258,0.15935708,0.01667967,0.06011896,1.72802778,0.00857819,0.00111327,0.00705882,0.00151401,0.78539945,0.90401342,0.02035062,0.00071485,0.00055664,0.00282353,0.00302802,0.40701232,0.45200671,0.98174931
1.300,2,1,1,-531.955,190.024,49.955,55.424754,-0.027465,-0.027465,-55.452219,-3.351803,nan,0.097479,1.267290,5.271212,0.813047,1.509665,1.422553,4.655282,0.799283,1.358277,40.000000,-60.000000,100.000000,-20.000000,883.95660971,0.000000,0.00000000,20.27838569,0.000000,410.27937128,375.26379458,75.38258422,0.00000000,2.51162381,0.16148504,0.01677027,0.06259483,1.89782491,0.00916499,0.00123651,0.00917389,0.00184394,0.86030088,0.99055639,0.02554831,0.00076375,0.00061825,0.00366955,0.00368788,0.51096624,0.49527819,1.07537610
1.400,2,1,1,-531.944,190.037,49.944,55.009658,-0.042070,-0.042070,-55.051728,-4.282860,nan,0.127119,1.666441,4.497719,0.977993,1.523345,1.902430,5.070676,1.083181,1.411652,40.000000,-60.000000,100.000000,-20.000000,880.87249569,0.000000,0.00000000,20.10669297,0.000000,409.78161486,374.73211558,73.20072096,0.00000000,2.81015659,0.16113382,0.01697785,0.06308306,2.06548105,0.01018011,0.00145700,0.01071444,0.00223555,0.93415682,1.07598883,0.03074830,0.00084834,0.00072850,0.00428578,0.00447111,0.61496596,0.53799441,1.16769603
1.500,2,1,1,-531.933,190.052,49.933,54.546660,-0.059228,-0.059228,-54.605888,-5.772550,nan,0.153549,2.043430,3.122620,1.294143,1.569522,2.375110,4.683930,1.480945,1.507864,40.000000,-60.000000,100.000000,-20.000000,877.78661634,0.000000,0.00000000,20.25450917,0.000000,409.32749450,374.30037541,70.55466115,0.00000000,3.10713660,0.16087425,0.01745477,0.06411050,2.23062566,0.01170806,0.00180104,0.01145778,0.00257006,1.00689758,1.16023740,0.03595374,0.00097567,0.00090052,0.00458311,0.00514011,0.71907477,0.58011870,1.25862197
1.710,2,1,1,-531.933,190.052,49.933,54.546660,-0.059228,-0.059228,-54.605888,-5.772550,nan,0.153549,2.043430,3.122620,1.294143,1.643397,2.375110,4.683930,1.480945,1.655438,40.000000,-60.000000,100.000000,-20.000000,877.78661634,0.000000,0.00000000,20.25450917,0.000000,409.32749450,374.30037541,70.55466115,0.00000000,3.10713660,0.16087425,0.01745477,0.06411050,2.57582836,0.01490195,0.00252018,0.01301159,0.00326927,1.15894800,1.33634267,0.04683470,0.00124183,0.00126009,0.00520464,0.00653854,0.93669401,0.66817133,1.44868500
1.800,2,1,1,-531.902,190.105,49.902,52.970550,-0.120611,-0.120611,-53.091161,-6.259564,nan,0.143029,2.881650,1.418071,2.059128,1.737184,3.413797,2.879113,2.404290,1.801345,40.000000,-60.000000,100.000000,-20.000000,873.87697702,0.000000,0.01840814,21.17303743,0.000000,408.91389585,374.10700640,65.68952602,0.00000000,3.73262020,0.16096218,0.01818044,0.06334036,2.71869781,0.01765007,0.00316299,0.01315024,0.00338357,1.22113601,1.40867241,0.05154253,0.00147084,0.00158149,0.00526009,0.00676714,1.03085062,0.70433620,1.52642001
1.900,2,1,1,-531.892,190.126,49.892,52.369369,-0.144468,-0.144468,-52.513837,-7.262240,nan,0.180985,3.083599,1.804817,2.434287,1.843797,3.689125,2.349127,2.866522,1.963286,43.500000,-56.500000,100.000000,-13.000000,877.06051715,0.000000,0.02807865,26.63269710,0.000000,408.28496797,373.64410981,64.28896957,0.00000000,3.95017054,0.15792534,0.01491315,0.05868503,2.87389608,0.02112556,0.00399207,0.01339828,0.00346762,1.28833399,1.48695196,0.05662661,0.00176046,0.00199603,0.00535931,0.00693523,1.13253220,0.74347598,1.61041749
2.000,2,1,1,-531.883,190.148,49.883,51.745388,-0.170449,-0.170449,-51.915838,-5.772550,nan,0.210554,3.234631,0.873761,2.758207,1.947303,3.950366,1.776169,3.281472,2.123044,40.500000,-59.500000,100.000000,-19.000000,883.94282955,0.000000,0.03637820,33.67924126,0.000000,408.63738515,374.44088190,62.80929869,0.00000000,4.10097612,0.15965956,0.01782732,0.06118134,3.02627406,0.02495010,0.00494279,0.01345642,0.00351566,1.35401481,1.56358725,0.06180704,0.00207917,0.00247139,0.00538257,0.00703133,1.23614079,0.78179362,1.69251851
2.100,2,1,1,-531.874,190.173,49.874,51.103046,-0.198275,-0.198275,-51.301321,-7.262240,nan,0.232283,3.326706,1.059972,3.013749,2.043267,4.176404,1.661578,3.633879,2.277764,43.500000,-56.500000,100.000000,-13.000000,888.25805198,0.000000,0.04115226,40.42131705,0.000000,408.21707706,374.27059660,60.79240250,0.00000000,4.28545864,0.15720693,0.01511157,0.05772936,3.17570843,0.02899616,0.00600560,0.01354199,0.00355772,1.41816072,1.63855391,0.06689233,0.00241635,0.00300280,0.00541680,0.00711544,1.33784651,0.81927696,1.77270090
2.200,2,1,1,-531.867,190.198,49.867,50.442976,-0.227399,-0.227399,-50.670375,-6.703606,nan,0.245357,3.355210,0.300803,3.164386,2.128147,4.338321,1.217535,3.883859,2.422756,43.500000,-56.500000,100.000000,-13.000000,894.89763175,0.000000,0.04224491,47.71583059,0.000000,408.33373163,374.77643273,59.40230822,0.00000000,4.39847072,0.15691597,0.01498272,0.05671425,3.32187280,0.03311055,0.00715206,0.01354888,0.00358030,1.48071889,1.71178610,0.07197602,0.00275921,0.00357603,0.00541955,0.00716059,1.43952037,0.85589305,1.85089861
2.411,2,1,1,-531.867,190.198,49.867,50.442976,-0.227399,-0.227399,-50.670375,-6.703606,nan,0.245357,3.355210,0.300803,3.164386,2.274131,4.338321,1.217535,3.883859,2.665854,43.500000,-56.500000,100.000000,-13.000000,894.89763175,0.000000,0.04224491,47.71583059,0.000000,408.33373163,374.77643273,59.40230822,0.00000000,4.39847072,0.15691597,0.01498272,0.05671425,3.63062067,0.04180154,0.00957377,0.01356344,0.00362798,1.61286258,1.86647690,0.08271447,0.00348346,0.00478688,0.00542537,0.00725596,1.65428944,0.93323845,2.01607823
2.500,2,1,1,-531.853,190.264,49.854,48.476548,-0.303521,-0.303521,-48.780069,-7.247916,nan,0.312151,3.153112,-0.343775,3.262189,2.314299,4.367767,-1.017000,4.197248,2.751231,47.750000,-52.250000,100.000000,-4.500000,904.35760953,0.000000,0.03414568,61.43955375,0.000000,408.00867708,375.11408526,55.05553647,0.00000000,4.48961161,0.15385110,0.01219946,0.04994911,3.75150094,0.04503108,0.01060660,0.01357143,0.00364198,1.66439216,1.92709100,0.08716668,0.00375259,0.00530330,0.00542857,0.00728396,1.74333364,0.96354550,2.08049020
2.600,2,1,1,-531.850,190.292,49.851,47.777243,-0.335931,-0.335931,-48.113174,-7.176296,nan,0.318763,2.985440,-1.647254,3.236410,2.346102,4.247586,-2.334803,4.292854,2.829429,47.750000,-52.250000,100.000000,-4.500000,913.71328532,0.000000,0.03182964,71.21912309,0.000000,408.42652395,376.10478241,53.26371594,0.00000000,4.45218413,0.15369621,0.01204222,0.04938773,3.88405001,0.04828940,0.01170588,0.01377809,0.00372502,1.72080952,1.99356484,0.09217727,0.00402412,0.00585294,0.00551124,0.00745003,1.84354537,0.99678242,2.15101190
2.700,2,1,1,-531.847,190.321,49.848,47.076479,-0.369512,-0.369512,-47.445991,-7.434127,nan,0.340574,2.769936,-1.761845,3.144196,2.364507,4.060500,-3.251535,4.303425,2.888737,49.875000,-50.125000,100.000000,-0.250000,924.00467950,0.000000,0.02649116,81.79779371,0.000000,408.60724649,376.84477864,52.02406985,0.00000000,4.49459439,0.15242553,0.01087741,0.04640232,4.01280434,0.05109286,0.01270995,0.01401439,0.00388598,1.77564511,2.05828085,0.09717521,0.00425774,0.00635498,0.00560575,0.00777195,1.94350427,1.02914042,2.21955639
2.800,2,1,1,-531.845,190.352,49.846,46.375702,-0.404133,-0.404133,-46.779836,-7.233592,nan,0.356510,2.514400,-3.308831,2.989689,2.370448,3.807190,-3.108296,4.224262,2.929397,50.500000,-49.500000,100.000000,1.000000,933.24374964,0.000000,0.01902085,91.23588028,0.000000,408.97172015,377.75906669,50.58995618,0.00000000,4.46061489,0.15197440,0.01053806,0.04497813,4.13836528,0.05340420,0.01359314,0.01484827,0.00403315,1.82898130,2.12132882,0.10217640,0.00445035,0.00679657,0.00593931,0.00806630,2.04352807,1.06066441,2.28622663
3.047,2,1,1,-531.845,190.352,49.846,46.375702,-0.404133,-0.404133,-46.779836,-7.233592,nan,0.356510,2.514400,-3.308831,2.989689,2.383291,3.807190,-3.108296,4.224262,3.015754,50.500000,-49.500000,100.000000,1.000000,933.24374339,0.000000,0.01902085,91.23588028,0.000000,408.97172015,377.75906669,50.58995618,0.00000000,4.46061489,0.15197440,0.01053181,0.04497813,4.44871337,0.05911713,0.01577611,0.01690936,0.00439692,1.96081199,2.27716405,0.11453781,0.00492643,0.00788806,0.00676375,0.00879383,2.29075617,1.13858202,2.45101499
3.100,2,1,1,-531.840,190.447,49.842,44.290194,-0.514352,-0.514352,-44.804546,-7.434127,nan,0.280116,1.581933,-4.526367,2.611042,2.371122,2.727745,-3.767198,3.843256,3.010757,51.250000,-48.750000,100.000000,2.500000,918.73097193,0.000000,0.00608558,83.16172775,0.000000,408.61385109,377.04564489,45.49607843,0.00000000,4.20201406,0.15217860,0.01058974,0.04280180,4.50952539,0.05960017,0.01601548,0.01773324,0.00451106,1.98664399,2.30784177,0.11717967,0.00496668,0.00800774,0.00709330,0.00902211,2.34359346,1.15392089,2.48330499
3.200,2,1,1,-531.838,190.481,49.840,43.600696,-0.553255,-0.553255,-44.153951,-6.646310,nan,0.340797,1.225132,-3.366127,2.261340,2.341926,2.278412,-4.812845,3.460571,2.989202,51.625000,-48.375000,100.000000,3.250000,931.27754800,0.000000,0.00078440,95.33179892,0.000000,409.07537585,378.20509169,44.48126315,0.00000000,3.97995673,0.15165046,0.01035158,0.04127521,4.62081588,0.06014976,0.01633228,0.01859760,0.00486446,2.03423463,2.36444369,0.12219346,0.00501248,0.00816614,0.00743904,0.00972891,2.44386926,1.18222185,2.54279329
3.300,2,1,1,-531.836,190.516,49.838,42.914763,-0.593076,-0.593076,-43.507838,-5.729578,nan,0.374720,0.855497,-4.555014,1.860875,2.309008,1.783135,-6.144972,2.996671,2.958026,51.812500,-48.187500,100.000000,3.625000,939.98869602,0.000000,0.00000000,104.09863889,0.000000,409.41306545,379.06023376,43.51749596,0.00000000,3.69786076,0.15128754,0.01021281,0.03990087,4.72936193,0.06041692,0.01652572,0.02017547,0.00543879,2.08030035,2.41931157,0.12719310,0.00503474,0.00826286,0.00807019,0.01087757,2.54386201,1.20965578,2.60037544
3.400,2,1,1,-531.833,190.551,49.836,42.232647,-0.633640,-0.633640,-42.866287,-6.889817,nan,0.391296,0.484191,-4.010705,1.400164,2.274262,1.248514,-5.027705,2.442443,2.919802,51.906000,-48.094000,100.000000,3.812000,943.66764467,0.000000,0.00000000,109.60598768,0.000000,409.59527869,379.60938890,41.30232803,0.00000000,3.35267768,0.15121302,0.01048445,0.04028621,4.83433042,0.06050260,0.01662067,0.02140024,0.00582372,2.12507104,2.47271273,0.13219941,0.00504188,0.00831034,0.00856010,0.01164743,2.64398825,1.23635637,2.65633880
3.615,2,1,1,-531.833,190.551,49.836,42.232647,-0.633640,-0.633640,-42.866287,-6.889817,nan,0.391296,0.484191,-4.010705,1.400164,2.204963,1.248514,-5.027705,2.442443,2.843820,51.953000,-48.047000,100.000000,3.906000,943.65212733,0.000000,0.00000000,109.59486596,0.000000,409.58881060,379.60115557,41.31234898,0.00000000,3.35306538,0.15119310,0.01045826,0.04022949,5.05969818,0.06068656,0.01682453,0.02402981,0.00665016,2.22119355,2.58736485,0.14294873,0.00505721,0.00841226,0.00961192,0.01330032,2.85897451,1.29368243,2.77649193
3.700,2,1,1,-531.818,190.661,49.823,40.207301,-0.760228,-0.760228,-40.967529,-7.319536,nan,0.310084,-0.592004,-5.056353,0.837760,2.179856,-0.436080,-4.469071,1.574390,2.809733,57.953000,-42.047000,100.000000,15.906000,926.35093989,0.000000,0.00000000,98.90483205,0.000000,408.25555538,377.59756501,38.57749962,0.00000000,2.82334309,0.15015599,0.00876814,0.03322061,5.14289065,0.06079598,0.01683442,0.02569280,0.00690998,2.25612718,2.62920291,0.14732738,0.00506633,0.00841721,0.01027712,0.01381997,2.94654757,1.31460145,2.82015897
3.800,2,1,1,-531.811,190.699,49.816,39.541119,-0.804292,-0.804292,-40.345411,-7.018733,nan,0.367436,-0.927544,-4.010705,0.674389,2.154929,-0.986580,-5.013381,1.155792,2.775323,56.476500,-43.523500,100.000000,12.953000,929.20958567,0.000000,0.00000000,103.50270624,0.000000,408.34061051,378.00684208,36.60947340,0.00000000,2.55741291,0.14985531,0.00909086,0.03359434,5.23715717,0.06111036,0.01689370,0.02691734,0.00729265,2.29577970,2.67675405,0.15240937,0.00509253,0.00844685,0.01076694,0.01458531,3.04818740,1.33837703,2.86972462
3.900,2,1,1,-531.802,190.738,49.807,38.885499,-0.849248,-0.849248,-39.734747,-6.660634,nan,0.403104,-1.235796,-3.781521,0.725254,2.135293,-1.524571,-5.815522,0.948674,2.749007,56.477000,-43.523000,100.000000,12.954000,930.51402286,0.000000,0.00000000,106.04054819,0.000000,408.10671341,377.93594215,35.43050317,0.00000000,2.80876871,0.14948599,0.00909721,0.03296402,5.32923687,0.06166872,0.01703533,0.02800656,0.00780787,2.33426310,2.72296099,0.15749430,0.00513906,0.00851767,0.01120262,0.01561574,3.14988603,1.36148049,2.91782888
4.000,2,1,1,-531.790,190.778,49.796,38.237620,-0.894946,-0.894946,-39.132566,-7.491423,nan,0.431423,-1.512847,-2.506690,0.944057,2.121257,-2.039479,-5.199592,1.122957,2.732700,60.500000,-39.500000,100.000000,21.000000,929.51348968,0.000000,0.00000000,106.68513476,0.000000,407.22270134,377.01187125,35.21655656,0.00000000,3.19028888,0.14891759,0.00777980,0.03023949,5.41860294,0.06250519,0.01728870,0.02848499,0.00821958,2.37157491,2.76781567,0.16271390,0.00520877,0.00864435,0.01139400,0.01643915,3.25427798,1.38390784,2.96446864
4.208,2,1,1,-531.790,190.778,49.796,38.237620,-0.894946,-0.894946,-39.132566,-7.491423,nan,0.431423,-1.512847,-2.506690,0.944057,2.094109,-2.039479,-5.199592,1.122957,2.701189,57.750000,-42.250000,100.000000,15.500000,929.34586578,0.000000,0.00000000,106.96976918,0.000000,407.57621312,377.45552221,33.98636246,0.00000000,3.16814961,0.14891143,0.00908393,0.03185385,5.60379028,0.06424050,0.01781432,0.02947753,0.00907369,2.44898061,2.86086954,0.17333409,0.00535338,0.00890716,0.01179101,0.01814738,3.46668171,1.43043477,3.06122576
4.300,2,1,1,-531.745,190.901,49.753,36.352702,-1.037499,-1.037499,-37.390202,-6.230916,nan,0.449930,-2.172709,-1.504014,1.561492,2.095915,-3.336653,-3.065324,2.206256,2.717172,60.500000,-39.500000,100.000000,21.000000,920.90136805,0.000000,0.00017641,103.04787895,0.000000,406.00719016,375.62603903,31.97353450,0.00000000,4.06207924,0.14842798,0.00797020,0.02807157,5.68069545,0.06583736,0.01844200,0.02963695,0.00920612,2.48050800,2.89889990,0.17816512,0.00548645,0.00922100,0.01185478,0.01841225,3.56330233,1.44944995,3.10063500
4.400,2,1,1,-531.726,190.943,49.735,35.740341,-1.086791,-1.086791,-36.827132,-5.973085,nan,0.478308,-2.323191,-1.518338,1.843731,2.101623,-3.658428,-2.420747,2.726944,2.743389,60.500000,-39.500000,100.000000,21.000000,916.96463059,0.000000,0.00095615,101.57224119,0.000000,405.25195814,374.77728317,30.87567752,0.00000000,4.30311775,0.14790517,0.00802767,0.02746384,5.76209326,0.06781422,0.01925904,0.02981286,0.00929556,2.51362502,2.93889047,0.18339609,0.00565119,0.00962952,0.01192514,0.01859111,3.66792185,1.46944523,3.14203127
4.500,2,1,1,-531.705,190.986,49.714,35.183874,-1.136855,-1.136855,-36.320729,-7.018733,nan,0.500436,-2.427615,-0.974028,2.063320,2.109765,-3.899644,-2.019676,3.148348,2.775707,60.500000,-39.500000,100.000000,21.000000,911.49195324,0.000000,0.00177971,99.40453075,0.000000,404.43330524,373.83677020,29.14090780,0.00000000,4.49119193,0.14742171,0.00852345,0.02752243,5.84141765,0.06996532,0.02018416,0.02988501,0.00935759,2.54572591,2.97769073,0.18860894,0.00583044,0.01009208,0.01195400,0.01871519,3.77217888,1.48884536,3.18215738
4.600,2,1,1,-531.681,191.030,49.692,34.585496,-1.187650,-1.187650,-35.773146,-6.173620,nan,0.513707,-2.505128,-1.647254,2.259314,2.119568,-4.097552,-1.188887,3.542372,2.812652,60.500000,-39.500000,100.000000,21.000000,906.83704584,0.000000,0.00255728,97.04848046,0.000000,403.61547017,372.86214233,28.47802396,0.00000000,4.64815013,0.14700996,0.00854922,0.02666234,5.91909419,0.07225911,0.02120696,0.03009163,0.00937912,2.57690888,3.01541955,0.19382895,0.00602159,0.01060348,0.01203665,0.01875824,3.87657892,1.50770978,3.22113610
4.813,2,1,1,-531.681,191.030,49.692,34.585496,-1.187650,-1.187650,-35.773146,-6.173620,nan,0.513707,-2.505128,-1.647254,2.259314,2.138881,-4.097552,-1.188887,3.542372,2.884535,60.500000,-39.500000,100.000000,21.000000,906.83704584,0.000000,0.00255728,97.04848046,0.000000,403.61547017,372.86214233,28.47802396,0.00000000,4.64815013,0.14700996,0.00854922,0.02666234,6.08437766,0.07713994,0.02338333,0.03053128,0.00942492,2.64326135,3.09570055,0.20493629,0.00642833,0.01169166,0.01221251,0.01884985,4.09872577,1.54785027,3.30407669
4.900,2,1,1,-531.598,191.164,49.612,32.821153,-1.344373,-1.344373,-34.165526,-6.402803,nan,0.505017,-2.528785,-0.988352,2.445106,2.146754,-4.247926,1.246183,3.979926,2.915615,63.250000,-36.750000,100.000000,26.500000,892.41942444,0.000000,0.00259863,89.97297734,0.000000,401.30475567,370.10286740,26.06445501,0.00000000,4.79268423,0.14697585,0.00803255,0.02407777,6.14697851,0.07917662,0.02434119,0.03059610,0.00944553,2.66804610,3.12577429,0.20959868,0.00659805,0.01217059,0.01223844,0.01889106,4.19197359,1.56288715,3.33505762
5.000,2,1,1,-531.566,191.210,49.581,32.311130,-1.397865,-1.397865,-33.708995,-6.059029,nan,0.519301,-2.477312,0.658901,2.490418,2.154167,-4.164854,2.162916,4.107785,2.947084,63.250000,-36.750000,100.000000,26.500000,885.48582418,0.000000,0.00213168,86.17875594,0.000000,400.23696062,368.78399305,25.34371790,0.00000000,4.76208498,0.14657122,0.00804385,0.02356493,6.21713660,0.08142270,0.02539925,0.03062920,0.00951687,2.69577057,3.15944171,0.21495630,0.00678522,0.01269962,0.01225168,0.01903374,4.29912601,1.57972086,3.36971321
5.100,2,1,1,-531.532,191.255,49.548,31.669696,-1.451891,-1.451891,-33.121587,-5.672282,nan,0.539791,-2.375339,1.461042,2.497662,2.158900,-3.980342,2.463719,4.166019,2.971731,63.250000,-36.750000,100.000000,26.500000,878.89313119,0.000000,0.00212864,82.91998522,0.000000,399.13564728,367.46483163,24.40160304,0.00000000,4.79165456,0.14612148,0.00822157,0.02293776,6.28490945,0.08348235,0.02636315,0.03079154,0.00960920,2.72246828,3.19189480,0.22030013,0.00695686,0.01318157,0.01231662,0.01921839,4.40600251,1.59594740,3.40308535
5.200,2,1,1,-531.496,191.302,49.513,31.170972,-1.506426,-1.506426,-32.677398,-5.557691,nan,0.564116,-2.269818,1.704549,2.464666,2.161178,-3.773625,2.678578,4.130209,2.989906,63.250000,-36.750000,100.000000,26.500000,872.88731687,0.000000,0.00176573,80.14203841,0.000000,398.01022565,366.14529922,23.61368428,0.00000000,4.79766909,0.14566355,0.00842194,0.02254898,6.35112479,0.08536866,0.02723210,0.03101316,0.00971865,2.74853180,3.22360061,0.22565980,0.00711405,0.01361605,0.01240526,0.01943730,4.51319603,1.61180031,3.43566475
5.411,2,1,1,-531.496,191.302,49.513,31.170972,-1.506426,-1.506426,-32.677398,-5.557691,nan,0.564116,-2.269818,1.704549,2.464666,2.165678,-3.773625,2.678578,4.130209,3.025546,63.250000,-36.750000,100.000000,26.500000,872.88731687,0.000000,0.00176573,80.14203841,0.000000,398.01022565,366.14529922,23.61368428,0.00000000,4.79766909,0.14566355,0.00842194,0.02254898,6.49045687,0.08933787,0.02906057,0.03147950,0.00994896,2.80337536,3.29031684,0.23693777,0.00744482,0.01453029,0.01259180,0.01989792,4.73875548,1.64515842,3.50421920
5.500,2,1,1,-531.373,191.442,49.394,29.497645,-1.672903,-1.672903,-31.170548,-6.417127,nan,0.519111,-1.779105,1.418071,2.241558,2.159742,-2.681770,4.569338,3.693072,3.020082,64.625000,-35.375000,100.000000,29.250000,856.27477088,0.000000,0.00031308,72.18991220,0.000000,395.41894134,363.11808353,20.87442613,0.00000000,4.49734440,0.14596196,0.00863786,0.02115039,6.54404223,0.09037040,0.02945159,0.03161616,0.01023275,2.82450539,3.31608433,0.24178160,0.00753087,0.01472579,0.01264647,0.02046551,4.83563206,1.65804217,3.53063173
5.600,2,1,1,-531.328,191.489,49.351,28.947520,-1.729053,-1.729053,-30.676573,-6.116324,nan,0.580612,-1.577257,1.532662,2.064577,2.150393,-2.205728,5.371479,3.322881,3.007011,65.312500,-34.687500,100.000000,30.625000,849.68821343,0.000000,0.00000004,69.62789436,0.000000,393.88582478,361.35569176,20.35277945,0.00000000,4.29171184,0.14537911,0.00858617,0.02034591,6.60223659,0.09127947,0.02974790,0.03179499,0.01067206,2.84743062,3.34406282,0.24724873,0.00760662,0.01487395,0.01271800,0.02134412,4.94497453,1.67203141,3.55928827
5.700,2,1,1,-531.281,191.536,49.305,28.402456,-1.785383,-1.785383,-30.187839,-4.884465,nan,0.612529,-1.361402,2.521014,1.855598,2.138647,-1.688036,4.755550,2.868041,2.988230,65.312000,-34.688000,100.000000,30.624000,843.58819508,0.000000,0.00000000,67.00792437,0.000000,392.53600291,359.79782624,20.07006892,0.00000000,4.00348462,0.14485125,0.00855382,0.01948295,6.65871696,0.09195697,0.02992150,0.03227900,0.01101651,2.86963869,3.37118663,0.25271767,0.00766308,0.01496075,0.01291160,0.02203302,5.05435333,1.68559332,3.58704836
5.800,2,1,1,-531.232,191.583,49.258,27.862531,-1.841843,-1.841843,-29.704374,-5.385803,nan,0.643244,-1.136162,1.776169,1.626444,2.124900,-1.135902,5.099324,2.349627,2.965322,65.656000,-34.344000,100.000000,31.312000,836.70025603,0.000000,0.00000000,64.46251206,0.000000,391.10182985,358.16678839,19.12746655,0.00000000,3.66921839,0.14439724,0.00883900,0.01920455,6.71316662,0.09242874,0.03000009,0.03251920,0.01141248,2.89113670,3.39746262,0.25820679,0.00770240,0.01500004,0.01300768,0.02282496,5.16413570,1.69873131,3.61392088
5.900,2,1,1,-531.181,191.630,49.208,27.327189,-1.898385,-1.898385,-29.225575,-5.371479,nan,0.657383,-0.906091,2.234535,1.422910,2.109587,-0.556269,5.872817,1.887221,2.940106,65.828000,-34.172000,100.000000,31.656000,830.19951941,0.000000,0.00000000,61.87262325,0.000000,389.76099098,356.63858937,18.39449820,0.00000000,3.36094565,0.14404166,0.00903286,0.01879745,6.76619446,0.09272901,0.03001895,0.03289965,0.01193808,2.91196258,3.42293541,0.26371078,0.00772742,0.01500948,0.01315986,0.02387615,5.27421565,1.71146771,3.63995323
6.118,2,1,1,-531.181,191.630,49.208,27.327189,-1.898385,-1.898385,-29.225575,-5.371479,nan,0.657383,-0.906091,2.234535,1.422910,2.077743,-0.556269,5.872817,1.887221,2.887560,65.914000,-34.086000,100.000000,31.828000,830.19639994,0.000000,0.00000000,61.87235290,0.000000,389.74970074,356.62458766,18.41620867,0.00000000,3.36173067,0.14405651,0.00900451,0.01875828,6.88143197,0.09338148,0.03005994,0.03372635,0.01308015,2.95721570,3.47828592,0.27568244,0.00778179,0.01502997,0.01349054,0.02616030,5.51364873,1.73914296,3.69651962
6.200,2,1,1,-531.019,191.770,49.051,25.745149,-2.067560,-2.067560,-27.812709,-4.211240,nan,0.644855,-0.212090,1.532662,1.020815,2.063552,1.259022,5.686606,1.250713,2.871430,65.957000,-34.043000,100.000000,31.914000,817.20708135,0.000000,0.00000000,57.29665180,0.000000,386.76161850,353.41405048,16.65229975,0.00000000,2.91191264,0.14398564,0.00923490,0.01732765,6.92125542,0.09339505,0.03013965,0.03387400,0.01348667,2.97277469,3.49735574,0.28022962,0.00778292,0.01506982,0.01354960,0.02697334,5.60459244,1.74867787,3.71596836
6.300,2,1,1,-530.962,191.815,48.996,25.224141,-2.123461,-2.123461,-27.347601,-5.285536,nan,0.685478,0.011237,1.360775,0.765336,2.046569,1.857364,5.729578,1.164835,2.857710,65.978500,-34.021500,100.000000,31.957000,811.14260228,0.000000,0.00000000,55.00006295,0.000000,385.25479776,351.73541780,15.61429297,0.00000000,3.36723455,0.14350455,0.00980284,0.01748885,6.96819367,0.09339509,0.03034981,0.03401501,0.01398665,2.99099953,3.51970757,0.28574000,0.00778292,0.01517490,0.01360600,0.02797330,5.71480004,1.75985379,3.73874942
6.400,2,1,1,-530.905,191.861,48.940,24.705572,-2.178994,-2.178994,-26.884566,-4.870141,nan,0.712100,0.224745,2.678578,0.512218,2.030203,2.436871,5.586339,1.423477,2.851416,65.989000,-34.011000,100.000000,31.978000,806.33871578,0.000000,0.00000000,53.22395348,0.000000,383.84712533,350.18525323,15.10126777,0.00000000,3.81104887,0.14306923,0.00997318,0.01702469,7.01432552,0.09341355,0.03071151,0.03456127,0.01446185,3.00860895,3.54131844,0.29124996,0.00778446,0.01535575,0.01382451,0.02892369,5.82499912,1.77065922,3.76076119
6.500,2,1,1,-530.847,191.906,48.884,24.189037,-2.234085,-2.234085,-26.423122,-5.099324,nan,0.723164,0.426288,1.761845,0.287297,2.014745,2.988786,6.245240,1.892080,2.853648,65.994500,-34.005500,100.000000,31.989000,801.60873771,0.000000,0.00000000,51.49347297,0.000000,382.53739685,348.75634379,14.41952573,0.00000000,4.23207048,0.14278065,0.01029489,0.01685235,7.05917580,0.09347996,0.03125560,0.03479761,0.01505576,3.02561932,3.56220721,0.29676034,0.00779000,0.01562780,0.01391904,0.03011152,5.93520687,1.78110360,3.78202415
6.600,2,1,1,-530.789,191.950,48.828,23.674190,-2.288646,-2.288646,-25.962836,-5.500395,nan,0.734969,0.614752,3.251535,0.323418,2.000415,3.504711,4.340155,2.421785,2.864962,65.997500,-34.002500,100.000000,31.995000,797.33212955,0.000000,0.00000000,50.12537989,0.000000,381.27186388,347.39898449,13.73717850,0.00000000,4.62875443,0.14252976,0.01066780,0.01677079,7.10329186,0.09361816,0.03200417,0.03560301,0.01534276,3.04205144,3.58239829,0.30227402,0.00780151,0.01600209,0.01424121,0.03068552,6.04548041,1.79119915,3.80256430
6.816,2,1,1,-530.789,191.950,48.828,23.674190,-2.288646,-2.288646,-25.962836,-5.500395,nan,0.734969,0.614752,3.251535,0.323418,1.970636,3.504711,4.340155,2.421785,2.888077,65.999000,-34.001000,100.000000,31.998000,797.33178969,0.000000,0.00000000,50.12533014,0.000000,381.27165970,347.39873254,13.73732648,0.00000000,4.62877354,0.14252999,0.01066722,0.01677007,7.19850687,0.09391641,0.03361980,0.03734131,0.01596218,3.07751656,3.62597631,0.31417429,0.00782637,0.01680990,0.01493652,0.03192437,6.28348571,1.81298816,3.84689571
6.900,2,1,1,-530.617,192.079,48.661,22.136954,-2.448583,-2.448583,-24.585537,-5.256888,nan,0.648256,1.086921,1.876437,0.675271,1.962017,4.767068,3.666930,3.543294,2.919148,65.999000,-34.001000,100.000000,31.998000,787.90754041,0.000000,0.00000000,46.36480647,0.000000,378.75364532,344.79842791,12.32405430,0.00000000,5.49652760,0.14323268,0.01069846,0.01614768,7.23268218,0.09427936,0.03478339,0.03756667,0.01613431,3.08989646,3.64121519,0.31880680,0.00785661,0.01739170,0.01502667,0.03226861,6.37613605,1.82060759,3.86237057
7.000,2,1,1,-530.561,192.121,48.607,21.626224,-2.500569,-2.500569,-24.126793,-6.302536,nan,0.675364,1.208272,0.444042,0.863653,1.953041,5.074853,2.850465,4.099896,2.962235,65.999000,-34.001000,100.000000,31.998000,784.99456713,0.000000,0.00000000,45.87580110,0.000000,377.63979355,343.65709181,11.91238960,0.00000000,5.73872594,0.14318419,0.01089007,0.01669087,7.27209146,0.09481301,0.03635239,0.03758169,0.01625806,3.10408159,3.65868614,0.32431860,0.00790108,0.01817619,0.01503267,0.03251611,6.48637208,1.82934307,3.88010199
7.100,2,1,1,-530.506,192.162,48.554,21.156875,-2.551856,-2.551856,-23.708731,-5.772550,nan,0.685585,1.303527,1.919409,1.018364,1.945167,5.301627,1.446718,4.541135,3.009215,65.999000,-34.001000,100.000000,31.998000,782.50292134,0.000000,0.00000000,45.56098852,0.000000,376.63856542,342.64426833,11.57489905,0.00000000,5.91398295,0.14305884,0.01091403,0.01624420,7.31087766,0.09543494,0.03806701,0.03786261,0.01628998,3.11779756,3.67558785,0.32983772,0.00795291,0.01903350,0.01514505,0.03257995,6.59675436,1.83779393,3.89724695
7.200,2,1,1,-530.452,192.202,48.502,20.647190,-2.602423,-2.602423,-23.249614,-5.500395,nan,0.685607,1.389530,0.902409,1.169447,1.938355,5.483310,1.632930,4.954035,3.058659,65.999000,-34.001000,100.000000,31.998000,780.23924502,0.000000,0.00000000,45.32521776,0.000000,375.72961760,341.74044534,11.22496063,0.00000000,6.04904683,0.14304687,0.01095032,0.01595967,7.34842618,0.09614039,0.03989792,0.03792460,0.01633057,3.13096414,3.69182148,0.33534708,0.00801170,0.01994896,0.01516984,0.03266114,6.70694152,1.84591074,3.91370518
7.419,2,1,1,-530.452,192.202,48.502,20.647190,-2.602423,-2.602423,-23.249614,-5.500395,nan,0.685607,1.389530,0.902409,1.169447,1.924043,5.483310,1.632930,4.954035,3.159465,65.999000,-34.001000,100.000000,31.998000,780.23924502,0.000000,0.00000000,45.32521776,0.000000,375.72961760,341.74044534,11.22496063,0.00000000,6.04904683,0.14304687,0.01095032,0.01595967,7.43049616,0.09768230,0.04389975,0.03806009,0.01641930,3.15974241,3.72730341,0.34738891,0.00814019,0.02194987,0.01522403,0.03283859,6.94777817,1.86365170,3.94967801
7.500,2,1,1,-530.297,192.320,48.353,19.079565,-2.749936,-2.749936,-21.829501,-5.829846,nan,0.600740,1.538724,0.386747,1.364683,1.920169,5.597807,-0.859437,5.365257,3.196968,66.000000,-28.000000,94.000000,38.000000,771.93365825,0.000000,0.00000000,42.75610547,0.000000,373.71352057,339.72077426,9.52423241,0.00000000,6.05749291,0.14106500,0.00838071,0.01208691,7.45811602,0.09838764,0.04545556,0.03806937,0.01642846,3.16920630,3.73899087,0.35157782,0.00819897,0.02272778,0.01522775,0.03285693,7.03155631,1.86949543,3.96150788
7.600,2,1,1,-530.248,192.358,48.306,18.574466,-2.797798,-2.797798,-21.372264,-5.471747,nan,0.608044,1.550465,0.243507,1.445804,1.915651,5.490583,-1.976704,5.487648,3.238780,66.000000,-28.000000,94.000000,38.000000,770.54263770,0.000000,0.00000000,43.16403628,0.000000,373.02417245,339.09012270,9.13022779,0.00000000,5.97306347,0.14112345,0.00815718,0.01173436,7.49089881,0.09926580,0.04729099,0.03807388,0.01648794,3.18033032,3.75273541,0.35671446,0.00827215,0.02364550,0.01522955,0.03297588,7.13428912,1.87636771,3.97541291
7.700,2,1,1,-530.201,192.395,48.260,18.078675,-2.844960,-2.844960,-20.923635,-6.202268,nan,0.605825,1.547739,0.959704,1.503819,1.911211,5.315487,-2.578310,5.521448,3.275145,66.000000,-28.000000,94.000000,38.000000,769.01915147,0.000000,0.00000000,43.37562626,0.000000,372.37892806,338.50085535,8.61827377,0.00000000,5.98387355,0.14128063,0.00847931,0.01183454,7.52266720,0.10014153,0.04901249,0.03814403,0.01658920,3.19100007,3.76592503,0.36185487,0.00834513,0.02450624,0.01525761,0.03317839,7.23709739,1.88296251,3.98875008
7.800,2,1,1,-530.154,192.432,48.216,17.591146,-2.891454,-2.891454,-20.482600,-5.256888,nan,0.599790,1.531315,1.260507,1.536615,1.906704,5.075567,-2.521014,5.461499,3.305206,66.000000,-28.000000,94.000000,38.000000,767.77552509,0.000000,0.00000000,43.62179629,0.000000,371.77739774,337.95157260,8.33633543,0.00000000,5.92740672,0.14137783,0.00838108,0.01125738,7.55331683,0.10099861,0.05058181,0.03826502,0.01668599,3.20122293,3.77856810,0.36699437,0.00841655,0.02529090,0.01530601,0.03337197,7.33988741,1.88928405,4.00152867
7.900,2,1,1,-530.109,192.469,48.173,17.110791,-2.937363,-2.937363,-20.048154,-4.068000,nan,0.589744,1.500512,-0.358099,1.537576,1.901969,4.774410,-3.452071,5.304985,3.328523,66.000000,-28.000000,94.000000,38.000000,766.45371504,0.000000,0.00000000,43.75195707,0.000000,371.21124556,337.43209364,8.09865877,0.00000000,5.79944435,0.14149463,0.00821470,0.01060633,7.58287352,0.10182443,0.05197527,0.03827481,0.01686810,3.21105089,3.79072822,0.37215180,0.00848537,0.02598763,0.01530993,0.03373621,7.44303593,1.89536411,4.01381362
8.176,2,1,1,-530.109,192.469,48.173,17.110791,-2.937363,-2.937363,-20.048154,-4.068000,nan,0.589744,1.500512,-0.358099,1.537576,1.889503,4.774410,-3.452071,5.304985,3.388874,66.000000,-28.000000,94.000000,38.000000,766.45371504,0.000000,0.00000000,43.75195707,0.000000,371.21124556,337.43209364,8.09865877,0.00000000,5.79944435,0.14149463,0.00821470,0.01060633,7.66417475,0.10409600,0.05580824,0.03830177,0.01736906,3.23808453,3.82417689,0.38633826,0.00867467,0.02790412,0.01532071,0.03473811,7.72676518,1.91208845,4.04760567
8.200,2,1,1,-529.979,192.575,48.048,15.796689,-3.072140,-3.072140,-18.868830,-5.944437,nan,0.466069,1.344494,-0.358099,1.502478,1.888118,3.643316,-6.001733,4.948289,3.389658,66.000000,-28.000000,94.000000,38.000000,758.10734083,0.000000,0.00000000,39.86677791,0.000000,369.68934523,335.84825776,7.07924696,0.00000000,5.46123295,0.14259433,0.00897909,0.01090660,7.67049161,0.10425296,0.05600034,0.03830409,0.01749938,3.24014558,3.82673000,0.38755926,0.00868775,0.02800017,0.01532164,0.03499876,7.75118520,1.91336500,4.05018197
8.300,2,1,1,-529.937,192.610,48.007,15.336318,-3.116180,-3.116180,-18.452498,-5.127972,nan,0.489940,1.269624,-0.415394,1.449498,1.881725,3.153287,-4.411775,4.510553,3.386841,66.000000,-28.000000,94.000000,38.000000,756.74360651,0.000000,0.00000000,40.11379749,0.000000,369.15155439,335.36066374,6.81349418,0.00000000,5.14209680,0.14268932,0.00890451,0.01040608,7.69570490,0.10484192,0.05660583,0.03831722,0.01779569,3.24843939,3.83700796,0.39269688,0.00873683,0.02830292,0.01532689,0.03559139,7.85393762,1.91850398,4.06054923
8.400,2,1,1,-529.915,192.628,47.987,14.916108,-3.138933,-3.138933,-18.055041,-5.586339,nan,0.508544,1.192900,-0.658901,1.387008,1.874845,2.671782,-4.927437,4.046473,3.379028,66.000000,-28.000000,94.000000,38.000000,755.89400422,0.000000,0.00000000,40.46149998,0.000000,368.81576175,335.05804595,6.57900640,0.00000000,4.81729747,0.14272145,0.00920679,0.01046444,7.72001061,0.10536243,0.05704101,0.03835031,0.01816573,3.25638853,3.84686243,0.39784018,0.00878020,0.02852050,0.01534012,0.03633146,7.95680353,1.92343122,4.07048566
8.500,2,1,1,-529.873,192.662,47.947,14.462510,-3.182446,-3.182446,-17.644956,-4.683930,nan,0.562556,1.101043,-0.171887,1.301323,1.867432,2.122378,-5.514719,3.448245,3.366681,66.000000,-28.000000,94.000000,38.000000,755.17254983,0.000000,0.00000000,41.80213514,0.000000,368.08041494,334.39975284,6.31824085,0.00000000,4.41041960,0.14247396,0.00917320,0.00993929,7.74332961,0.10580556,0.05731543,0.03835256,0.01862892,3.26397558,3.85627153,0.40298003,0.00881713,0.02865772,0.01534102,0.03725784,8.05960055,1.92813577,4.07996948
8.600,2,1,1,-529.831,192.696,47.907,14.011778,-3.225675,-3.225675,-17.237453,-4.827169,nan,0.588772,1.001480,-0.888085,1.208817,1.859497,1.553896,-5.471747,2.843200,3.350874,66.000000,-28.000000,94.000000,38.000000,753.94024508,0.000000,0.00000000,42.57205774,0.000000,367.37153458,333.74309024,6.10039453,0.00000000,3.99150301,0.14238017,0.00941838,0.00986644,7.76572198,0.10617216,0.05746253,0.03841261,0.01908491,3.27121602,3.86525403,0.40811972,0.00884768,0.02873126,0.01536505,0.03816981,8.16239446,1.93262702,4.08902003
8.798,2,1,1,-529.831,192.696,47.907,14.011778,-3.225675,-3.225675,-17.237453,-4.827169,nan,0.588772,1.001480,-0.888085,1.208817,1.844260,1.553896,-5.471747,2.843200,3.320503,66.000000,-28.000000,94.000000,38.000000,753.94024508,0.000000,0.00000000,42.57205774,0.000000,367.37153458,333.74309024,6.10039453,0.00000000,3.99150301,0.14238017,0.00941838,0.00986644,7.80998303,0.10689679,0.05775328,0.03853133,0.01998621,3.28552757,3.88300894,0.41827891,0.00890807,0.02887664,0.01541253,0.03997243,8.36557812,1.94150447,4.10690947
8.813,2,1,1,-529.811,192.712,47.887,13.438424,-3.246330,-3.246330,-16.684755,-4.841493,nan,0.466192,0.865978,-0.974028,1.198229,1.842971,0.811665,-6.016057,2.786865,3.317703,66.000000,-28.000000,94.000000,38.000000,750.09686162,0.000000,0.00000000,38.86458695,0.000000,367.53139894,333.79030945,5.84941421,0.00000000,3.89866375,0.14328794,0.00950005,0.00970033,7.81326923,0.10693912,0.05775948,0.03854248,0.02007133,3.28657511,3.88430913,0.41907259,0.00891159,0.02887974,0.01541699,0.04014267,8.38145175,1.94215456,4.10821888
8.900,2,1,1,-529.703,192.795,47.785,12.673180,-3.353799,-3.353799,-16.026979,-5.357155,nan,0.660152,0.674332,-1.833465,1.002771,1.834984,-0.183578,-5.614986,1.824391,3.301148,66.000000,-16.000000,82.000000,50.000000,749.42209619,0.000000,0.00000000,43.96192679,0.000000,365.10259278,331.54542419,5.36892807,0.00000000,3.29434926,0.13827079,0.00505179,0.00555251,7.83025343,0.10708352,0.05776126,0.03876489,0.02048852,3.29201327,3.89106262,0.42307935,0.00892363,0.02888063,0.01550596,0.04097703,8.46158696,1.94553131,4.11501658
9.000,2,1,1,-529.660,192.828,47.743,12.237178,-3.396035,-3.396035,-15.633213,-4.340155,nan,0.638151,0.557087,-2.277507,0.874815,1.825494,-0.746846,-4.569338,1.301607,3.283301,66.000000,-28.000000,94.000000,38.000000,746.65973731,0.000000,0.00000000,42.98380099,0.000000,364.38501440,330.80188913,5.40560105,0.00000000,2.92100597,0.14204031,0.01116463,0.00922084,7.84961025,0.10719698,0.05779525,0.03915994,0.02080655,3.29796966,3.89846203,0.42821984,0.00893308,0.02889762,0.01566398,0.04161310,8.56439689,1.94923102,4.12246207
9.100,2,1,1,-529.615,192.860,47.701,11.814596,-3.437893,-3.437893,-15.252489,-4.440423,nan,0.638293,0.439576,-1.461042,0.736724,1.815806,-1.289273,-4.870141,0.921359,3.267662,66.000000,-16.000000,82.000000,50.000000,743.96480990,0.000000,0.00000000,42.43881480,0.000000,363.59079045,329.97108723,4.90031849,0.00000000,2.91544160,0.13820600,0.00508394,0.00506738,7.86763379,0.10726762,0.05789652,0.03932252,0.02116783,3.30363946,3.90550754,0.43283229,0.00893897,0.02894826,0.01572901,0.04233567,8.65664583,1.95275377,4.12954933
9.200,2,1,1,-529.570,192.892,47.658,11.397974,-3.479484,-3.479484,-14.877458,-5.027705,nan,0.632133,0.319541,-1.819141,0.599698,1.806003,-1.803208,-4.640958,0.946380,3.255009,66.000000,-16.000000,82.000000,50.000000,741.11391773,0.000000,0.00000000,41.30113554,0.000000,362.78837811,329.11871672,4.47624674,0.00000000,3.28211542,0.13818497,0.00406708,0.00507315,7.88516283,0.10730495,0.05809466,0.03957458,0.02149594,3.30903431,3.91221329,0.43744511,0.00894208,0.02904733,0.01582983,0.04299189,8.74890212,1.95610664,4.13629289
9.398,2,1,1,-529.570,192.892,47.658,11.397974,-3.479484,-3.479484,-14.877458,-5.027705,nan,0.632133,0.319541,-1.819141,0.599698,1.787083,-1.803208,-4.640958,0.946380,3.230647,66.000000,-16.000000,82.000000,50.000000,741.11391773,0.000000,0.00000000,41.30113554,0.000000,362.78837811,329.11871672,4.47624674,0.00000000,3.28211542,0.13818497,0.00406708,0.00507315,7.91984733,0.10737881,0.05848670,0.04007333,0.02214517,3.31970902,3.92548187,0.44657243,0.00894823,0.02924335,0.01602933,0.04429033,8.93144853,1.96274094,4.14963628
9.417,2,1,1,-529.548,192.908,47.636,10.889397,-3.499336,-3.499336,-14.388733,-3.681254,nan,0.499584,0.163933,-1.847789,0.587271,1.785298,-2.408148,-4.956085,1.007876,3.229202,66.000000,-16.000000,82.000000,50.000000,737.88009013,0.000000,0.00000000,37.58966433,0.000000,362.95901649,329.17785910,4.34637444,0.00000000,3.65969061,0.13908037,0.00380172,0.00460308,7.92298852,0.10738064,0.05855226,0.04012158,0.02221459,3.32064523,3.92664600,0.44742823,0.00894839,0.02927613,0.01604863,0.04442917,8.94856458,1.96332300,4.15080654
9.500,2,1,1,-529.427,192.986,47.521,10.243452,-3.602092,-3.602092,-13.845544,-4.096648,nan,0.744486,-0.044817,-0.257831,0.379228,1.777274,-3.105435,-3.853141,1.983771,3.228112,66.000000,-16.000000,82.000000,50.000000,736.02461979,0.000000,0.00000000,41.62807531,0.000000,359.90431487,326.21096965,3.87084790,0.00000000,4.26421693,0.13734086,0.00432552,0.00452875,7.93627085,0.10738125,0.05904262,0.04012580,0.02240332,3.32454425,3.93149610,0.45127751,0.00894844,0.02952131,0.01605032,0.04480664,9.02555021,1.96574805,4.15568031
9.600,2,1,1,-529.377,193.016,47.473,9.884635,-3.642236,-3.642236,-13.526872,-4.497719,nan,0.677084,-0.165735,-1.375099,0.269816,1.767880,-3.439982,-2.492366,2.498430,3.230439,66.000000,-16.000000,82.000000,50.000000,731.61126978,0.000000,0.00000000,38.91113263,0.000000,359.14001629,325.32546968,3.59962518,0.00000000,4.48853438,0.13758058,0.00438595,0.00452509,7.95185543,0.10739129,0.05976337,0.04026977,0.02249791,3.32900214,3.93704263,0.45588834,0.00894927,0.02988169,0.01610791,0.04499581,9.11776675,1.96852131,4.16125267
9.700,2,1,1,-529.326,193.046,47.424,9.536412,-3.682057,-3.682057,-13.218469,-4.683930,nan,0.671234,-0.285775,-2.392099,0.194853,1.758792,-3.716968,-3.509366,2.964433,3.235943,66.000000,-16.000000,82.000000,50.000000,727.77256451,0.000000,0.00000000,37.13615318,0.000000,358.16189025,324.24697120,3.38792562,0.00000000,4.69314078,0.13751045,0.00449132,0.00448171,7.96752473,0.10742115,0.06060538,0.04070568,0.02268555,3.33326163,3.94234341,0.46050194,0.00895176,0.03030269,0.01628227,0.04537110,9.21003872,1.97117171,4.16657703
9.800,2,1,1,-529.274,193.075,47.374,9.237786,-3.721560,-3.721560,-12.959346,-3.767198,nan,0.663993,-0.389657,-1.647254,0.201940,1.750053,-3.910429,-2.019676,3.321506,3.243698,66.000000,-16.000000,82.000000,50.000000,724.10306655,0.000000,0.00000000,35.39243037,0.000000,357.20492189,323.19317967,3.33179085,0.00000000,4.83466690,0.13745804,0.00442929,0.00418955,7.98259223,0.10747670,0.06153778,0.04091250,0.02274773,3.33735781,3.94744186,0.46511786,0.00895639,0.03076889,0.01636500,0.04549546,9.30235713,1.97372093,4.17169727
10.005,2,1,1,-529.274,193.075,47.374,9.237786,-3.721560,-3.721560,-12.959346,-3.767198,nan,0.663993,-0.389657,-1.647254,0.201940,1.732617,-3.910429,-2.019676,3.321506,3.259000,66.000000,-16.000000,82.000000,50.000000,724.10306655,0.000000,0.00000000,35.39243037,0.000000,357.20492189,323.19317967,3.33179085,0.00000000,4.83466690,0.13745804,0.00442929,0.00418955,8.01338309,0.10759021,0.06344316,0.04133513,0.02287480,3.34572849,3.95786067,0.47455062,0.00896585,0.03172158,0.01653405,0.04574960,9.49101238,1.97893033,4.18216061
10.100,2,1,1,-529.109,193.160,47.215,8.227804,-3.838123,-3.838123,-12.065927,-3.795845,nan,0.608608,-0.733147,-0.787817,0.452742,1.725754,-4.196407,0.057296,3.838352,3.269311,66.000000,-16.000000,82.000000,50.000000,715.47510781,0.000000,0.00000000,32.05660561,0.000000,354.77025165,320.66565625,2.83000585,0.00000000,5.00621416,0.13788844,0.00452912,0.00395673,8.02663301,0.10777757,0.06446621,0.04138021,0.02287485,3.34911165,3.96207401,0.47894852,0.00898146,0.03223311,0.01655208,0.04574969,9.57897036,1.98103700,4.18638956
10.200,2,1,1,-529.051,193.188,47.159,7.917714,-3.876335,-3.876335,-11.794049,-3.767198,nan,0.628047,-0.832828,-1.088620,0.581965,1.719122,-4.153894,1.632930,4.013564,3.279338,66.000000,-16.000000,82.000000,50.000000,711.00559425,0.000000,0.00000000,30.17293447,0.000000,353.60975642,319.38773941,2.69982482,0.00000000,4.98910798,0.13772382,0.00462444,0.00388287,8.04029274,0.10803111,0.06551744,0.04147046,0.02291546,3.35250143,3.96629630,0.48356054,0.00900259,0.03275872,0.01658818,0.04583092,9.67121074,1.98314815,4.19062679
10.300,2,1,1,-528.992,193.215,47.102,7.612492,-3.914219,-3.914219,-11.526711,-3.423423,nan,0.646241,-0.926064,-2.062648,0.705483,1.713068,-4.047762,1.317803,4.109593,3.287830,66.000000,-16.000000,82.000000,50.000000,706.79285057,0.000000,0.00000000,28.55801051,0.000000,352.42479517,318.09824614,2.59313087,0.00000000,4.97272897,0.13752310,0.00467964,0.00373616,8.05384277,0.10834470,0.06651596,0.04179456,0.02294192,3.35574032,3.97033128,0.48817403,0.00902872,0.03325798,0.01671782,0.04588384,9.76348064,1.98516564,4.19467540
10.400,2,1,1,-528.932,193.242,47.044,7.312450,-3.951768,-3.951768,-11.264218,-3.409099,nan,0.661736,-1.010904,-1.432394,0.816863,1.707588,-3.880543,1.575634,4.115341,3.294156,66.000000,-16.000000,82.000000,50.000000,702.74961884,0.000000,0.00000000,27.09792446,0.000000,351.22811141,316.80731960,2.47796507,0.00000000,4.99251068,0.13733173,0.00478390,0.00367199,8.06687968,0.10871812,0.06743304,0.04195075,0.02297972,3.35883123,3.97418249,0.49278433,0.00905984,0.03371652,0.01678030,0.04595943,9.85568660,1.98709124,4.19853904
10.500,2,1,1,-528.870,193.268,46.984,7.016352,-3.988934,-3.988934,-11.005286,-3.824493,nan,0.677639,-1.086646,-0.515662,0.908088,1.702649,-3.655614,2.377775,4.026716,3.297856,66.000000,-16.000000,82.000000,50.000000,698.74770774,0.000000,0.00000000,25.78875062,0.000000,350.00405566,315.49652020,2.36675454,0.00000000,4.94581107,0.13713732,0.00496046,0.00371786,8.07947316,0.10914974,0.06824718,0.04197100,0.02306583,3.36178270,3.97786049,0.49739623,0.00909581,0.03412359,0.01678840,0.04613165,9.94792453,1.98893025,4.20222837
10.706,2,1,1,-528.870,193.268,46.984,7.016352,-3.988934,-3.988934,-11.005286,-3.824493,nan,0.677639,-1.086646,-0.515662,0.908088,1.692736,-3.655614,2.377775,4.026716,3.305235,66.000000,-16.000000,82.000000,50.000000,698.74770774,0.000000,0.00000000,25.78875062,0.000000,350.00405566,315.49652020,2.36675454,0.00000000,4.94581107,0.13713732,0.00496046,0.00371786,8.10538960,0.11003798,0.06992260,0.04201268,0.02324304,3.36785659,3.98542955,0.50688717,0.00916983,0.03496130,0.01680507,0.04648607,10.13774331,1.99271477,4.20982074
10.800,2,1,1,-528.678,193.344,46.797,6.183884,-4.097922,-4.097922,-10.281806,-3.366127,nan,0.653585,-1.248714,-0.816465,1.080479,1.689300,-2.722787,4.096648,3.594132,3.300506,66.000000,-14.000000,80.000000,52.000000,689.92490329,0.000000,0.00000000,23.60796262,0.000000,347.02770211,312.47731962,2.04850786,0.00000000,4.61923260,0.13688143,0.00431657,0.00298047,8.11639469,0.11057559,0.07034861,0.04206056,0.02348413,3.37028647,3.98845875,0.51118059,0.00921463,0.03517430,0.01682422,0.04696826,10.22361173,1.99422938,4.21285809
10.900,2,1,1,-528.611,193.368,46.732,5.901492,-4.133284,-4.133284,-10.034775,-2.993704,nan,0.693215,-1.283153,-0.429718,1.157896,1.685958,-2.315076,3.051000,3.260688,3.292663,66.000000,-14.000000,80.000000,52.000000,685.35204745,0.000000,0.00000000,22.31803451,0.000000,345.58834291,310.93077693,1.96512185,0.00000000,4.40605492,0.13648873,0.00437714,0.00285047,8.12754224,0.11117733,0.07067507,0.04207462,0.02362588,3.37273992,3.99151773,0.51573171,0.00926478,0.03533753,0.01682985,0.04725176,10.31463416,1.99575886,4.21592490
11.000,2,1,1,-528.543,193.392,46.667,5.624452,-4.168062,-4.168062,-9.792513,-2.449395,nan,0.711236,-1.304415,0.114592,1.221819,1.682822,-1.873315,4.555014,2.862167,3.282338,66.000000,-14.000000,80.000000,52.000000,680.93584617,0.000000,0.00000000,21.06729790,0.000000,344.22279160,309.47441954,1.89248221,0.00000000,4.13554518,0.13619678,0.00442336,0.00268961,8.13849777,0.11179929,0.07088886,0.04207562,0.02394189,3.37507676,3.99443168,0.52028367,0.00931661,0.03544443,0.01683025,0.04788378,10.40567341,1.99721584,4.21884595
11.100,2,1,1,-528.474,193.415,46.600,5.352283,-4.202173,-4.202173,-9.554456,-2.105620,nan,0.721509,-1.312093,-1.704549,1.267511,1.679793,-1.404075,4.354479,2.426896,3.270013,66.000000,-14.000000,80.000000,52.000000,676.61124142,0.000000,0.00000000,19.87190386,0.000000,342.88869537,308.06063980,1.81461882,0.00000000,3.83236415,0.13596253,0.00448306,0.00257384,8.14930821,0.11242860,0.07100897,0.04229688,0.02423069,3.37730138,3.99720602,0.52483567,0.00936905,0.03550449,0.01691875,0.04846138,10.49671333,1.99860301,4.22162673
11.296,2,1,1,-528.474,193.415,46.600,5.352283,-4.202173,-4.202173,-9.554456,-2.105620,nan,0.721509,-1.312093,-1.704549,1.267511,1.674014,-1.404075,4.354479,2.426896,3.246436,66.000000,-14.000000,80.000000,52.000000,676.61124142,0.000000,0.00000000,19.87190386,0.000000,342.88869537,308.06063980,1.81461882,0.00000000,3.83236415,0.13596253,0.00448306,0.00257384,8.17043810,0.11365864,0.07124373,0.04272936,0.02479517,3.38164959,4.00262869,0.53373292,0.00947155,0.03562186,0.01709175,0.04959034,10.67465837,2.00131435,4.22706199
11.310,2,1,1,-528.441,193.425,46.567,5.031525,-4.218299,-4.218299,-9.249825,-2.521014,nan,0.576552,-1.303473,-0.372423,1.270172,1.673581,-0.814648,5.013381,2.381893,3.244435,66.000000,-14.000000,80.000000,52.000000,675.04424487,0.000000,0.00000000,18.02744560,0.000000,343.11353253,308.32596459,1.69677781,0.00000000,3.73656202,0.13700448,0.00435932,0.00259852,8.17194238,0.11374941,0.07124964,0.04273091,0.02485112,3.38195432,4.00300878,0.53439820,0.00947912,0.03562482,0.01709236,0.04970224,10.68796404,2.00150439,4.22744290
11.400,2,1,1,-528.262,193.479,46.393,4.559741,-4.300092,-4.300092,-8.859833,-2.449395,nan,0.670621,-1.253339,0.415394,1.290545,1.670627,0.097161,5.085000,1.549988,3.231390,66.000000,-14.000000,80.000000,52.000000,667.48910373,0.000000,0.00000000,17.82308018,0.000000,339.79879533,304.97531867,1.57736790,0.00000000,3.17108415,0.13635458,0.00458779,0.00251512,8.18078839,0.11426598,0.07125015,0.04274273,0.02520542,3.38367522,4.00515562,0.53849327,0.00952217,0.03562508,0.01709709,0.05041083,10.76986540,2.00257781,4.22959402
11.500,2,1,1,-528.190,193.498,46.323,4.322581,-4.331069,-4.331069,-8.653649,-2.621282,nan,0.688606,-1.210129,0.100268,1.280843,1.667110,0.564295,4.812845,1.150204,3.217502,66.000000,-14.000000,80.000000,52.000000,662.97436088,0.000000,0.00000000,16.48343328,0.000000,338.41936913,303.51065721,1.52695139,0.00000000,2.89057362,0.13614613,0.00471226,0.00251786,8.19034808,0.11480116,0.07126955,0.04274349,0.02555813,3.38549970,4.00743188,0.54304417,0.00956676,0.03563477,0.01709740,0.05111626,10.86088346,2.00371594,4.23187462
11.600,2,1,1,-528.118,193.517,46.252,4.097880,-4.361140,-4.361140,-8.459020,-2.807493,nan,0.684490,-1.157250,0.544310,1.257527,1.663314,1.005266,4.941761,0.828959,3.204732,66.000000,-14.000000,80.000000,52.000000,658.98092172,0.000000,0.00000000,15.19828263,0.000000,337.16543422,302.19571467,1.49015281,0.00000000,2.78791682,0.13609012,0.00480196,0.00252849,8.19977261,0.11529108,0.07133116,0.04276607,0.02593038,3.38724482,4.00960933,0.54759976,0.00960759,0.03566558,0.01710643,0.05186075,10.95199513,2.00480466,4.23405603
11.700,2,1,1,-528.046,193.535,46.181,3.844419,-4.390253,-4.390253,-8.234672,-1.962380,nan,0.685283,-1.084568,0.845113,1.215814,1.659157,1.493676,5.027705,0.768371,3.193821,66.000000,-14.000000,80.000000,52.000000,655.56034535,0.000000,0.00000000,14.06109072,0.000000,335.90944728,300.88655639,1.41098596,0.00000000,3.14921879,0.13598253,0.00475148,0.00231221,8.20903287,0.11572053,0.07146692,0.04282040,0.02631490,3.38889524,4.01166881,0.55214607,0.00964338,0.03573346,0.01712816,0.05262980,11.04292145,2.00583440,4.23611905
11.800,2,1,1,-527.973,193.552,46.110,3.613409,-4.418391,-4.418391,-8.031800,-2.220211,nan,0.699190,-1.005879,1.017000,1.166984,1.654628,1.925952,4.368803,1.067996,3.185047,66.000000,-14.000000,80.000000,52.000000,652.21733305,0.000000,0.00000000,13.09101440,0.000000,334.60280738,299.52723886,1.37862622,0.00000000,3.47459013,0.13584445,0.00487488,0.00233673,8.21808532,0.11609043,0.07169293,0.04289917,0.02660564,3.39046752,4.01363094,0.55669868,0.00967420,0.03584647,0.01715967,0.05321128,11.13397369,2.00681547,4.23808440
11.998,2,1,1,-527.973,193.552,46.110,3.613409,-4.418391,-4.418391,-8.031800,-2.220211,nan,0.699190,-1.005879,1.017000,1.166984,1.645874,1.925952,4.368803,1.067996,3.168091,66.000000,-14.000000,80.000000,52.000000,652.21733305,0.000000,0.00000000,13.09101440,0.000000,334.60280738,299.52723886,1.37862622,0.00000000,3.47459013,0.13584445,0.00487488,0.00233673,8.23596008,0.11682083,0.07213921,0.04305472,0.02717973,3.39357210,4.01750531,0.56568817,0.00973507,0.03606961,0.01722189,0.05435947,11.31376334,2.00875266,4.24196512
12.014,2,1,1,-527.938,193.560,46.076,3.314439,-4.431545,-4.431545,-7.745984,-3.008028,nan,0.564974,-0.887999,0.658901,1.158919,1.645049,2.457408,4.597986,1.128465,3.167200,66.000000,-14.000000,80.000000,52.000000,651.93832637,0.000000,0.00000000,11.92964385,0.000000,334.83157435,299.83800645,1.39279410,0.00000000,3.80211411,0.13689143,0.00482578,0.00247630,8.23743718,0.11686894,0.07220062,0.04306024,0.02723348,3.39381613,4.01780989,0.56644789,0.00973908,0.03610031,0.01722410,0.05446695,11.32895778,2.00890494,4.24227017
12.100,2,1,1,-527.757,193.599,45.898,2.870424,-4.496775,-4.496775,-7.367199,-2.592634,nan,0.629714,-0.680182,1.461042,0.994203,1.640123,3.166929,4.354479,2.081812,3.167198,66.000000,-14.000000,80.000000,52.000000,645.78180009,0.000000,0.00000000,11.58805016,0.000000,331.69662411,296.69708964,1.31371127,0.00000000,4.34255316,0.13648798,0.00495007,0.00233369,8.24495374,0.11701409,0.07272508,0.04319977,0.02748136,3.39495141,4.01922703,0.57035499,0.00975117,0.03636254,0.01727991,0.05496272,11.40709982,2.00961352,4.24368926
12.200,2,1,1,-527.686,193.612,45.828,2.625853,-4.520905,-4.520905,-7.146758,-2.263183,nan,0.676456,-0.550997,0.787817,0.875423,1.634049,3.506884,3.409099,2.580145,3.170179,66.000000,-14.000000,80.000000,52.000000,642.21626941,0.000000,0.00000000,10.69541465,0.000000,330.28532883,295.21547772,1.26282341,0.00000000,4.61379866,0.13616093,0.00503180,0.00223340,8.25338991,0.11712509,0.07347443,0.04324705,0.02765840,3.39619627,4.02078109,0.57490759,0.00976042,0.03673721,0.01729882,0.05531679,11.49815188,2.01039054,4.24524534
12.300,2,1,1,-527.615,193.625,45.759,2.382452,-4.544069,-4.544069,-6.926521,-2.019676,nan,0.693989,-0.413545,1.790493,0.739669,1.627720,3.803192,2.406423,3.037612,3.175925,66.000000,-14.000000,80.000000,52.000000,638.97658236,0.000000,0.00000000,9.88210615,0.000000,329.00055307,293.88296553,1.22223290,0.00000000,4.84550531,0.13596806,0.00509668,0.00215469,8.26184260,0.11718757,0.07435520,0.04349106,0.02774655,3.39736485,4.02224004,0.57945732,0.00976563,0.03717760,0.01739643,0.05549311,11.58914644,2.01112002,4.24670606
12.400,2,1,1,-527.546,193.638,45.691,2.140542,-4.566318,-4.566318,-6.706860,-2.692902,nan,0.699359,-0.269478,2.148592,0.596624,1.621219,4.052864,2.420747,3.429364,3.184095,66.000000,-14.000000,80.000000,52.000000,636.12585790,0.000000,0.00000000,9.17981623,0.000000,327.80803452,292.65964069,1.29733290,0.00000000,5.03754476,0.13590751,0.00529182,0.00228946,8.27032775,0.11721412,0.07535594,0.04384264,0.02783581,3.39846106,4.02360874,0.58400945,0.00976784,0.03767797,0.01753705,0.05567162,11.68018894,2.01180437,4.24807633
12.500,2,1,1,-527.477,193.649,45.624,1.899174,-4.587712,-4.587712,-6.486885,-2.592634,nan,0.697652,-0.120441,0.859437,0.472906,1.614650,4.253639,2.406423,3.724238,3.194237,66.000000,-14.000000,80.000000,52.000000,633.34965951,0.000000,0.00000000,8.53205319,0.000000,326.68335916,291.51624776,1.28524831,0.00000000,5.18929352,0.13586393,0.00534760,0.00224604,8.27843945,0.11721942,0.07645849,0.04389890,0.02792403,3.39948674,4.02488946,0.58856242,0.00976828,0.03822925,0.01755956,0.05584805,11.77124830,2.01244473,4.24935842
12.697,2,1,1,-527.477,193.649,45.624,1.899174,-4.587712,-4.587712,-6.486885,-2.592634,nan,0.697652,-0.120441,0.859437,0.472906,1.601977,4.253639,2.406423,3.724238,3.213597,66.000000,-14.000000,80.000000,52.000000,633.34965951,0.000000,0.00000000,8.53205319,0.000000,326.68335916,291.51624776,1.28524831,0.00000000,5.18929352,0.13586393,0.00534760,0.00224604,8.29437412,0.11722984,0.07862435,0.04400942,0.02809732,3.40150158,4.02740532,0.59750629,0.00976915,0.03931217,0.01760377,0.05619465,11.95012584,2.01370266,4.25187697
12.713,2,1,1,-527.445,193.655,45.592,1.611220,-4.597687,-4.597687,-6.208907,-3.022352,nan,0.561397,0.063513,1.647254,0.460331,1.600931,4.427900,1.031324,3.755400,3.215485,66.000000,-2.000000,68.000000,64.000000,633.25481875,0.000000,0.00000000,7.84015573,0.000000,326.99606293,291.93984634,1.10965175,0.00000000,5.22896690,0.13550205,0.00402101,0.00061204,8.29566548,0.11723008,0.07881981,0.04404323,0.02809998,3.40165531,4.02759730,0.59821977,0.00976917,0.03940991,0.01761729,0.05619995,11.96439533,2.01379865,4.25206914
12.800,2,1,1,-527.279,193.681,45.428,1.186764,-4.647312,-4.647312,-5.834076,-2.363451,nan,0.582741,0.342232,2.377775,0.294148,1.595641,4.550416,0.143239,4.192648,3.226612,66.000000,-2.000000,68.000000,64.000000,627.85933142,0.000000,0.00000000,7.54464594,0.000000,324.40875075,289.39436530,1.05055719,0.00000000,5.32215248,0.13544763,0.00287965,0.00053247,8.30260065,0.11726738,0.07991882,0.04441834,0.02810025,3.40237792,4.02849978,0.60201817,0.00977228,0.03995941,0.01776733,0.05620050,12.04036331,2.01424989,4.25297240
12.900,2,1,1,-527.248,193.685,45.398,0.997261,-4.656227,-4.656227,-5.653488,-2.578310,nan,0.601771,0.478020,1.174563,0.286863,1.589906,4.549705,-0.787817,4.349799,3.239155,66.000000,-2.000000,68.000000,64.000000,626.29771170,0.000000,0.00000000,7.21237279,0.000000,323.86055512,288.83132601,0.92691378,0.00000000,5.32778375,0.13536505,0.00288564,0.00050956,8.31017964,0.11735099,0.08118128,0.04452351,0.02810971,3.40315765,4.02947365,0.60638284,0.00977925,0.04059064,0.01780940,0.05621942,12.12765681,2.01473683,4.25394706
