t,controller_id,state_code,wp_idx,x,y,dist,yaw_deg,yaw_to_wp_deg,yaw_ref_deg,yaw_err_deg,yaw_rate_deg_s,speed_ref,speed_meas,roll_deg,roll_rate_deg_s,roll_rms_window_deg,roll_rms_total_deg,pitch_deg,pitch_rate_deg_s,pitch_rms_window_deg,pitch_rms_total_deg,base_cmd,diff_cmd,T_left,T_right,J_inst,J_goal,J_wave_roll,J_progress,J_smooth,J_mpc_distance,J_mpc_final,J_mpc_heading,J_mpc_wrong_way,J_mpc_pitch,J_mpc_control,J_mpc_slew,J_mpc_turn,J_total,J_roll,J_pitch,J_roll_rate,J_pitch_rate,J_goal_heading,J_no_progress,J_control,I_roll,I_pitch,I_roll_rate,I_pitch_rate,I_control,I_no_progress,I_goal_heading
0.200,2,1,1,-531.991,189.995,49.991,55.867053,0.005928,0.005928,-55.861125,0.143239,nan,0.000000,1.522766,4.999057,1.166195,0.000000,1.761032,4.053676,1.367112,0.000000,2.500000,-9.500000,12.000000,-7.000000,1040.32648285,0.000000,0.00000000,60.53852979,0.000000,420.30186049,388.08411932,168.79054681,0.00000902,2.39693971,0.14196634,0.02613722,0.04637414,0.00000000,0.00000000,0.00000000,0.00000000,0.00000000,0.00000000,0.00000000,0.00000000,0.00000000,0.00000000,0.00000000,0.00000000,0.00000000,0.00000000,0.00000000
0.514,2,1,1,-531.991,189.995,49.991,55.867053,0.005928,0.005928,-55.861125,0.143239,nan,0.000000,1.522766,4.999057,1.166195,1.522766,1.761032,4.053676,1.367112,1.761032,2.500000,-21.500000,24.000000,-19.000000,994.03430664,0.000000,0.00000000,48.79399099,0.000000,419.82760618,387.47688414,135.31994447,0.00000209,2.40179326,0.14240651,0.02522285,0.04645615,0.52528341,0.00265876,0.00059265,0.00596964,0.00078505,0.23852890,0.27527885,0.00146956,0.00022156,0.00029632,0.00238785,0.00157011,0.02939115,0.13763943,0.29816113
0.600,2,1,1,-531.974,189.980,49.974,55.595468,0.022954,0.022954,-55.572514,-1.317803,nan,0.014037,2.901900,2.707226,2.020452,1.906832,3.248002,2.635606,2.303323,2.170019,0.750000,-20.750000,21.500000,-20.000000,960.11370777,0.000000,0.03453163,17.65792614,0.000000,419.84561245,387.53680090,131.66877697,0.00000015,3.15908387,0.14140549,0.02385821,0.04571195,0.66948431,0.00531669,0.00114760,0.00645157,0.00087641,0.30351299,0.35033723,0.00184182,0.00044306,0.00057380,0.00258063,0.00175282,0.03683633,0.17516862,0.37939124
0.700,2,1,1,-531.974,189.978,49.974,55.488090,0.025763,0.025763,-55.462327,-0.701873,nan,0.021587,3.141471,3.323155,2.261053,2.209752,3.470392,3.051000,2.553623,2.485240,0.750000,-20.750000,21.500000,-20.000000,960.86323384,0.000000,0.05737107,17.51638096,0.000000,419.81919322,387.48822441,132.49582636,0.00000015,3.27509384,0.14155765,0.02395370,0.04563248,0.83689193,0.00892588,0.00188170,0.00729297,0.00101825,0.37851086,0.43698912,0.00227315,0.00074382,0.00094085,0.00291719,0.00203651,0.04546296,0.21849456,0.47313857
0.800,2,1,1,-531.974,189.973,49.974,55.348230,0.031086,0.031086,-55.317145,-1.776169,nan,0.035842,3.358177,2.535338,2.696780,2.438896,3.695489,2.649930,3.016217,2.724430,0.375000,-20.375000,20.750000,-20.000000,959.10559262,0.000000,0.08163187,17.86428585,0.000000,419.96562285,387.72138032,129.87568662,0.00000003,3.38694950,0.14106284,0.02377039,0.04520235,1.00354716,0.01304638,0.00271333,0.00778227,0.00112516,0.45304770,0.52314408,0.00268824,0.00108720,0.00135667,0.00311291,0.00225032,0.05376489,0.26157204,0.56630962
1.007,2,1,1,-531.974,189.973,49.974,55.348230,0.031086,0.031086,-55.317145,-1.776169,nan,0.035842,3.358177,2.535338,2.696780,2.704240,3.695489,2.649930,3.016217,3.003160,0.375000,-20.375000,20.750000,-20.000000,959.10559037,0.000000,0.08163187,17.86428585,0.000000,419.96562285,387.72138032,129.87568662,0.00000003,3.38694950,0.14106284,0.02376814,0.04520235,1.34792505,0.02156102,0.00443184,0.00879336,0.00134607,0.60707130,0.70117546,0.00354600,0.00179675,0.00221592,0.00351734,0.00269214,0.07092007,0.35058773,0.75883912
1.100,2,1,1,-531.986,189.959,49.986,54.835088,0.046618,0.046618,-54.788470,-1.045648,nan,0.056406,3.640812,0.501338,3.269360,2.816285,4.128575,0.931056,3.652023,3.139169,6.875000,-25.875000,32.750000,-19.000000,998.96426711,0.000000,0.11313412,69.96768089,0.000000,419.22389202,387.04543199,118.71542356,0.00000396,3.69375041,0.14123501,0.01917046,0.04454471,1.50204027,0.02610152,0.00540494,0.00881129,0.00135844,0.67561930,0.78052710,0.00421768,0.00217513,0.00270247,0.00352452,0.00271689,0.08435355,0.39026355,0.84452412
1.200,2,1,1,-531.995,189.954,49.995,54.622792,0.052921,0.052921,-54.569871,-2.907761,nan,0.082646,3.619703,0.100268,3.446011,2.906456,4.132573,-0.415394,3.863611,3.251967,15.875000,-28.875000,44.750000,-13.000000,996.89739238,0.000000,0.10297356,79.46108071,0.000000,418.25688034,386.24917337,108.82694379,0.00000493,3.79982967,0.14158626,0.01442037,0.04449937,1.66526611,0.03088156,0.00644336,0.00881206,0.00136107,0.74804614,0.86442060,0.00530133,0.00257346,0.00322168,0.00352482,0.00272213,0.10602666,0.43221030,0.93505767
1.300,2,1,1,-532.006,189.948,50.006,54.387255,0.059621,0.059621,-54.327634,-1.475366,nan,0.108167,3.540989,-0.759169,3.552588,2.969745,4.056592,-1.188887,4.009128,3.333147,18.875000,-37.875000,56.750000,-19.000000,1001.71579223,0.000000,0.08505498,95.21098845,0.000000,418.51028159,387.06239550,96.84947755,0.00000000,3.79475424,0.14408826,0.01290535,0.04584630,1.82800998,0.03546509,0.00744595,0.00885595,0.00138259,0.81997466,0.94779355,0.00709218,0.00295542,0.00372298,0.00354238,0.00276519,0.14184351,0.47389678,1.02496833
1.400,2,1,1,-532.019,189.942,50.019,54.123494,0.065992,0.065992,-54.057502,-2.807493,nan,0.129794,3.405368,-1.461042,3.579963,3.008446,3.912814,-1.661578,4.071148,3.385230,27.875000,-40.875000,68.750000,-13.000000,998.51100386,0.000000,0.08246695,100.77564843,0.000000,417.62012990,386.39167056,89.51509747,0.00000000,3.91942265,0.14742226,0.01246128,0.04668436,1.98960988,0.03970298,0.00837845,0.00901847,0.00142463,0.89116864,1.03037738,0.00953932,0.00330858,0.00418923,0.00360739,0.00284927,0.19078636,0.51518869,1.11396080
1.615,2,1,1,-532.019,189.942,50.019,54.123494,0.065992,0.065992,-54.057502,-2.807493,nan,0.129794,3.405368,-1.461042,3.579963,3.071956,3.912814,-1.661578,4.071148,3.470423,30.875000,-49.875000,80.750000,-19.000000,979.68511258,0.000000,0.07412504,93.84009691,0.000000,416.85445689,385.44165020,79.29507674,0.00000000,3.96056357,0.15245996,0.01618989,0.05049337,2.33860285,0.04879932,0.01038000,0.00936731,0.00151487,1.04398120,1.20763739,0.01692277,0.00406661,0.00519000,0.00374692,0.00302973,0.33845539,0.60381870,1.30497649
1.700,2,1,1,-532.066,189.932,50.066,53.113900,0.077817,0.077817,-53.036084,-3.953409,nan,0.164248,2.647822,-3.265859,3.332357,3.049375,3.157164,-3.323155,3.839402,3.453337,39.875000,-52.875000,92.750000,-13.000000,986.38805918,0.000000,0.04772632,106.77433455,0.000000,417.45092491,386.74249651,71.25078379,0.00000000,3.89999633,0.15579397,0.01436945,0.05163337,2.47264449,0.05098985,0.01089906,0.01006157,0.00165864,1.10257123,1.27579265,0.02067149,0.00424915,0.00544953,0.00402463,0.00331727,0.41342981,0.63789633,1.37821404
1.800,2,1,1,-532.084,189.932,50.084,52.699107,0.078350,0.078350,-52.620757,-3.394775,nan,0.168835,2.299888,-2.922085,3.085106,3.008019,2.818380,-3.480719,3.591726,3.417121,43.500000,-56.500000,100.000000,-13.000000,993.06842276,0.000000,0.02963298,115.69728061,0.000000,417.87015003,387.65730388,67.80004935,0.00000000,3.78410866,0.16008712,0.01449597,0.05531417,2.62700882,0.05292297,0.01138289,0.01071169,0.00184312,1.17003460,1.35435861,0.02575493,0.00441025,0.00569144,0.00428467,0.00368625,0.51509854,0.67717931,1.46254325
1.900,2,1,1,-532.102,189.933,50.102,52.240785,0.076547,0.076547,-52.164238,-4.411775,nan,0.177230,1.915494,-3.752874,2.766468,2.954956,2.441420,-4.726902,3.271695,3.367561,47.750000,-52.250000,100.000000,-4.500000,1003.02562047,0.000000,0.01418133,124.35406872,0.000000,418.20684091,388.40007059,68.20216420,0.00000000,3.62848680,0.15772294,0.01162714,0.05045785,2.77877776,0.05426427,0.01174605,0.01178432,0.00218346,1.23635067,1.43168362,0.03076538,0.00452202,0.00587302,0.00471373,0.00436692,0.61530756,0.71584181,1.54543833
2.000,2,1,1,-532.119,189.937,50.119,51.742221,0.072235,0.072235,-51.669985,-4.913113,nan,0.180142,1.501032,-4.555014,2.382763,2.893422,2.025354,-3.738550,2.889535,3.307324,47.750000,-52.250000,100.000000,-4.500000,1009.37078655,0.000000,0.00285055,131.44276750,0.000000,418.89128469,389.46609591,65.94781988,0.00000000,3.40038440,0.15772250,0.01147577,0.05038535,2.92766397,0.05508780,0.01199594,0.01336424,0.00239632,1.30140589,1.50763875,0.03577505,0.00459065,0.00599797,0.00534570,0.00479264,0.71550100,0.75381937,1.62675736
2.214,2,1,1,-532.119,189.937,50.119,51.742221,0.072235,0.072235,-51.669985,-4.913113,nan,0.180142,1.501032,-4.555014,2.382763,2.779094,2.025354,-3.738550,2.889535,3.195906,47.750000,-52.250000,100.000000,-4.500000,1009.37078655,0.000000,0.00285055,131.44276750,0.000000,418.89128469,389.46609591,65.94781988,0.00000000,3.40038440,0.15772250,0.01147577,0.05038535,3.24543113,0.05684544,0.01252927,0.01673625,0.00285062,1.44025294,1.66974942,0.04646717,0.00473712,0.00626464,0.00669450,0.00570124,0.92934341,0.83487471,1.80031618
2.300,2,1,1,-532.167,189.961,50.167,50.080226,0.044471,0.044471,-50.035755,-6.331184,nan,0.180975,0.175887,-4.411775,1.704176,2.721443,0.568671,-4.526367,2.165976,3.131468,50.500000,-49.500000,100.000000,1.000000,1000.37052542,0.000000,0.00000000,127.18386147,0.000000,419.25035599,389.69323293,61.04258351,0.00000000,2.98670944,0.15651299,0.01046049,0.04680859,3.36609296,0.05685523,0.01254633,0.01801949,0.00312078,1.49307217,1.73168267,0.05079629,0.00473794,0.00627317,0.00720780,0.00624155,1.01592585,0.86584133,1.86634021
2.400,2,1,1,-532.180,189.974,50.180,49.484656,0.030147,0.030147,-49.454508,-6.102001,nan,0.182420,-0.276703,-4.970409,1.266606,2.659547,0.055845,-4.325831,1.671994,3.059517,51.250000,-48.750000,100.000000,2.500000,997.57533918,0.000000,0.00000000,125.71153001,0.000000,419.31496012,389.70575209,59.93555426,0.00000000,2.69590552,0.15623894,0.00988490,0.04551333,3.50284019,0.05688321,0.01254652,0.01990031,0.00340570,1.55265546,1.80165108,0.05579790,0.00474027,0.00627326,0.00796013,0.00681140,1.11595795,0.90082554,1.94081933
2.500,2,1,1,-532.192,189.988,50.192,48.876947,0.013189,0.013189,-48.863758,-6.818198,nan,0.186964,-0.714436,-4.540691,0.856394,2.605359,-0.448234,-4.827169,1.156976,2.993737,51.625000,-48.375000,100.000000,3.250000,993.10075000,0.000000,0.00000000,123.92553654,0.000000,419.31591709,389.67152328,57.58488114,0.00000000,2.39210382,0.15588697,0.00993977,0.04496138,3.63656649,0.05706976,0.01255876,0.02147024,0.00376056,1.61083342,1.87007127,0.06080249,0.00475581,0.00627938,0.00858809,0.00752111,1.21604974,0.93503564,2.01354177
2.600,2,1,1,-532.201,190.005,50.201,48.259842,-0.006196,-0.006196,-48.266038,-6.589015,nan,0.192814,-1.124550,-3.008028,0.602372,2.560805,-0.937488,-4.325831,0.676533,2.936935,51.812500,-48.187500,100.000000,3.625000,989.16396512,0.000000,0.00000000,121.86130136,0.000000,419.23332790,389.53004118,56.06298557,0.00000000,2.26682249,0.15552967,0.00990966,0.04404729,3.76672365,0.05753211,0.01261231,0.02215943,0.00404562,1.66761511,1.93694908,0.06580998,0.00479434,0.00630616,0.00886377,0.00809124,1.31619967,0.96847454,2.08451889
2.700,2,1,1,-532.208,190.024,50.208,47.635261,-0.027870,-0.027870,-47.663131,-6.474423,nan,0.199628,-1.506781,-3.767198,0.825699,2.527119,-1.409692,-5.085000,0.731437,2.891403,51.906000,-48.094000,100.000000,3.812000,984.43594481,0.000000,0.00000000,119.00333285,0.000000,419.04015713,389.23966967,54.38230471,0.00000000,2.56203230,0.15517473,0.00989670,0.04337672,3.89474457,0.05836154,0.01273331,0.02323955,0.00443922,1.72294401,2.00221266,0.07081428,0.00486346,0.00636666,0.00929582,0.00887843,1.41628555,1.00110633,2.15368002
2.936,2,1,1,-532.208,190.024,50.208,47.635261,-0.027870,-0.027870,-47.663131,-6.474423,nan,0.199628,-1.506781,-3.767198,0.825699,2.455881,-1.409692,-5.085000,0.731437,2.794740,51.906000,-48.094000,100.000000,3.812000,984.43594467,0.000000,0.00000000,119.00333285,0.000000,419.04015713,389.23966967,54.38230471,0.00000000,2.56203230,0.15517473,0.00989656,0.04337672,4.19700630,0.06031985,0.01301899,0.02578976,0.00536851,1.85357742,2.15630219,0.08262958,0.00502665,0.00650949,0.01031590,0.01073701,1.65259170,1.07815109,2.31697177
3.000,2,1,1,-532.216,190.093,50.216,45.729180,-0.105905,-0.105905,-45.835085,-6.703606,nan,0.158461,-2.479642,-2.449395,1.521963,2.456427,-2.664576,-3.122620,1.515026,2.791830,51.953000,-48.047000,100.000000,3.906000,966.41812249,0.000000,0.00376217,107.20119089,0.000000,418.56482624,388.23839772,48.87954343,0.00000000,3.32295323,0.15521169,0.01016080,0.04207631,4.27397662,0.06175975,0.01329610,0.02608247,0.00546365,1.88637638,2.19516055,0.08583771,0.00514665,0.00664805,0.01043299,0.01092730,1.71675421,1.09758028,2.35797047
3.100,2,1,1,-532.215,190.119,50.215,45.085142,-0.135846,-0.135846,-45.220989,-6.460099,nan,0.206777,-2.718018,-3.179916,1.945495,2.465906,-2.995816,-1.948057,2.023929,2.799108,51.976500,-48.023500,100.000000,3.953000,960.57839810,0.000000,0.00905656,103.91146723,0.000000,417.96621684,387.51385387,47.41945682,0.00000000,3.55225549,0.15451094,0.01015587,0.04142449,4.39196992,0.06445912,0.01384266,0.02685221,0.00552143,1.93618972,2.25426132,0.09084346,0.00537159,0.00692133,0.01074088,0.01104285,1.81686917,1.12713066,2.42023715
3.200,2,1,1,-532.210,190.147,50.211,44.437487,-0.167548,-0.167548,-44.605035,-6.589015,nan,0.241524,-2.906335,-1.876437,2.318780,2.481846,-3.270595,-2.435071,2.490653,2.816097,51.988500,-48.011500,100.000000,3.977000,954.26174464,0.000000,0.01454856,100.52063576,0.000000,417.32677481,386.72815571,45.71798017,0.00000000,3.74844855,0.15389714,0.01022532,0.04107863,4.50716641,0.06754671,0.01449434,0.02712035,0.00561174,1.98467449,2.31186750,0.09585128,0.00562889,0.00724717,0.01084814,0.01122347,1.91702569,1.15593375,2.48084312
3.300,2,1,1,-532.204,190.176,50.204,43.786694,-0.200969,-0.200969,-43.987663,-6.044705,nan,0.269224,-3.049378,-2.091296,2.642732,2.502167,-3.485289,-1.031324,2.909578,2.840149,51.994500,-48.005500,100.000000,3.989000,948.63062300,0.000000,0.01945574,97.39610417,0.000000,416.66979241,385.91417451,44.51887988,0.00000000,3.90849751,0.15328181,0.01020834,0.04022863,4.61993524,0.07094630,0.01523451,0.02745346,0.00562794,2.03183458,2.36797843,0.10086003,0.00591219,0.00761725,0.01098139,0.01125588,2.01720052,1.18398922,2.53979322
3.518,2,1,1,-532.204,190.176,50.204,43.786694,-0.200969,-0.200969,-43.987663,-6.044705,nan,0.269224,-3.049378,-2.091296,2.642732,2.541745,-3.485289,-1.031324,2.909578,2.886973,51.997500,-48.002500,100.000000,3.995000,948.63012284,0.000000,0.01945612,97.39543342,0.000000,416.66938422,385.91365418,44.51995711,0.00000000,3.90852527,0.15328061,0.01020677,0.04022514,4.86577799,0.07835761,0.01684812,0.02817967,0.00566326,2.13464635,2.49030355,0.11177943,0.00652980,0.00842406,0.01127187,0.01132652,2.23558858,1.24515178,2.66830793
3.600,2,1,1,-532.172,190.272,50.172,41.817522,-0.310771,-0.310771,-42.128293,-6.359832,nan,0.317230,-3.206921,-0.902409,2.966030,2.559813,-3.733432,0.859437,3.369604,2.910274,57.997500,-42.002500,100.000000,15.995000,935.61798593,0.000000,0.02506786,91.02874009,0.000000,414.52213917,383.31700087,42.37262180,0.00000000,4.15908754,0.15135821,0.00809230,0.03387810,4.95161314,0.08143867,0.01754408,0.02823050,0.00567248,2.17009345,2.53265182,0.11598214,0.00678656,0.00877204,0.01129220,0.01134496,2.31964280,1.26632591,2.71261681
3.700,2,1,1,-532.156,190.307,50.157,41.158927,-0.350149,-0.350149,-41.509076,-6.703606,nan,0.338444,-3.163425,1.131592,3.082684,2.579015,-3.677431,0.845113,3.543274,2.934971,56.499000,-43.501000,100.000000,12.998000,926.90031844,0.000000,0.02187428,86.76932347,0.000000,413.76452742,382.36051105,39.64976921,0.00000000,4.14060349,0.15068035,0.00880840,0.03422077,5.05347923,0.08509576,0.01836776,0.02832799,0.00568336,2.21207081,2.58286829,0.12106526,0.00709131,0.00918388,0.01133120,0.01136671,2.42130519,1.29143414,2.76508851
3.800,2,1,1,-532.139,190.342,50.140,40.558085,-0.390850,-0.390850,-40.948935,-5.700930,nan,0.361249,-3.082020,0.186211,3.137161,2.594310,-3.567891,2.076972,3.628955,2.954390,55.749500,-44.250500,100.000000,11.499000,920.51527582,0.000000,0.02037738,83.27614109,0.000000,412.93275887,381.32316182,38.63678813,0.00000000,4.13299549,0.15018296,0.00905790,0.03381219,5.15270060,0.08856920,0.01914358,0.02833063,0.00574908,2.25294819,2.63182675,0.12613316,0.00738077,0.00957179,0.01133225,0.01149817,2.52266319,1.31591337,2.81618524
3.900,2,1,1,-532.118,190.379,50.120,39.907812,-0.432783,-0.432783,-40.340595,-5.686606,nan,0.380557,-2.954702,1.403747,3.142738,2.604702,-3.385447,3.251535,3.645496,2.966859,55.749000,-44.251000,100.000000,11.498000,913.23658443,0.000000,0.01983469,79.53791178,0.000000,411.97948994,380.14241320,37.19262934,0.00000000,4.17209131,0.14967655,0.00912366,0.03341397,5.24914296,0.09175914,0.01984155,0.02848063,0.00591004,2.29258951,2.67936494,0.13119715,0.00764659,0.00992078,0.01139225,0.01182009,2.62394297,1.33968247,2.86573689
4.000,2,1,1,-532.096,190.416,50.097,39.336867,-0.475933,-0.475933,-39.812800,-7.119001,nan,0.404310,-2.815205,1.489690,3.080292,2.610466,-3.170309,4.125296,3.559695,2.972397,55.749000,-44.251000,100.000000,11.498000,905.56975750,0.000000,0.01667650,76.09720032,0.000000,410.99323952,378.95717185,35.16718831,0.00000000,4.14549020,0.14928377,0.00937930,0.03412774,5.34325622,0.09465960,0.02045461,0.02864983,0.00616955,2.33126195,2.72579147,0.13626922,0.00788830,0.01022730,0.01145993,0.01233910,2.72538438,1.36289573,2.91407743
4.215,2,1,1,-532.096,190.416,50.097,39.336867,-0.475933,-0.475933,-39.812800,-7.119001,nan,0.404310,-2.815205,1.489690,3.080292,2.621821,-3.170309,4.125296,3.559695,2.983315,55.749000,-44.251000,100.000000,11.498000,905.56975750,0.000000,0.01667650,76.09720032,0.000000,410.99323952,378.95717185,35.16718831,0.00000000,4.14549020,0.14928377,0.00937930,0.03412774,5.54510021,0.10088020,0.02176942,0.02901271,0.00672611,2.41420242,2.82536210,0.14714725,0.00840668,0.01088471,0.01160508,0.01345222,2.94294500,1.41268105,3.01775303
4.300,2,1,1,-532.014,190.534,50.017,37.394838,-0.611484,-0.611484,-38.006323,-6.245240,nan,0.383291,-2.157066,2.692902,2.779821,2.612995,-2.081158,4.827169,3.107266,2.967343,60.500000,-39.500000,100.000000,21.000000,890.03600629,0.000000,0.00780301,68.31205738,0.000000,408.41381644,375.82978340,33.38598291,0.00000000,3.90128497,0.14867121,0.00800156,0.02860541,5.61819754,0.10233084,0.02199448,0.02948372,0.00702880,2.44422530,2.86153462,0.15159979,0.00852757,0.01099724,0.01179349,0.01405761,3.03199581,1.43076731,3.05528162
4.400,2,1,1,-531.982,190.574,49.986,36.750122,-0.658222,-0.658222,-37.408344,-5.127972,nan,0.441871,-1.885227,2.134268,2.542537,2.598045,-1.619850,5.371479,2.737868,2.942452,57.750000,-42.250000,100.000000,15.500000,883.29210602,0.000000,0.00331506,65.56746138,0.000000,407.49346581,374.77780425,31.59440766,0.00000000,3.66943088,0.14791925,0.00909237,0.02920937,5.70075919,0.10362936,0.02215426,0.02983044,0.00746804,2.47831061,2.90264909,0.15671739,0.00863578,0.01107713,0.01193218,0.01493608,3.13434779,1.45132455,3.09788827
4.500,2,1,1,-531.948,190.615,49.952,36.111192,-0.705618,-0.705618,-36.816811,-6.603339,nan,0.483353,-1.596862,3.638282,2.263315,2.579163,-1.125634,5.428775,2.290811,2.913073,60.500000,-39.500000,100.000000,21.000000,875.14285513,0.000000,0.00055801,62.39936264,0.000000,405.83931025,372.82122183,30.47027495,0.00000000,3.42882489,0.14717538,0.00839718,0.02773000,5.78143918,0.10456231,0.02223152,0.03083941,0.00791732,2.51137236,2.94257370,0.16194256,0.00871353,0.01111576,0.01233576,0.01583464,3.23885129,1.47128685,3.13921545
4.600,2,1,1,-531.912,190.657,49.916,35.475518,-0.753575,-0.753575,-36.229094,-6.460099,nan,0.503893,-1.298829,2.893437,1.956694,2.557203,-0.603490,4.612310,1.787589,2.881231,60.500000,-39.500000,100.000000,21.000000,868.11320982,0.000000,0.00000000,59.45754478,0.000000,404.64763377,371.42341002,29.29029910,0.00000000,3.11200499,0.14664429,0.00850984,0.02716304,5.85888044,0.10517870,0.02225370,0.03147669,0.00824119,2.54334448,2.98122488,0.16716080,0.00876489,0.01112685,0.01259068,0.01648238,3.34321604,1.49061244,3.17918060
4.808,2,1,1,-531.912,190.657,49.916,35.475518,-0.753575,-0.753575,-36.229094,-6.460099,nan,0.503893,-1.298829,2.893437,1.956694,2.513988,-0.603490,4.612310,1.787589,2.818335,60.500000,-39.500000,100.000000,21.000000,868.11320982,0.000000,0.00000000,59.45754478,0.000000,404.64763377,371.42341002,29.29029910,0.00000000,3.11200499,0.14664429,0.00850984,0.02716304,6.02012609,0.10646211,0.02229988,0.03280363,0.00891555,2.60991578,3.06170310,0.17802605,0.00887184,0.01114994,0.01312145,0.01783110,3.56052091,1.53085155,3.26239472
4.900,2,1,1,-531.792,190.782,49.798,33.598124,-0.899829,-0.899829,-34.497953,-6.531719,nan,0.460659,-0.374918,4.110972,1.375563,2.489872,1.062369,5.815522,1.105100,2.794627,60.500000,-39.500000,100.000000,21.000000,852.71196978,0.000000,0.00000000,53.05470658,0.000000,402.29431575,368.78804157,25.74955910,0.00000000,2.64366765,0.14670661,0.00910545,0.02586707,6.08557899,0.10650927,0.02236298,0.03398484,0.00938831,2.63653375,3.09398246,0.18281737,0.00887577,0.01118149,0.01359394,0.01877663,3.65634744,1.54699123,3.29566719
5.000,2,1,1,-531.749,190.824,49.756,32.979607,-0.948976,-0.948976,-33.928582,-5.371479,nan,0.524584,-0.072294,3.079648,1.038965,2.463820,1.622530,5.743902,1.006461,2.775261,60.500000,-39.500000,100.000000,21.000000,847.55160447,0.000000,0.00000000,51.08689943,0.000000,400.86564911,367.16929276,25.22527379,0.00000000,3.02459283,0.14593393,0.00913720,0.02482542,6.15429696,0.10651118,0.02252338,0.03470715,0.00989085,2.66458835,3.12803785,0.18803821,0.00887593,0.01126169,0.01388286,0.01978170,3.76076413,1.56401892,3.33073543
5.100,2,1,1,-531.705,190.866,49.712,32.363615,-0.998135,-0.998135,-33.361750,-5.944437,nan,0.550684,0.218814,4.540691,0.696650,2.438755,2.168018,5.357155,1.234285,2.764204,63.250000,-36.750000,100.000000,26.500000,841.74229795,0.000000,0.00000000,48.90460771,0.000000,399.21196642,365.26365687,24.73848648,0.00000000,3.44631002,0.14561979,0.00842230,0.02322835,6.22202475,0.10652868,0.02280968,0.03627695,0.01032787,2.69170575,3.16098766,0.19338817,0.00887739,0.01140484,0.01451078,0.02065573,3.86776339,1.58049383,3.36463219
5.200,2,1,1,-531.660,190.908,49.668,31.751150,-1.047196,-1.047196,-32.798346,-5.872817,nan,0.576419,0.495470,3.380451,0.410350,2.415260,2.688653,4.956085,1.668034,2.762714,63.250000,-36.750000,100.000000,26.500000,836.95076301,0.000000,0.00000000,47.38922513,0.000000,397.96233195,363.89046387,23.69816922,0.00000000,3.83412887,0.14511205,0.00856574,0.02276619,6.28725097,0.10661842,0.02325010,0.03714723,0.01070199,2.71792152,3.19287224,0.19873947,0.00888487,0.01162505,0.01485889,0.02140398,3.97478935,1.59643612,3.39740190
5.300,2,1,1,-531.614,190.949,49.623,31.144376,-1.096049,-1.096049,-32.240425,-6.288212,nan,0.603843,0.757966,3.738550,0.401801,2.393817,3.175573,4.655282,2.161148,2.771401,63.250000,-36.750000,100.000000,26.500000,832.36369101,0.000000,0.00000000,46.23252408,0.000000,396.72345686,362.55529863,22.47244708,0.00000000,4.20384728,0.14461551,0.00896210,0.02253946,6.35099177,0.10682844,0.02386450,0.03821168,0.01103209,2.74325359,3.22371058,0.20409089,0.00890237,0.01193225,0.01528467,0.02206418,4.08181788,1.61185529,3.42906699
5.504,2,1,1,-531.614,190.949,49.623,31.144376,-1.096049,-1.096049,-32.240425,-6.288212,nan,0.603843,0.757966,3.738550,0.401801,2.351981,3.175573,4.655282,2.161148,2.788049,63.250000,-36.750000,100.000000,26.500000,832.36369101,0.000000,0.00000000,46.23252408,0.000000,396.72345686,362.55529863,22.47244708,0.00000000,4.20384728,0.14461551,0.00896210,0.02253946,6.48117968,0.10725739,0.02511939,0.04038577,0.01170630,2.79499328,3.28669659,0.21502096,0.00893812,0.01255970,0.01615431,0.02341259,4.30041913,1.64334829,3.49374160
5.600,2,1,1,-531.476,191.072,49.487,29.349890,-1.240926,-1.240926,-30.590817,-6.302536,nan,0.515035,1.424996,2.678578,0.875122,2.338745,4.381211,4.268536,3.257839,2.824139,64.625000,-35.375000,100.000000,29.250000,821.74387651,0.000000,0.00000000,42.05966839,0.000000,394.41950965,360.11377347,19.95350293,0.00000000,5.02248263,0.14529683,0.00896212,0.02068049,6.53748858,0.10796818,0.02623921,0.04090899,0.01197204,2.81683067,3.31335102,0.22021848,0.00899735,0.01311961,0.01636359,0.02394407,4.40436954,1.65667551,3.52103834
5.700,2,1,1,-531.430,191.112,49.443,28.758777,-1.288597,-1.288597,-30.047374,-6.488747,nan,0.546188,1.597333,2.649930,1.128539,2.327377,4.681619,2.248859,3.774416,2.868657,65.312500,-34.687500,100.000000,30.625000,818.66971618,0.000000,0.00000000,41.82100549,0.000000,393.30345146,358.95453851,19.15123641,0.00000000,5.26535248,0.14508554,0.00898429,0.02006201,6.59470418,0.10890064,0.02757421,0.04144363,0.01204905,2.83882763,3.34022280,0.22568622,0.00907505,0.01378711,0.01657745,0.02409810,4.51372449,1.67011140,3.54853453
5.800,2,1,1,-531.385,191.152,49.398,28.172430,-1.335863,-1.335863,-29.508293,-5.042029,nan,0.567223,1.745973,1.919409,1.362079,2.318274,4.922382,2.406423,4.229353,2.918032,65.312000,-34.688000,100.000000,30.624000,817.07442059,0.000000,0.00000000,42.20032048,0.000000,392.36604020,358.02370417,18.85550436,0.00000000,5.45613996,0.14477969,0.00886628,0.01906545,6.65029282,0.11001492,0.02905033,0.04172419,0.01213724,2.86004624,3.36616497,0.23115494,0.00916791,0.01452516,0.01668967,0.02427449,4.62309878,1.68308248,3.57505780
5.900,2,1,1,-531.341,191.191,49.355,27.590859,-1.382692,-1.382692,-28.973551,-5.271212,nan,0.580791,1.870932,1.833465,1.560954,2.311173,5.099452,1.589958,4.594251,2.970136,65.656000,-34.344000,100.000000,31.312000,814.85169411,0.000000,0.00000000,42.55721163,0.000000,391.42870828,357.10399313,17.98540223,0.00000000,5.60407343,0.14460913,0.00904647,0.01864980,6.70442275,0.11129429,0.03063439,0.04198015,0.01217574,2.88050080,3.39119294,0.23664443,0.00927452,0.01531720,0.01679206,0.02435148,4.73288855,1.69559647,3.60062601
6.000,2,1,1,-531.297,191.230,49.312,27.013487,-1.429120,-1.429120,-28.442607,-5.314184,nan,0.577143,1.969413,2.134268,1.709221,2.305708,5.210176,0.701873,4.837092,3.022866,65.828000,-34.172000,100.000000,31.656000,812.86348824,0.000000,0.00000000,42.81466933,0.000000,390.64860395,356.35806364,17.18016024,0.00000000,5.68997655,0.14456104,0.00920981,0.01824369,6.75721813,0.11271241,0.03228862,0.04232713,0.01218325,2.90022001,3.41533990,0.24214682,0.00939270,0.01614431,0.01693085,0.02436649,4.84293637,1.70766995,3.62527501
6.219,2,1,1,-531.297,191.230,49.312,27.013487,-1.429120,-1.429120,-28.442607,-5.314184,nan,0.577143,1.969413,2.134268,1.709221,2.294331,5.210176,0.701873,4.837092,3.129423,65.914000,-34.086000,100.000000,31.828000,812.85855358,0.000000,0.00000000,42.81580096,0.000000,390.63709603,356.34380265,17.19859745,0.00000000,5.69129834,0.14457522,0.00917895,0.01820398,6.87288712,0.11581906,0.03591248,0.04308723,0.01219969,2.94341818,3.46823780,0.25421268,0.00965159,0.01795624,0.01723489,0.02439938,5.08425363,1.73411890,3.67927273
6.300,2,1,1,-531.172,191.345,49.190,25.303461,-1.566291,-1.566291,-26.869752,-4.956085,nan,0.481955,2.102410,0.415394,1.928198,2.291892,5.137799,-1.231859,5.095814,3.164391,65.957000,-34.043000,100.000000,31.914000,804.67087678,0.000000,0.00001133,40.07822875,0.000000,389.04940943,354.76777494,15.03467774,0.00000000,5.56885717,0.14534122,0.00952942,0.01704679,6.91166179,0.11712544,0.03721277,0.04309786,0.01221838,2.95764385,3.48569637,0.25866712,0.00976045,0.01860638,0.01723914,0.02443675,5.17334248,1.74284818,3.69705482
6.400,2,1,1,-531.132,191.382,49.151,24.784564,-1.611325,-1.611325,-26.395889,-5.700930,nan,0.508937,2.100272,0.386747,2.005216,2.288926,4.998282,-1.618606,5.136037,3.202338,65.978500,-34.021500,100.000000,31.957000,804.40590682,0.000000,0.00000976,41.72835312,0.000000,388.43695081,354.28079887,14.21314439,0.00000000,5.57432425,0.14528941,0.00993907,0.01709715,6.95821903,0.11873895,0.03873580,0.04310926,0.01225830,2.97463414,3.50656124,0.26418134,0.00989491,0.01936790,0.01724370,0.02451661,5.28362690,1.75328062,3.71829267
6.500,2,1,1,-531.093,191.419,49.114,24.222914,-1.656080,-1.656080,-25.878994,-4.640958,nan,0.519818,2.075965,0.744845,2.060606,2.285701,4.788135,-1.862113,5.102842,3.233592,65.989000,-34.011000,100.000000,31.978000,804.57757594,0.000000,0.00000119,43.29455949,0.000000,387.89242904,353.85201439,13.81504672,0.00000000,5.55211524,0.14522872,0.00986052,0.01632063,7.00317831,0.12031442,0.04013266,0.04315151,0.01231112,2.99095620,3.52661931,0.26969309,0.01002620,0.02006633,0.01726060,0.02462224,5.39386183,1.76330965,3.73869525
6.600,2,1,1,-531.055,191.456,49.077,23.663388,-1.700614,-1.700614,-25.364003,-5.729578,nan,0.522928,2.028454,0.128916,2.083283,2.281906,4.519805,-1.919409,4.987668,3.257588,65.994500,-34.005500,100.000000,31.989000,803.97129273,0.000000,0.00000278,44.49783167,0.000000,387.36720297,353.43822570,13.02678225,0.00000000,5.46905145,0.14534245,0.01019194,0.01666152,7.04643746,0.12181796,0.04137681,0.04315278,0.01236721,3.00662830,3.54589160,0.27520280,0.01015150,0.02068840,0.01726111,0.02473443,5.50405599,1.77294580,3.75828538
6.812,2,1,1,-531.055,191.456,49.077,23.663388,-1.700614,-1.700614,-25.364003,-5.729578,nan,0.522928,2.028454,0.128916,2.083283,2.274218,4.519805,-1.919409,4.987668,3.305544,65.997500,-34.002500,100.000000,31.995000,803.96953430,0.000000,0.00000278,44.49746457,0.000000,387.36676216,353.43767849,13.02633716,0.00000000,5.46909542,0.14534252,0.01019226,0.01665894,7.13817509,0.12500642,0.04401520,0.04315546,0.01248617,3.03986326,3.58676126,0.28688733,0.01041720,0.02200760,0.01726218,0.02497233,5.73774664,1.79338063,3.79982907
6.900,2,1,1,-530.945,191.566,48.970,21.995130,-1.832983,-1.832983,-23.828113,-6.044705,nan,0.441794,1.769009,0.014324,1.997013,2.268313,3.403112,-4.354479,4.468156,3.306844,65.999000,-34.001000,100.000000,31.998000,796.99941369,0.000000,0.00000000,41.98573632,0.000000,386.02684941,352.09988522,11.66913290,0.00000000,5.04485633,0.14628085,0.01022927,0.01644338,7.17208131,0.12601295,0.04463602,0.04315547,0.01274028,3.05203787,3.60176145,0.29173726,0.01050108,0.02231801,0.01726219,0.02548056,5.83474522,1.80088073,3.81504734
7.000,2,1,1,-530.909,191.603,48.935,21.441772,-1.876731,-1.876731,-23.318504,-5.156620,nan,0.468684,1.651388,-0.988352,1.911507,2.260462,2.944558,-6.030381,4.066798,3.301805,65.999000,-34.001000,100.000000,31.998000,797.06050514,0.000000,0.00000000,43.61859406,0.000000,385.53013854,351.72095935,11.25066525,0.00000000,4.76798445,0.14620747,0.01020690,0.01574911,7.20932687,0.12700962,0.04516416,0.04322985,0.01329406,3.06528633,3.61809469,0.29724817,0.01058414,0.02258208,0.01729194,0.02658811,5.94496342,1.80904735,3.83160791
7.100,2,1,1,-530.891,191.620,48.918,20.955794,-1.897685,-1.897685,-22.853479,-5.729578,nan,0.470191,1.536281,-1.375099,1.813547,2.251626,2.514255,-5.400127,3.645192,3.291733,66.000000,-28.000000,94.000000,38.000000,796.00577370,0.000000,0.00000000,43.93730821,0.000000,385.29963272,351.51846350,10.61417364,0.00000000,4.47264241,0.14355652,0.00746826,0.01252844,7.24474595,0.12787274,0.04554945,0.04337391,0.01373840,3.07801961,3.63380139,0.30239043,0.01065606,0.02277473,0.01734957,0.02747681,6.04780867,1.81690070,3.84752451
7.200,2,1,1,-530.855,191.656,48.883,20.406976,-1.941257,-1.941257,-22.348233,-5.099324,nan,0.516223,1.393135,-1.203211,1.684706,2.241677,2.001482,-5.027705,3.120025,3.276878,66.000000,-28.000000,94.000000,38.000000,796.33930473,0.000000,0.00000000,46.16092935,0.000000,384.67536389,351.02565747,10.19205770,0.00000000,4.12270036,0.14330286,0.00725368,0.01203942,7.27853164,0.12858227,0.04579354,0.04348418,0.01412345,3.09019211,3.64882509,0.30753101,0.01071519,0.02289677,0.01739367,0.02824690,6.15062020,1.82441254,3.86274014
7.398,2,1,1,-530.855,191.656,48.883,20.406976,-1.941257,-1.941257,-22.348233,-5.099324,nan,0.516223,1.393135,-1.203211,1.684706,2.222676,2.001482,-5.027705,3.120025,3.248504,66.000000,-28.000000,94.000000,38.000000,796.33930473,0.000000,0.00000000,46.16092935,0.000000,384.67536389,351.02565747,10.19205770,0.00000000,4.12270036,0.14330286,0.00725368,0.01203942,7.34540759,0.12998672,0.04627668,0.04370243,0.01488562,3.11428656,3.67856323,0.31770635,0.01083223,0.02313834,0.01748097,0.02977124,6.35412700,1.83928162,3.89285820
7.413,2,1,1,-530.836,191.675,48.865,19.761199,-1.963855,-1.963855,-21.725054,-5.428775,nan,0.412753,1.209983,-1.446718,1.669996,2.221111,1.362847,-4.941761,3.068576,3.245825,66.000000,-28.000000,94.000000,38.000000,791.67139645,0.000000,0.00000000,42.31703625,0.000000,384.72993534,350.95192256,9.46849144,0.00000000,4.04067196,0.14406349,0.00740972,0.01186568,7.35002925,0.13006395,0.04629301,0.04372543,0.01493929,3.11594631,3.68061319,0.31844807,0.01083866,0.02314650,0.01749017,0.02987858,6.36896142,1.84030659,3.89493289
7.500,2,1,1,-530.745,191.762,48.777,18.856282,-2.070733,-2.070733,-20.927016,-4.440423,nan,0.480021,0.933238,-0.873761,1.396811,2.210099,0.428417,-4.941761,2.157709,3.226614,66.000000,-28.000000,94.000000,38.000000,789.20206421,0.000000,0.00000000,44.32364839,0.000000,383.04883106,349.38319471,8.84893483,0.00000000,3.43517498,0.14361668,0.00754189,0.01112167,7.37612908,0.13034311,0.04630281,0.04377641,0.01526545,3.12530457,3.69218154,0.32295519,0.01086193,0.02315141,0.01751057,0.03053089,6.45910377,1.84609077,3.90663071
7.600,2,1,1,-530.707,191.797,48.740,18.339601,-2.113478,-2.113478,-20.453079,-3.853141,nan,0.498512,0.765145,-1.647254,1.216525,2.196932,-0.111568,-6.173620,1.603926,3.204790,66.000000,-28.000000,94.000000,38.000000,787.51441972,0.000000,0.00000000,44.72026260,0.000000,382.36088695,348.72363181,8.49027827,0.00000000,3.05759835,0.14347195,0.00759846,0.01069134,7.40504077,0.13055688,0.04630357,0.04398282,0.01584529,3.13548740,3.70477548,0.32808935,0.01087974,0.02315178,0.01759313,0.03169058,6.56178694,1.85238774,3.91935924
7.700,2,1,1,-530.669,191.832,48.703,17.828698,-2.156057,-2.156057,-19.984756,-5.457423,nan,0.505616,0.592595,-1.761845,1.021454,2.183308,-0.639806,-4.340155,1.060974,3.184208,66.000000,-28.000000,94.000000,38.000000,784.84001170,0.000000,0.00000000,44.43022272,0.000000,381.65525088,348.01875711,7.88887042,0.00000000,2.68411094,0.14348445,0.00819040,0.01112478,7.43263541,0.13068525,0.04632851,0.04421923,0.01613221,3.14522095,3.71681957,0.33322969,0.01089044,0.02316425,0.01768769,0.03226443,6.66459385,1.85840979,3.93152619
7.800,2,1,1,-530.629,191.867,48.665,17.322815,-2.198443,-2.198443,-19.521259,-4.870141,nan,0.505519,0.419012,-1.847789,0.826732,2.169429,-1.148937,-4.268536,0.693482,3.165934,66.000000,-28.000000,94.000000,38.000000,782.54911438,0.000000,0.00000000,43.84119812,0.000000,380.94530729,347.28505193,7.56862633,0.00000000,2.74657336,0.14342677,0.00823152,0.01069905,7.45924129,0.13074943,0.04640893,0.04447925,0.01640973,3.15450783,3.72831631,0.33836981,0.01089579,0.02320447,0.01779170,0.03281946,6.76739610,1.86415815,3.94313479
7.900,2,1,1,-530.588,191.901,48.625,16.821112,-2.240625,-2.240625,-19.061738,-4.870141,nan,0.517029,0.247481,-1.546986,0.665924,2.155482,-1.631788,-3.939085,0.849779,3.150803,66.000000,-28.000000,94.000000,38.000000,780.49052929,0.000000,0.00000000,43.39984860,0.000000,380.15043820,346.46620189,7.22393029,0.00000000,3.08783671,0.14330894,0.00844363,0.01052102,7.48480248,0.13077182,0.04657114,0.04466147,0.01664603,3.16336135,3.73928151,0.34350917,0.01089765,0.02328557,0.01786459,0.03329206,6.87018338,1.86964075,3.95420169
8.140,2,1,1,-530.588,191.901,48.625,16.821112,-2.240625,-2.240625,-19.061738,-4.870141,nan,0.517029,0.247481,-1.546986,0.665924,2.123099,-1.631788,-3.939085,0.849779,3.115770,66.000000,-28.000000,94.000000,38.000000,780.49052929,0.000000,0.00000000,43.39984860,0.000000,380.15043820,346.46620189,7.22393029,0.00000000,3.08783671,0.14330894,0.00844363,0.01052102,7.54614086,0.13082553,0.04696037,0.04509876,0.01721307,3.18460686,3.76559434,0.35584193,0.01090213,0.02348018,0.01803950,0.03442614,7.11683869,1.88279717,3.98075857
8.200,2,1,1,-530.459,192.002,48.501,15.337826,-2.365859,-2.365859,-17.703684,-4.555014,nan,0.411878,-0.249983,-1.905085,0.434414,2.115225,-2.857052,-3.194240,1.714277,3.113908,66.000000,-28.000000,94.000000,38.000000,773.07284048,0.000000,0.00000000,39.55692948,0.000000,378.43996004,344.66171116,6.35646235,0.00000000,3.89498199,0.14410069,0.00879339,0.00990138,7.56007608,0.13083925,0.04725906,0.04526476,0.01730641,3.18919431,3.77128317,0.35892912,0.01090327,0.02362953,0.01810591,0.03461281,7.17858232,1.88564159,3.98649288
8.300,2,1,1,-530.414,192.035,48.456,14.849138,-2.407190,-2.407190,-17.256328,-4.526367,nan,0.475624,-0.407023,-1.804817,0.336503,2.102615,-3.172770,-3.251535,2.223241,3.114641,66.000000,-28.000000,94.000000,38.000000,769.94149934,0.000000,0.00000000,38.72162099,0.000000,377.33501943,343.47734206,6.10928997,0.00000000,4.13569158,0.14373851,0.00905442,0.00974238,7.58255644,0.13089981,0.04787229,0.04551281,0.01746742,3.19645044,3.78028499,0.36406869,0.01090832,0.02393615,0.01820512,0.03493484,7.28137377,1.89014249,3.99556305
8.400,2,1,1,-530.367,192.068,48.411,14.363062,-2.448275,-2.448275,-16.811336,-5.572015,nan,0.516725,-0.556474,-1.618606,0.332845,2.090658,-3.435079,-2.764521,2.683362,3.118747,66.000000,-28.000000,94.000000,38.000000,766.84508347,0.000000,0.00000000,37.83059718,0.000000,376.23719417,342.30124418,5.97324722,0.00000000,4.33960804,0.14350551,0.00962610,0.01006106,7.60427948,0.13101300,0.04859118,0.04571232,0.01758383,3.20333781,3.78883261,0.36920874,0.01091775,0.02429559,0.01828493,0.03516765,7.38417472,1.89441630,4.00417226
8.500,2,1,1,-530.319,192.100,48.364,13.879179,-2.489090,-2.489090,-16.368269,-3.824493,nan,0.544032,-0.697284,-2.220211,0.419594,2.079434,-3.640915,-1.274831,3.091258,3.125558,66.000000,-28.000000,94.000000,38.000000,763.35022871,0.000000,0.00000000,36.78650656,0.000000,375.14117555,341.12043148,5.63742795,0.00000000,4.50304239,0.14309274,0.00937983,0.00917222,7.62544117,0.13119074,0.04939884,0.04608774,0.01760858,3.20986723,3.79693902,0.37434902,0.01093256,0.02469942,0.01843509,0.03521716,7.48698046,1.89846951,4.01233403
8.600,2,1,1,-530.269,192.132,48.316,13.397149,-2.529636,-2.529636,-15.926785,-3.853141,nan,0.570820,-0.829409,-2.005352,0.552688,2.069000,-3.787961,-0.759169,3.352987,3.134267,66.000000,-28.000000,94.000000,38.000000,760.03765353,0.000000,0.00000000,35.88001490,0.000000,374.00829798,339.90844474,5.45036527,0.00000000,4.62902378,0.14279345,0.00965810,0.00905532,7.64587939,0.13144219,0.05027295,0.04639396,0.01761736,3.21604840,3.80461586,0.37948867,0.01095352,0.02513648,0.01855759,0.03523472,7.58977333,1.90230793,4.02006050
8.811,2,1,1,-530.269,192.132,48.316,13.397149,-2.529636,-2.529636,-15.926785,-3.853141,nan,0.570820,-0.829409,-2.005352,0.552688,2.047615,-3.787961,-0.759169,3.352987,3.151905,66.000000,-28.000000,94.000000,38.000000,760.03765353,0.000000,0.00000000,35.88001490,0.000000,374.00829798,339.90844474,5.45036527,0.00000000,4.62902378,0.14279345,0.00965810,0.00905532,7.68900477,0.13197274,0.05211736,0.04704012,0.01763588,3.22909090,3.82081428,0.39033350,0.01099773,0.02605868,0.01881605,0.03527176,7.80667003,1.91040714,4.03636362
8.900,2,1,1,-530.112,192.226,48.163,12.019138,-2.649565,-2.649565,-14.668703,-4.426099,nan,0.529997,-1.156687,-1.589958,0.838866,2.040464,-3.873017,0.472690,3.688048,3.160124,66.000000,-16.000000,82.000000,50.000000,750.80070470,0.000000,0.00000000,32.79127636,0.000000,371.48893418,337.27872430,4.42296434,0.00000000,4.66966247,0.13934382,0.00494493,0.00485431,7.70501896,0.13240850,0.05293162,0.04721165,0.01763891,3.23376295,3.82662252,0.39444281,0.01103404,0.02646581,0.01888466,0.03527782,7.88885627,1.91331126,4.04220369
9.000,2,1,1,-530.056,192.257,48.109,11.548946,-2.688853,-2.688853,-14.237799,-4.110972,nan,0.579459,-1.249813,-1.332127,0.984354,2.033206,-3.785828,1.303479,3.786193,3.167929,66.000000,-16.000000,82.000000,50.000000,746.46216683,0.000000,0.00000000,31.58926541,0.000000,370.12713695,335.80312139,4.15252491,0.00000000,4.64268295,0.13886128,0.00392973,0.00464421,7.72232148,0.13297955,0.05380490,0.04734681,0.01766479,3.23870355,3.83276655,0.39905533,0.01108163,0.02690245,0.01893872,0.03532958,7.98110666,1.91638327,4.04837943
9.100,2,1,1,-530.000,192.287,48.054,11.098196,-2.727544,-2.727544,-13.825740,-4.025029,nan,0.605004,-1.330880,-0.959704,1.115791,2.026667,-3.641071,2.735873,3.811532,3.173637,66.000000,-16.000000,82.000000,50.000000,742.14611416,0.000000,0.00000000,30.23172270,0.000000,368.82207338,334.38862092,3.86964961,0.00000000,4.68698650,0.13849201,0.00407254,0.00449651,7.73902517,0.13362700,0.05461257,0.04741694,0.01777879,3.24336166,3.83856099,0.40366721,0.01113558,0.02730628,0.01896678,0.03555758,8.07334424,1.91928050,4.05420208
9.200,2,1,1,-529.942,192.316,47.998,10.664835,-2.765578,-2.765578,-13.430413,-2.965057,nan,0.628183,-1.399084,-0.300803,1.228574,2.020768,-3.441800,2.334803,3.760816,3.176739,66.000000,-16.000000,82.000000,50.000000,738.05878030,0.000000,0.00000000,28.98452828,0.000000,367.51449917,332.97563857,3.76106262,0.00000000,4.67669178,0.13812312,0.00409196,0.00414480,7.75502064,0.13434213,0.05533387,0.04742383,0.01786177,3.24775490,3.84402745,0.40827668,0.01119518,0.02766693,0.01896953,0.03572355,8.16553366,1.92201372,4.05969363
9.402,2,1,1,-529.942,192.316,47.998,10.664835,-2.765578,-2.765578,-13.430413,-2.965057,nan,0.628183,-1.399084,-0.300803,1.228574,2.009194,-3.441800,2.334803,3.760816,3.182791,66.000000,-16.000000,82.000000,50.000000,738.05878030,0.000000,0.00000000,28.98452828,0.000000,367.51449917,332.97563857,3.76106262,0.00000000,4.67669178,0.13812312,0.00409196,0.00414480,7.78732959,0.13578661,0.05679082,0.04743774,0.01802939,3.25662873,3.85506904,0.41758727,0.01131555,0.02839541,0.01897510,0.03605878,8.35174534,1.92753452,4.07078592
9.500,2,1,1,-529.759,192.399,47.820,9.448877,-2.875783,-2.875783,-12.324660,-2.793169,nan,0.555275,-1.532306,-0.630254,1.389092,2.004754,-2.554626,3.767198,3.366075,3.176811,66.000000,-16.000000,82.000000,50.000000,728.22333392,0.000000,0.00000000,25.68040314,0.000000,364.78893505,330.17911079,3.06633496,0.00000000,4.36198062,0.13859806,0.00418194,0.00378937,7.80148704,0.13662896,0.05718103,0.04746743,0.01824153,3.26026168,3.85959274,0.42211367,0.01138575,0.02859052,0.01898697,0.03648306,8.44227349,1.92979637,4.07532710
9.600,2,1,1,-529.696,192.425,47.758,9.066135,-2.911080,-2.911080,-11.977214,-3.781521,nan,0.615578,-1.548594,0.472690,1.455458,2.000448,-2.177290,3.910437,3.057562,3.167836,66.000000,-16.000000,82.000000,50.000000,722.98439601,0.000000,0.00000000,24.16667532,0.000000,363.22259959,328.47267941,2.79678885,0.00000000,4.17912414,0.13808974,0.00451066,0.00392832,7.81536696,0.13750575,0.05746990,0.04748445,0.01847448,3.26375825,3.86394755,0.42672658,0.01145881,0.02873495,0.01899378,0.03694896,8.53453167,1.93197378,4.07969781
9.700,2,1,1,-529.632,192.451,47.695,8.692299,-2.945557,-2.945557,-11.637856,-3.480719,nan,0.648544,-1.548834,0.157563,1.505021,1.996227,-1.767937,4.655282,2.686248,3.156337,66.000000,-16.000000,82.000000,50.000000,718.09197627,0.000000,0.00000000,22.74729703,0.000000,361.73963422,326.86652755,2.65148245,0.00000000,3.94096028,0.13766210,0.00463858,0.00377406,7.82878845,0.13838251,0.05766030,0.04748634,0.01880451,3.26705835,3.86805852,0.43133792,0.01153188,0.02883015,0.01899454,0.03760902,8.62675835,1.93402926,4.08382294
9.800,2,1,1,-529.566,192.476,47.630,8.326668,-2.979197,-2.979197,-11.305865,-2.463719,nan,0.670946,-1.534105,0.873761,1.533563,1.991966,-1.332745,4.569338,2.279571,3.142799,66.000000,-16.000000,82.000000,50.000000,713.40373916,0.000000,0.00000000,21.42728608,0.000000,360.29572983,325.31181425,2.55290930,0.00000000,3.67061751,0.13727140,0.00465005,0.00346076,7.84174172,0.13924284,0.05776851,0.04754448,0.01912253,3.27017345,3.87193978,0.43595012,0.01160357,0.02888426,0.01901779,0.03824506,8.71900250,1.93596989,4.08771682
9.995,2,1,1,-529.566,192.476,47.630,8.326668,-2.979197,-2.979197,-11.305865,-2.463719,nan,0.670946,-1.534105,0.873761,1.533563,1.983882,-1.332745,4.569338,2.279571,3.117036,66.000000,-16.000000,82.000000,50.000000,713.40373916,0.000000,0.00000000,21.42728608,0.000000,360.29572983,325.31181425,2.55290930,0.00000000,3.67061751,0.13727140,0.00465005,0.00346076,7.86699920,0.14092040,0.05797953,0.04765786,0.01974263,3.27624756,3.87950781,0.44494343,0.01174337,0.02898976,0.01906314,0.03948526,8.89886861,1.93975390,4.09530945
10.013,2,1,1,-529.531,192.488,47.597,7.896481,-2.996336,-2.996336,-10.892817,-2.463719,nan,0.541327,-1.497861,0.558634,1.533861,1.983122,-0.785745,5.299860,2.237783,3.114436,66.000000,-16.000000,82.000000,50.000000,711.39238555,0.000000,0.00000000,19.48665723,0.000000,360.38515375,325.42106086,2.36512294,0.00000000,3.58830465,0.13817966,0.00454208,0.00336439,7.86916890,0.14106371,0.05798610,0.04766201,0.01981739,3.27675284,3.88013750,0.44574935,0.01175531,0.02899305,0.01906480,0.03963477,8.91498710,1.94006875,4.09594105
10.100,2,1,1,-529.364,192.544,47.432,7.266992,-3.074611,-3.074611,-10.341603,-3.265859,nan,0.613436,-1.403043,1.733197,1.508994,1.978739,0.061005,5.328507,1.502312,3.100643,66.000000,-14.000000,80.000000,52.000000,703.70776497,0.000000,0.00000000,18.92905208,0.000000,357.23473470,322.22356890,2.08524140,0.00000000,3.09072455,0.13726454,0.00420929,0.00296953,7.87948705,0.14169355,0.05798630,0.04786225,0.02019590,3.27903408,3.88298132,0.44973366,0.01180780,0.02899315,0.01914490,0.04039181,8.99467321,1.94149066,4.09879259
10.200,2,1,1,-529.295,192.565,47.364,6.925104,-3.104371,-3.104371,-10.029474,-2.836141,nan,0.660177,-1.328908,1.303479,1.469133,1.973301,0.532649,5.127972,1.084344,3.085562,66.000000,-14.000000,80.000000,52.000000,698.55401560,0.000000,0.00000000,17.46318076,0.000000,355.64991948,320.50767239,1.97752655,0.00000000,2.81181649,0.13679386,0.00429148,0.00281459,7.89073836,0.14233903,0.05800358,0.04799162,0.02059638,3.28148516,3.88603736,0.45428522,0.01186159,0.02900179,0.01919665,0.04119276,9.08570442,1.94301868,4.10185646
10.300,2,1,1,-529.225,192.585,47.296,6.590263,-3.133001,-3.133001,-9.723264,-1.876437,nan,0.673736,-1.240024,0.673225,1.410480,1.967383,0.997207,4.669606,0.758680,3.071857,66.000000,-14.000000,80.000000,52.000000,694.06580119,0.000000,0.00000000,16.04332546,0.000000,354.23088963,318.98715185,1.90042917,0.00000000,2.76064242,0.13650818,0.00429305,0.00256142,7.90145255,0.14290089,0.05806414,0.04802613,0.02092837,3.28378823,3.88890929,0.45883551,0.01190841,0.02903207,0.01921045,0.04185673,9.17671015,1.94445464,4.10473528
10.400,2,1,1,-529.156,192.604,47.228,6.261733,-3.160496,-3.160496,-9.422229,-2.750197,nan,0.683870,-1.138087,0.845113,1.335766,1.960956,1.448691,4.397451,0.748612,3.060127,66.000000,-14.000000,80.000000,52.000000,690.06313027,0.000000,0.00000000,14.70635007,0.000000,352.84296269,317.51121938,1.75933812,0.00000000,3.09974899,0.13630919,0.00452350,0.00267834,7.91181509,0.14337429,0.05819198,0.04808051,0.02122285,3.28595140,3.89160717,0.46338688,0.01194786,0.02909599,0.01923220,0.04244571,9.26773760,1.94580359,4.10743925
10.500,2,1,1,-529.086,192.622,47.159,5.938815,-3.186823,-3.186823,-9.125639,-3.695578,nan,0.689541,-1.024328,1.561310,1.252511,1.954020,1.881385,4.053676,1.078819,3.050870,66.000000,-14.000000,80.000000,52.000000,686.35254730,0.000000,0.00000000,13.49696684,0.000000,351.50225711,316.09603525,1.68840497,0.00000000,3.42510735,0.13617063,0.00476662,0.00283853,7.92196674,0.14375798,0.05840771,0.04826622,0.02147322,3.28798156,3.89413951,0.46794054,0.01197983,0.02920385,0.01930649,0.04294644,9.35881084,1.94706975,4.10997695
10.696,2,1,1,-529.086,192.622,47.159,5.938815,-3.186823,-3.186823,-9.125639,-3.695578,nan,0.689541,-1.024328,1.561310,1.252511,1.940757,1.881385,4.053676,1.078819,3.033183,66.000000,-14.000000,80.000000,52.000000,686.35254730,0.000000,0.00000000,13.49696684,0.000000,351.50225711,316.09603525,1.68840497,0.00000000,3.42510735,0.13617063,0.00476662,0.00283853,7.94183623,0.14450895,0.05882994,0.04862970,0.02196326,3.29195513,3.89909597,0.47685328,0.01204241,0.02941497,0.01945188,0.04392653,9.53706568,1.94954799,4.11494391
10.712,2,1,1,-529.050,192.631,47.123,5.582860,-3.200047,-3.200047,-8.782907,-3.466395,nan,0.557848,-0.882466,2.005352,1.241262,1.939604,2.337039,4.110972,1.133516,3.032260,66.000000,-14.000000,80.000000,52.000000,685.73813279,0.000000,0.00000000,12.27648807,0.000000,351.67206498,316.34321250,1.60235152,0.00000000,3.69956370,0.13713625,0.00458612,0.00272967,7.94340457,0.14455378,0.05888234,0.04867793,0.02200380,3.29225119,3.89946533,0.47757020,0.01204615,0.02944117,0.01947117,0.04400760,9.55140392,1.94973266,4.11531399
10.800,2,1,1,-528.877,192.669,46.953,5.021836,-3.258754,-3.258754,-8.280590,-3.996381,nan,0.592881,-0.626416,1.546986,1.023289,1.932343,2.988457,4.383127,2.001561,3.031897,66.000000,-14.000000,80.000000,52.000000,679.71546242,0.000000,0.00000000,11.66524287,0.000000,348.74930671,313.41838591,1.55695981,0.00000000,4.18095625,0.13698986,0.00483391,0.00278710,7.95177963,0.14468063,0.05936351,0.04883910,0.02226257,3.29372889,3.90130924,0.48159570,0.01205672,0.02968176,0.01953564,0.04452514,9.63191398,1.95065462,4.11716111
10.900,2,1,1,-528.809,192.683,46.885,4.714954,-3.280424,-3.280424,-7.995378,-2.993704,nan,0.629921,-0.472153,2.406423,0.874271,1.923834,3.299564,2.392099,2.455503,3.034508,66.000000,-14.000000,80.000000,52.000000,675.80051634,0.000000,0.00000000,10.46458167,0.000000,347.37492815,311.96058870,1.43325363,0.00000000,4.42314747,0.13670283,0.00480756,0.00250634,7.96110637,0.14476211,0.06002678,0.04928009,0.02234972,3.29528670,3.90325334,0.48614762,0.01206351,0.03001339,0.01971204,0.04469944,9.72295234,1.95162667,4.11910837
11.000,2,1,1,-528.740,192.696,46.818,4.411339,-3.301025,-3.301025,-7.712364,-2.592634,nan,0.655503,-0.312259,2.349127,0.708922,1.915143,3.570081,2.606958,2.871246,3.039900,66.000000,-14.000000,80.000000,52.000000,672.17735825,0.000000,0.00000000,9.45338157,0.000000,346.03233720,310.54711596,1.36367872,0.00000000,4.63713894,0.13645547,0.00487304,0.00237735,7.97025258,0.14479776,0.06080325,0.04970033,0.02245323,3.29673615,3.90506242,0.49069945,0.01206648,0.03040163,0.01988013,0.04490646,9.81398892,1.95253121,4.12092018
11.100,2,1,1,-528.673,192.708,46.752,4.110412,-3.320581,-3.320581,-7.430993,-3.394775,nan,0.664613,-0.147447,2.463719,0.538910,1.906386,3.797437,1.074296,3.227419,3.047709,66.000000,-14.000000,80.000000,52.000000,669.02688333,0.000000,0.00000000,8.58450759,0.000000,344.79865949,309.26466141,1.42157245,0.00000000,4.81346928,0.13637074,0.00510661,0.00253575,7.97920034,0.14480571,0.06168220,0.05016279,0.02247082,3.29808242,3.90674291,0.49525350,0.01206714,0.03084110,0.02006511,0.04494163,9.90507000,1.95337146,4.12260303
11.296,2,1,1,-528.673,192.708,46.752,4.110412,-3.320581,-3.320581,-7.430993,-3.394775,nan,0.664613,-0.147447,2.463719,0.538910,1.889593,3.797437,1.074296,3.227419,3.062529,66.000000,-14.000000,80.000000,52.000000,669.02688333,0.000000,0.00000000,8.58450759,0.000000,344.79865949,309.26466141,1.42157245,0.00000000,4.81346928,0.13637074,0.00510661,0.00253575,7.99671067,0.14482127,0.06340225,0.05106780,0.02250523,3.30071702,3.91003154,0.50416556,0.01206844,0.03170112,0.02042712,0.04501046,10.08331120,1.95501577,4.12589628
11.311,2,1,1,-528.638,192.714,46.717,3.752459,-3.330357,-3.330357,-7.082816,-3.380451,nan,0.537660,0.054806,2.578310,0.524640,1.888291,4.010686,1.546986,3.261256,3.064038,66.000000,-14.000000,80.000000,52.000000,668.88192291,0.000000,0.00000000,7.82344801,0.000000,345.01924720,309.59096397,1.41108356,0.00000000,4.89236274,0.13734746,0.00497316,0.00249682,7.99806274,0.14482143,0.06355240,0.05114536,0.02251082,3.30090433,3.91026539,0.50486301,0.01206845,0.03177620,0.02045814,0.04502163,10.09726010,1.95513269,4.12613042
11.400,2,1,1,-528.477,192.740,46.557,3.221327,-3.373715,-3.373715,-6.595041,-2.363451,nan,0.554689,0.360234,2.850465,0.330211,1.881061,4.204855,1.432394,3.753295,3.074753,66.000000,-14.000000,80.000000,52.000000,663.23743983,0.000000,0.00000000,7.35362466,0.000000,342.42008129,307.02065567,1.26434610,0.00000000,5.03430440,0.13728248,0.00494207,0.00220314,8.00580060,0.14486357,0.06450935,0.05169506,0.02253858,3.30184597,3.91144113,0.50890694,0.01207196,0.03225467,0.02067803,0.04507716,10.17813880,1.95572056,4.12730746
11.500,2,1,1,-528.413,192.749,46.494,2.928759,-3.389882,-3.389882,-6.318641,-2.836141,nan,0.598214,0.526774,3.036676,0.315061,1.873374,4.246937,1.031324,3.964364,3.087080,66.000000,-2.000000,68.000000,64.000000,660.03061930,0.000000,0.00000000,6.70342601,0.000000,341.18100022,305.72608996,1.19577762,0.00000000,5.08403202,0.13568265,0.00398931,0.00062151,8.01426766,0.14496501,0.06560825,0.05239735,0.02255478,3.30281897,3.91265615,0.51326716,0.01208042,0.03280412,0.02095894,0.04510956,10.26534313,1.95632807,4.12852371
11.600,2,1,1,-528.350,192.758,46.432,2.644926,-3.405382,-3.405382,-6.050308,-1.876437,nan,0.611809,0.687735,2.062648,0.397055,1.866252,4.242473,0.057296,4.118247,3.099087,66.000000,-14.000000,80.000000,52.000000,657.13136077,0.000000,0.00000000,6.00508680,0.000000,340.08497384,304.60565464,1.20247666,0.00000000,5.08792987,0.13695892,0.00623576,0.00204428,8.02241903,0.14513790,0.06670475,0.05272134,0.02255483,3.30371101,3.91377017,0.51781902,0.01209483,0.03335238,0.02108854,0.04510966,10.35638043,1.95688508,4.12963877
11.700,2,1,1,-528.289,192.766,46.372,2.406022,-3.420143,-3.420143,-5.826165,-2.320479,nan,0.614842,0.826613,1.733197,0.518206,1.859714,4.200899,-0.716197,4.199924,3.110358,66.000000,-2.000000,68.000000,64.000000,654.37781093,0.000000,0.00000000,5.49166985,0.000000,339.06603130,303.57116789,1.04857464,0.00000000,5.06027636,0.13555863,0.00400600,0.00052627,8.03020549,0.14538782,0.06778055,0.05295024,0.02256265,3.30453871,3.91480390,0.52218163,0.01211565,0.03389027,0.02118010,0.04512529,10.44363265,1.95740195,4.13067339
11.897,2,1,1,-528.289,192.766,46.372,2.406022,-3.420143,-3.420143,-5.826165,-2.320479,nan,0.614842,0.826613,1.733197,0.518206,1.847112,4.200899,-0.716197,4.199924,3.131858,66.000000,-2.000000,68.000000,64.000000,654.37665893,0.000000,0.00000000,5.49166985,0.000000,339.06603130,303.57116789,1.04857464,0.00000000,5.06027636,0.13555863,0.00285400,0.00052627,8.04552695,0.14587959,0.06989739,0.05340065,0.02257803,3.30616737,3.91683797,0.53076595,0.01215663,0.03494869,0.02136026,0.04515606,10.61531909,1.95841898,4.13270921
11.916,2,1,1,-528.257,192.771,46.340,2.057461,-3.427633,-3.427633,-5.485095,-2.091296,nan,0.496040,1.022356,1.661578,0.539936,1.846083,4.075361,-1.160240,4.200450,3.133600,66.000000,-2.000000,68.000000,64.000000,654.28013923,0.000000,0.00000000,4.96874122,0.000000,339.31820022,303.94023061,0.92797051,0.00000000,4.98541726,0.13647803,0.00263429,0.00046710,8.04696265,0.14595145,0.07008769,0.05344020,0.02258188,3.30630526,3.91701020,0.53158597,0.01216262,0.03504385,0.02137608,0.04516377,10.63171934,1.95850510,4.13288158
12.000,2,1,1,-528.110,192.789,46.194,1.628029,-3.461509,-3.461509,-5.089538,-1.847789,nan,0.519036,1.258795,1.017000,0.877577,1.842554,3.790792,-0.615930,4.119557,3.138780,66.000000,-2.000000,68.000000,64.000000,649.13683384,0.000000,0.00000000,4.70670844,0.000000,336.95288762,301.60893173,0.79607949,0.00000000,4.93277742,0.13640569,0.00263882,0.00040464,8.05312911,0.14643946,0.07082530,0.05350656,0.02258675,3.30683710,3.91767457,0.53525936,0.01220329,0.03541265,0.02140262,0.04517350,10.70518730,1.95883728,4.13354638
12.100,2,1,1,-528.052,192.796,46.137,1.434715,-3.474476,-3.474476,-4.909190,-2.449395,nan,0.549439,1.359029,0.773493,1.034819,1.839017,3.608622,-2.678578,4.013243,3.143025,66.000000,-2.000000,68.000000,64.000000,646.41883604,0.000000,0.00000000,4.25328699,0.000000,335.94241866,300.58343236,0.63601815,0.00000000,4.86433851,0.13629612,0.00264806,0.00039719,8.06043936,0.14711514,0.07161930,0.05355216,0.02269612,3.30742489,3.91840885,0.53962290,0.01225960,0.03580965,0.02142086,0.04539224,10.79245806,1.95920442,4.13428111
12.200,2,1,1,-527.995,192.803,46.080,1.226119,-3.487197,-3.487197,-4.713317,-1.332127,nan,0.565090,1.458265,1.948057,1.194939,1.836170,3.371042,-2.334803,3.845289,3.144994,66.000000,-2.000000,68.000000,64.000000,644.20438543,0.000000,0.00000000,3.97884461,0.000000,334.98826005,299.62516636,0.72389958,0.00000000,4.74895096,0.13625021,0.00266889,0.00034478,8.06786047,0.14789266,0.07231179,0.05384123,0.02277917,3.30796638,3.91908534,0.54398390,0.01232439,0.03615590,0.02153649,0.04555833,10.87967806,1.95954267,4.13495798
12.300,2,1,1,-527.938,192.809,46.024,1.028070,-3.499748,-3.499748,-4.527818,-1.260507,nan,0.566783,1.540130,1.059972,1.333228,1.833919,3.104406,-2.277507,3.632895,3.144660,66.000000,-2.000000,68.000000,64.000000,641.93072642,0.000000,0.00000000,3.69303587,0.000000,334.09780646,298.74224937,0.66167543,0.00000000,4.59672302,0.13625375,0.00266280,0.00031972,8.07496247,0.14875965,0.07289889,0.05392678,0.02285816,3.30846595,3.91970947,0.54834357,0.01239664,0.03644944,0.02157071,0.04571633,10.96687146,1.95985473,4.13558243
12.506,2,1,1,-527.938,192.809,46.024,1.028070,-3.499748,-3.499748,-4.527818,-1.260507,nan,0.566783,1.540130,1.059972,1.333228,1.829383,3.104406,-2.277507,3.632895,3.143990,66.000000,-2.000000,68.000000,64.000000,641.93072642,0.000000,0.00000000,3.69303587,0.000000,334.09780646,298.74224937,0.66167543,0.00000000,4.59672302,0.13625375,0.00266280,0.00031972,8.08961462,0.15054836,0.07411012,0.05410329,0.02302114,3.30949659,3.92099711,0.55733801,0.01254570,0.03705506,0.02164132,0.04604229,11.14676017,1.96049855,4.13687074
12.600,2,1,1,-527.771,192.829,45.858,0.485899,-3.536987,-3.536987,-4.022886,-2.076972,nan,0.646608,1.666837,0.773493,1.512555,1.828209,2.171371,-2.793169,3.106679,3.137771,66.000000,-2.000000,68.000000,64.000000,634.80580370,0.000000,0.00000000,3.43803947,0.000000,330.98011456,295.59315553,0.39319350,0.00000000,4.26260940,0.13561965,0.00278833,0.00028324,8.09590605,0.15149998,0.07437927,0.05414598,0.02313249,3.30986613,3.92145884,0.56142335,0.01262500,0.03718964,0.02165839,0.04626497,11.22846699,1.96072942,4.13733267
12.700,2,1,1,-527.715,192.836,45.803,0.319158,-3.549384,-3.549384,-3.868542,-0.601606,nan,0.611406,1.666405,-0.787817,1.584881,1.826972,1.831124,-1.876437,2.747593,3.129485,66.000000,-2.000000,68.000000,64.000000,633.11746499,0.000000,0.00000000,3.30868556,0.000000,330.25541182,294.90370660,0.51752023,0.00000000,3.99335262,0.13579681,0.00275622,0.00023513,8.10240515,0.15251481,0.07458350,0.05419324,0.02318610,3.31023075,3.92191444,0.56578231,0.01270957,0.03729175,0.02167730,0.04637220,11.31564618,1.96095722,4.13778844
12.800,2,1,1,-527.660,192.842,45.748,0.157998,-3.561825,-3.561825,-3.719822,-1.761845,nan,0.589522,1.643263,-0.071620,1.631815,1.825587,1.484103,-3.752874,2.352047,3.119844,66.000000,-2.000000,68.000000,64.000000,630.94490014,0.000000,0.00000000,3.08140541,0.000000,329.50167962,294.18160222,0.34049104,0.00000000,3.70084490,0.13591637,0.00271794,0.00024264,8.10886049,0.15350198,0.07471770,0.05419363,0.02340063,3.31056798,3.92233583,0.57014273,0.01279183,0.03735885,0.02167745,0.04680127,11.40285459,1.96116792,4.13820998
12.900,2,1,1,-527.605,192.849,45.694,0.001923,-3.574306,-3.574306,-3.576229,-1.632930,nan,0.575519,1.597477,0.200535,1.649488,1.823903,1.134914,-3.394775,1.941136,3.109171,66.000000,-2.000000,68.000000,64.000000,628.99506287,0.000000,0.00000000,2.94395655,0.000000,328.74285461,293.45474219,0.31511233,0.00000000,3.39944509,0.13603729,0.00268961,0.00022520,8.11510965,0.15443454,0.07479615,0.05419669,0.02357611,3.31087956,3.92272518,0.57450143,0.01286954,0.03739808,0.02167868,0.04715222,11.49002857,1.96136259,4.13859945
