t,controller_id,state_code,wp_idx,x,y,dist,yaw_deg,yaw_to_wp_deg,yaw_ref_deg,yaw_err_deg,yaw_rate_deg_s,speed_ref,speed_meas,roll_deg,roll_rate_deg_s,roll_rms_window_deg,roll_rms_total_deg,pitch_deg,pitch_rate_deg_s,pitch_rms_window_deg,pitch_rms_total_deg,base_cmd,diff_cmd,T_left,T_right,J_inst,J_goal,J_wave_roll,J_progress,J_smooth,J_mpc_distance,J_mpc_final,J_mpc_heading,J_mpc_wrong_way,J_mpc_pitch,J_mpc_control,J_mpc_slew,J_mpc_turn,J_total,J_roll,J_pitch,J_roll_rate,J_pitch_rate,J_goal_heading,J_no_progress,J_control,I_roll,I_pitch,I_roll_rate,I_pitch_rate,I_control,I_no_progress,I_goal_heading
0.500,2,1,1,-531.990,189.999,49.990,57.018174,0.000690,0.000690,-57.017484,-0.114592,nan,0.000000,-0.655337,1.561310,0.803608,0.000000,-0.185673,1.088620,0.315826,0.000000,2.500000,-9.500000,12.000000,-7.000000,1049.72327435,0.000000,0.00000000,63.07324517,0.000000,420.35867204,388.16980821,176.26764029,0.00001521,1.63763155,0.14222801,0.02597302,0.04806085,0.00000000,0.00000000,0.00000000,0.00000000,0.00000000,0.00000000,0.00000000,0.00000000,0.00000000,0.00000000,0.00000000,0.00000000,0.00000000,0.00000000,0.00000000
0.821,2,1,1,-531.990,189.999,49.990,57.018174,0.000690,0.000690,-57.017484,-0.114592,nan,0.000000,-0.655337,1.561310,0.803608,0.655337,-0.185673,1.088620,0.315826,0.185673,2.500000,-21.500000,24.000000,-19.000000,1001.24294544,0.000000,0.00000000,50.81534226,0.000000,419.83474587,387.49547441,141.23821326,0.00000367,1.64201071,0.14296249,0.02582122,0.04837156,0.54867613,0.00050319,0.00000673,0.00059503,0.00005786,0.25393665,0.29207501,0.00150167,0.00004193,0.00000337,0.00023801,0.00011571,0.03003338,0.14603750,0.31742081
0.900,2,1,1,-531.975,189.998,49.975,56.864701,0.002655,0.002655,-56.862046,0.114592,nan,0.017474,0.274826,3.179916,0.585539,0.599314,0.610695,2.907761,0.389084,0.318894,0.750000,-20.750000,21.500000,-20.000000,969.45756268,0.000000,0.00000000,17.99434754,0.000000,419.74761741,387.33522956,142.37991040,0.00000160,1.78462603,0.14257069,0.02508166,0.04817779,0.68437367,0.00052512,0.00002478,0.00120668,0.00016014,0.31652107,0.36409178,0.00184411,0.00004376,0.00001239,0.00048267,0.00032028,0.03688210,0.18204589,0.39565133
1.000,2,1,1,-531.971,189.998,49.971,56.777602,0.002021,0.002021,-56.775581,-1.131592,nan,0.028119,0.508971,1.776169,0.549274,0.582373,0.842436,2.750197,0.492492,0.472495,6.750000,-26.750000,33.500000,-20.000000,960.81584336,0.000000,0.00000000,28.09661999,0.000000,418.01682274,384.99595455,127.55066589,0.00002616,1.94617444,0.14207587,0.01964586,0.04785786,0.85450423,0.00061976,0.00006799,0.00144680,0.00027528,0.39503166,0.45445794,0.00260481,0.00005165,0.00003400,0.00057872,0.00055056,0.05209620,0.22722897,0.49378957
1.100,2,1,1,-531.966,189.999,49.966,56.662307,0.000640,0.000640,-56.661667,-0.487014,nan,0.035233,0.741030,3.294507,0.491537,0.611683,1.101650,2.248859,0.648882,0.623161,12.750000,-32.750000,45.500000,-20.000000,947.94381392,0.000000,0.00000000,28.18934675,0.000000,416.48356126,382.97773945,117.96150047,0.00005951,2.12501649,0.14299081,0.01525591,0.04834327,1.02522408,0.00082047,0.00014192,0.00227328,0.00035230,0.47326326,0.54453303,0.00383982,0.00006837,0.00007096,0.00090931,0.00070460,0.07679636,0.27226651,0.59157908
1.200,2,1,1,-531.962,190.002,49.962,56.512695,-0.001762,-0.001762,-56.514457,-1.804817,nan,0.041698,0.975393,2.807493,0.550238,0.675747,1.379784,2.076972,0.869848,0.777731,18.750000,-38.750000,57.500000,-20.000000,929.55565243,0.000000,0.00000000,25.81732022,0.000000,414.91436783,380.96010147,105.33337684,0.00005392,2.32317108,0.14473853,0.01300278,0.04951976,1.19570087,0.00116825,0.00025791,0.00287355,0.00041800,0.55109913,0.63419100,0.00569301,0.00009735,0.00012896,0.00114942,0.00083601,0.11386022,0.31709550,0.68887391
1.402,2,1,1,-531.962,190.002,49.962,56.512695,-0.001762,-0.001762,-56.514457,-1.804817,nan,0.041698,0.975393,2.807493,0.550238,0.753275,1.379784,2.076972,0.869848,0.946432,24.750000,-44.750000,69.500000,-20.000000,917.40097262,0.000000,0.00000000,24.78914224,0.000000,413.60467928,379.30028940,97.12331433,0.00003973,2.37040320,0.14835771,0.01324812,0.05149860,1.54150002,0.00187057,0.00049215,0.00408574,0.00055069,0.70828065,0.81524605,0.01097418,0.00015588,0.00024607,0.00163430,0.00110138,0.21948360,0.40762303,0.88535081
1.500,2,1,1,-531.950,190.012,49.950,55.853888,-0.013903,-0.013903,-55.867791,-2.435071,nan,0.039133,1.558356,1.761845,1.042154,0.865946,1.982853,1.776169,1.422482,1.092405,30.750000,-50.750000,81.500000,-20.000000,902.87663443,0.000000,0.00000000,23.93974650,0.000000,412.11754670,377.56406806,86.26298762,0.00000000,2.76999667,0.15296986,0.01593500,0.05338402,1.70692509,0.00274066,0.00072693,0.00431744,0.00059779,0.78283341,0.90128344,0.01442544,0.00022839,0.00036346,0.00172698,0.00119557,0.28850876,0.45064172,0.97854176
1.600,2,1,1,-531.947,190.018,49.947,55.567423,-0.020152,-0.020152,-55.587575,-3.724226,nan,0.049205,1.695762,0.759169,1.256510,0.971206,2.099143,1.532662,1.654223,1.218869,36.750000,-56.750000,93.500000,-20.000000,892.14464110,0.000000,0.00000000,23.61144203,0.000000,411.19636723,376.57684570,77.64878964,0.00000000,2.87795876,0.15794775,0.01663505,0.05865493,1.87526742,0.00379244,0.00099554,0.00436136,0.00063359,0.85817916,0.98830605,0.01899929,0.00031604,0.00049777,0.00174454,0.00126717,0.37998572,0.49415303,1.07272395
1.700,2,1,1,-531.944,190.025,49.944,55.208050,-0.028749,-0.028749,-55.236798,-3.122620,nan,0.064054,1.823874,-0.042972,1.472700,1.068591,2.225111,0.601606,1.881849,1.332099,40.000000,-60.000000,100.000000,-20.000000,890.20704891,0.000000,0.00000000,25.24804532,0.000000,410.72449329,376.16464996,74.84990052,0.00000000,2.97906951,0.16174865,0.01695255,0.06218912,2.04232993,0.00500858,0.00129722,0.00436150,0.00063910,0.93254291,1.07428063,0.02420000,0.00041738,0.00064861,0.00174460,0.00127820,0.48399998,0.53714031,1.16567863
1.800,2,1,1,-531.940,190.035,49.940,54.796586,-0.040215,-0.040215,-54.836801,-3.810169,nan,0.083670,1.925917,2.091296,1.656578,1.157309,2.361612,0.529986,2.072716,1.437706,40.000000,-60.000000,100.000000,-20.000000,891.53486081,0.000000,0.00000000,28.35047557,0.000000,410.68525458,376.30409863,72.88564229,0.00000000,3.06834470,0.16156080,0.01703376,0.06245049,2.20764804,0.00636432,0.00163697,0.00469453,0.00064338,1.00581730,1.15909199,0.02939956,0.00053036,0.00081849,0.00187781,0.00128675,0.58799118,0.57954599,1.25727162
2.007,2,1,1,-531.940,190.035,49.940,54.796586,-0.040215,-0.040215,-54.836801,-3.810169,nan,0.083670,1.925917,2.091296,1.656578,1.290405,2.361612,0.529986,2.072716,1.596732,40.000000,-60.000000,100.000000,-20.000000,891.53486081,0.000000,0.00000000,28.35047557,0.000000,410.68525458,376.30409863,72.88564229,0.00000000,3.06834470,0.16156080,0.01703376,0.06245049,2.55019208,0.00917344,0.00234096,0.00538459,0.00065224,1.15764401,1.33482364,0.04017320,0.00076445,0.00117048,0.00215384,0.00130448,0.80346405,0.66741182,1.44705501
2.100,2,1,1,-531.929,190.078,49.929,53.288450,-0.088985,-0.088985,-53.377435,-5.285536,nan,0.152188,2.007198,1.031324,1.869200,1.342503,2.630896,-0.042972,2.346800,1.674299,40.500000,-59.500000,100.000000,-19.000000,899.09009080,0.000000,0.00000000,40.83248141,0.000000,410.61599389,376.83556424,67.30878682,0.00000000,3.25752872,0.16064673,0.01722742,0.06186157,2.69622549,0.01054084,0.00273249,0.00545980,0.00065227,1.22211130,1.40974553,0.04498327,0.00087840,0.00136625,0.00218392,0.00130453,0.89966536,0.70487276,1.52763913
2.200,2,1,1,-531.926,190.095,49.926,52.712791,-0.108807,-0.108807,-52.821598,-5.786874,nan,0.162963,1.967118,-1.117268,1.939271,1.387044,2.628021,0.458366,2.469437,1.744875,40.500000,-59.500000,100.000000,-19.000000,903.45265930,0.000000,0.00000000,46.67073073,0.000000,410.71646780,377.23940960,65.32105111,0.00000000,3.26509140,0.16048475,0.01752544,0.06189848,2.85043286,0.01195495,0.00315315,0.00555483,0.00065547,1.29008704,1.48886502,0.05016241,0.00099625,0.00157657,0.00222193,0.00131093,1.00324820,0.74443251,1.61260880
2.300,2,1,1,-531.923,190.114,49.923,52.109006,-0.130336,-0.130336,-52.239342,-6.102001,nan,0.174841,1.899409,-1.145916,1.969120,1.420371,2.587340,-0.587282,2.557874,1.802049,43.500000,-56.500000,100.000000,-13.000000,907.37068161,0.000000,0.00000000,52.01783871,0.000000,410.40567043,377.10410394,64.34145884,0.00000000,3.27148668,0.15803978,0.01469298,0.05739025,3.00139637,0.01327388,0.00356104,0.00565484,0.00066072,1.35659743,1.56640096,0.05524749,0.00110616,0.00178052,0.00226194,0.00132144,1.10494976,0.78320048,1.69574679
2.400,2,1,1,-531.920,190.134,49.920,51.482403,-0.153653,-0.153653,-51.636057,-6.402803,nan,0.188562,1.799836,-0.343775,1.954779,1.442838,2.512725,-1.876437,2.598256,1.846296,43.500000,-56.500000,100.000000,-13.000000,911.16305477,0.000000,0.00000000,57.32468645,0.000000,410.50586160,377.49877872,62.31702410,0.00000000,3.28689587,0.15786238,0.01476847,0.05717719,3.14899036,0.01445828,0.00394578,0.00566385,0.00071436,1.42158777,1.64228718,0.06033313,0.00120486,0.00197289,0.00226554,0.00142872,1.20666269,0.82114359,1.77698471
2.613,2,1,1,-531.920,190.134,49.920,51.482403,-0.153653,-0.153653,-51.636057,-6.402803,nan,0.188562,1.799836,-0.343775,1.954779,1.482645,2.512725,-1.876437,2.598256,1.923809,43.500000,-56.500000,100.000000,-13.000000,911.16305477,0.000000,0.00000000,57.32468645,0.000000,410.50586160,377.49877872,62.31702410,0.00000000,3.28689587,0.15786238,0.01476847,0.05717719,3.46256801,0.01697466,0.00476321,0.00568297,0.00082832,1.55966600,1.80351476,0.07113808,0.00141456,0.00238160,0.00227319,0.00165665,1.42276162,0.90175738,1.94958250
2.700,2,1,1,-531.911,190.204,49.911,49.510161,-0.233715,-0.233715,-49.743876,-6.689282,nan,0.181280,1.335016,-0.601606,1.765553,1.477059,2.081210,-2.778845,2.460852,1.930309,47.750000,-52.250000,100.000000,-4.500000,905.94556248,0.000000,0.00000000,57.67308804,0.000000,409.81301268,376.77734447,58.22906275,0.00000000,3.23547861,0.15531055,0.01205618,0.05020920,3.58245703,0.01754424,0.00499392,0.00570707,0.00093115,1.61238527,1.86537710,0.07551828,0.00146202,0.00249696,0.00228283,0.00186230,1.51036562,0.93268855,2.01548159
2.800,2,1,1,-531.907,190.230,49.907,48.830640,-0.263655,-0.263655,-49.094295,-6.674958,nan,0.217514,1.138948,-2.277507,1.607489,1.463978,1.885605,-1.375099,2.320984,1.928386,47.750000,-52.250000,100.000000,-4.500000,911.54513573,0.000000,0.00000000,64.65229715,0.000000,409.91329026,377.26095601,56.33891601,0.00000000,3.16316396,0.15496035,0.01186363,0.04968836,3.71640270,0.01801859,0.00521061,0.00610223,0.00095996,1.67114257,1.93443854,0.08053020,0.00150155,0.00260530,0.00244089,0.00191992,1.61060391,0.96721927,2.08892822
2.900,2,1,1,-531.902,190.257,49.903,48.147944,-0.295194,-0.295194,-48.443138,-7.348184,nan,0.243621,0.930806,-1.461042,1.414667,1.445702,1.668108,-1.991028,2.140586,1.918251,47.750000,-52.250000,100.000000,-4.500000,914.85476629,0.000000,0.00000000,70.02575132,0.000000,409.93659384,377.60101249,54.01081604,0.00000000,3.06399611,0.15471299,0.01211509,0.04976842,3.84657568,0.01833515,0.00538005,0.00626471,0.00102031,1.72830379,2.00173374,0.08553792,0.00152793,0.00269003,0.00250588,0.00204062,1.71075849,1.00086687,2.16037974
3.000,2,1,1,-531.899,190.271,49.900,47.545011,-0.310842,-0.310842,-47.855853,-6.617663,nan,0.254754,0.740155,-1.518338,1.216368,1.424187,1.455733,-2.334803,1.947469,1.901896,47.750000,-52.250000,100.000000,-4.500000,916.08932288,0.000000,0.00000000,72.35149936,0.000000,409.92891711,377.72977443,52.91380749,0.00000000,2.95002080,0.15450856,0.01209352,0.04870160,3.97390107,0.01853558,0.00550928,0.00644043,0.00110341,1.78416530,2.06759442,0.09055264,0.00154463,0.00275464,0.00257617,0.00220683,1.81105281,1.03379721,2.23020663
3.246,2,1,1,-531.899,190.271,49.900,47.545011,-0.310842,-0.310842,-47.855853,-6.617663,nan,0.254754,0.740155,-1.518338,1.216368,1.376821,1.455733,-2.334803,1.947469,1.866269,47.750000,-52.250000,100.000000,-4.500000,916.08932288,0.000000,0.00000000,72.35149936,0.000000,409.92891711,377.72977443,52.91380749,0.00000000,2.95002080,0.15450856,0.01209352,0.04870160,4.28694456,0.01902838,0.00582699,0.00687247,0.00130773,1.92150697,2.22952014,0.10288187,0.00158570,0.00291349,0.00274899,0.00261547,2.05763746,1.11476007,2.40188371
3.300,2,1,1,-531.880,190.361,49.881,45.477690,-0.415178,-0.415178,-45.892868,-6.660634,nan,0.203100,0.053734,-2.907761,0.918944,1.363510,0.590749,-2.478042,1.587117,1.850017,50.500000,-49.500000,100.000000,1.000000,902.97363766,0.000000,0.00000000,65.84749132,0.000000,409.08034149,376.55794820,48.54564505,0.00000000,2.73400556,0.15350303,0.01086535,0.04383765,4.35055766,0.01902895,0.00583846,0.00721992,0.00135820,1.94920323,2.26232866,0.10558023,0.00158575,0.00291923,0.00288797,0.00271641,2.11160461,1.13116433,2.43650404
3.400,2,1,1,-531.872,190.394,49.873,44.786753,-0.452425,-0.452425,-45.239178,-6.517395,nan,0.309092,-0.175981,-1.833465,0.690568,1.340186,0.284812,-3.695578,1.280018,1.818599,51.250000,-48.750000,100.000000,2.500000,912.29525863,0.000000,0.00000000,76.47519922,0.000000,408.89919809,376.92025279,47.22051743,0.00000000,2.57504118,0.15231669,0.01036546,0.04236776,4.46512546,0.01904028,0.00584341,0.00747601,0.00156629,1.99909472,2.32151964,0.11058511,0.00158669,0.00292170,0.00299041,0.00313258,2.21170222,1.16075982,2.49886840
3.500,2,1,1,-531.862,190.427,49.864,44.099007,-0.490958,-0.490958,-44.589965,-6.961437,nan,0.360320,-0.392788,-2.291831,0.482744,1.319626,-0.016098,-2.735873,0.945685,1.788058,51.625000,-48.375000,100.000000,3.250000,915.84443662,0.000000,0.00000000,82.24880978,0.000000,408.63974489,376.98342056,45.38398964,0.00000000,2.38471490,0.15161565,0.01031744,0.04182375,4.57663836,0.01909663,0.00584342,0.00787571,0.00168020,2.04751028,2.37904558,0.11558654,0.00159139,0.00292171,0.00315028,0.00336041,2.31173088,1.18952279,2.55938785
3.600,2,1,1,-531.851,190.462,49.854,43.415093,-0.530619,-0.530619,-43.945713,-6.803874,nan,0.390163,-0.592417,-1.962380,0.343557,1.302518,-0.310171,-2.635606,0.570356,1.759860,51.812500,-48.187500,100.000000,3.625000,917.33978955,0.000000,0.00000000,85.84851546,0.000000,408.32108223,376.86947163,43.93745832,0.00000000,2.16087191,0.15105832,0.01029202,0.04103966,4.68525727,0.01922494,0.00584928,0.00816901,0.00178602,2.09457995,2.43505422,0.12059384,0.00160208,0.00292464,0.00326761,0.00357204,2.41187690,1.21752711,2.61822494
3.816,2,1,1,-531.851,190.462,49.854,43.415093,-0.530619,-0.530619,-43.945713,-6.803874,nan,0.390163,-0.592417,-1.962380,0.343557,1.268483,-0.310171,-2.635606,0.570356,1.703513,51.906000,-48.094000,100.000000,3.812000,917.32866926,0.000000,0.00000000,85.83733163,0.000000,408.30853716,376.85345928,43.96577997,0.00000000,2.16137015,0.15101985,0.01024293,0.04092829,4.91942386,0.01950155,0.00586192,0.00880134,0.00201414,2.19605467,2.55579995,0.13139029,0.00162513,0.00293096,0.00352054,0.00402828,2.62780578,1.27789997,2.74506834
3.900,2,1,1,-531.810,190.570,49.814,41.385188,-0.656163,-0.656163,-42.041351,-5.514719,nan,0.309507,-1.121395,-1.403747,0.662198,1.265040,-1.127032,-2.248859,0.604195,1.691590,51.953000,-48.047000,100.000000,3.906000,904.53209737,0.000000,0.00000000,78.50418351,0.000000,407.46884198,375.69455443,40.16115940,0.00000000,2.50292394,0.15141915,0.01042020,0.03859475,5.00403602,0.01988928,0.00592720,0.00892792,0.00207911,2.23238581,2.59921251,0.13561418,0.00165744,0.00296360,0.00357117,0.00415823,2.71228369,1.29960625,2.79048227
4.000,2,1,1,-531.794,190.608,49.797,40.714456,-0.700032,-0.700032,-41.414488,-6.016057,nan,0.387259,-1.260894,-1.289155,0.869872,1.264922,-1.357907,-2.678578,0.826268,1.682971,51.976500,-48.023500,100.000000,3.953000,905.05420328,0.000000,0.00000000,81.54109249,0.000000,406.86469247,375.25499257,38.51802954,0.00000000,2.67544639,0.15075987,0.01060507,0.03858489,5.10181810,0.02047065,0.00603957,0.00905453,0.00218843,2.27419874,2.64924231,0.14062386,0.00170589,0.00301979,0.00362181,0.00437686,2.81247714,1.32462116,2.84274842
4.100,2,1,1,-531.776,190.647,49.780,40.045936,-0.744713,-0.744713,-40.790649,-6.861170,nan,0.439528,-1.372877,-1.346451,1.060116,1.268043,-1.559865,-1.747521,1.078245,1.679675,57.976500,-42.023500,100.000000,15.953000,903.55442771,0.000000,0.00000000,82.84494669,0.000000,405.41817731,373.70012059,38.52843454,0.00000000,2.87251334,0.14863933,0.00876441,0.03283149,5.19704813,0.02115929,0.00618774,0.00919252,0.00223492,2.31472669,2.69779835,0.14574861,0.00176327,0.00309387,0.00367701,0.00446984,2.91497225,1.34889918,2.89340836
4.200,2,1,1,-531.756,190.686,49.761,39.381971,-0.790197,-0.790197,-40.172167,-5.657958,nan,0.477213,-1.463777,-0.615930,1.226648,1.273730,-1.732368,-2.162916,1.324222,1.681121,56.488500,-43.511500,100.000000,12.977000,902.98017611,0.000000,0.00000000,84.34719722,0.000000,404.95869804,373.34936447,37.13703444,0.00000000,2.99824491,0.14807925,0.00901622,0.03254156,5.28971678,0.02194262,0.00637060,0.00922142,0.00230618,2.35405950,2.74498294,0.15083351,0.00182855,0.00318530,0.00368857,0.00461237,3.01667026,1.37249147,2.94257438
4.300,2,1,1,-531.734,190.726,49.740,38.727955,-0.836599,-0.836599,-39.564555,-6.445775,nan,0.500016,-1.532949,-1.274831,1.341305,1.281221,-1.874747,-0.272155,1.519881,1.686499,56.489000,-43.511000,100.000000,12.978000,899.64786290,0.000000,0.00000000,84.23828494,0.000000,404.24417250,372.63604856,35.22722614,0.00000000,3.11259832,0.14767567,0.00914859,0.03270818,5.37993165,0.02280130,0.00658465,0.00934514,0.00230731,2.39219245,2.79078490,0.15591589,0.00190011,0.00329233,0.00373806,0.00461462,3.11831781,1.39539245,2.99024056
4.503,2,1,1,-531.734,190.726,49.740,38.727955,-0.836599,-0.836599,-39.564555,-6.445775,nan,0.500016,-1.532949,-1.274831,1.341305,1.295124,-1.874747,-0.272155,1.519881,1.696519,56.489000,-43.511000,100.000000,12.978000,899.64786290,0.000000,0.00000000,84.23828494,0.000000,404.24417250,372.63604856,35.22722614,0.00000000,3.11259832,0.14767567,0.00914859,0.03270818,5.56256127,0.02453962,0.00701797,0.00959560,0.00230960,2.46938821,2.88350570,0.16620458,0.00204497,0.00350898,0.00383824,0.00461919,3.32409158,1.44175285,3.08673526
4.600,2,1,1,-531.659,190.850,49.667,36.803510,-0.980855,-0.980855,-37.784366,-5.228240,nan,0.477584,-1.604492,-0.429718,1.504095,1.303365,-2.057802,0.873761,1.833784,1.706035,56.489000,-43.511000,100.000000,12.978000,887.94809251,0.000000,0.00000000,79.13970291,0.000000,402.60421149,370.75571564,32.02425673,0.00000000,3.23657106,0.14758975,0.00925265,0.03079227,5.64383746,0.02546072,0.00727049,0.00960936,0.00232098,2.50344218,2.92455267,0.17118106,0.00212173,0.00363524,0.00384374,0.00464195,3.42362124,1.46227634,3.12930272
4.700,2,1,1,-531.631,190.893,49.639,36.171499,-1.030444,-1.030444,-37.201943,-5.572015,nan,0.506722,-1.582317,0.501338,1.554655,1.310678,-2.030514,0.816465,1.941814,1.714454,56.489000,-43.511000,100.000000,12.978000,882.93015554,0.000000,0.00000000,77.44401586,0.000000,401.66755108,369.70862225,30.68324147,0.00000000,3.23941558,0.14718791,0.00940715,0.03071424,5.72433722,0.02637361,0.00752103,0.00962845,0.00233110,2.53708332,2.96514735,0.17625235,0.00219780,0.00376052,0.00385138,0.00466221,3.52504707,1.48257367,3.17135415
4.800,2,1,1,-531.600,190.936,49.609,35.542856,-1.080642,-1.080642,-36.623498,-5.973085,nan,0.529510,-1.538996,0.286479,1.577750,1.316435,-1.963890,1.833465,2.001754,1.720663,60.500000,-39.500000,100.000000,21.000000,877.69194433,0.000000,0.00000000,75.57864336,0.000000,400.20095128,367.99682812,30.45983875,0.00000000,3.27353230,0.14633684,0.00852133,0.02729234,5.80285183,0.02723900,0.00775590,0.00963470,0.00238228,2.56975465,3.00461482,0.18147048,0.00226992,0.00387795,0.00385388,0.00476456,3.62940960,1.50230741,3.21219331
4.900,2,1,1,-531.569,190.979,49.578,34.969020,-1.131371,-1.131371,-36.100391,-4.683930,nan,0.537370,-1.484470,1.246183,1.573432,1.320492,-1.871288,0.515662,2.009191,1.724232,57.750000,-42.250000,100.000000,15.500000,873.61156478,0.000000,0.00000000,73.87162097,0.000000,399.68371405,367.44351449,29.16001639,0.00000000,3.26903686,0.14615849,0.00930827,0.02819525,5.87927708,0.02804455,0.00796924,0.00975297,0.00238633,2.60151460,3.04301864,0.18659074,0.00233705,0.00398462,0.00390119,0.00477266,3.73181477,1.52150932,3.25189325
5.000,2,1,1,-531.535,191.023,49.546,34.302706,-1.182611,-1.182611,-35.485317,-5.758226,nan,0.545260,-1.399019,0.401070,1.534375,1.322287,-1.725599,2.162916,1.951427,1.724263,60.500000,-39.500000,100.000000,21.000000,867.36482196,0.000000,0.00000000,71.45761436,0.000000,398.38776612,365.92788688,28.14462068,0.00000000,3.26620239,0.14567835,0.00882342,0.02622977,5.95325334,0.02875945,0.00815051,0.00976521,0.00245753,2.63217674,3.08013675,0.19180716,0.00239662,0.00407526,0.00390608,0.00491506,3.83614315,1.54006837,3.29022093
5.206,2,1,1,-531.535,191.023,49.546,34.302706,-1.182611,-1.182611,-35.485317,-5.758226,nan,0.545260,-1.399019,0.401070,1.534375,1.325733,-1.725599,2.162916,1.951427,1.724321,60.500000,-39.500000,100.000000,21.000000,867.36470096,0.000000,0.00000000,71.45761436,0.000000,398.38776612,365.92788688,28.14462068,0.00000000,3.26620239,0.14567835,0.00870242,0.02622977,6.10551607,0.03023089,0.00852361,0.00979040,0.00260407,2.69528754,3.15653561,0.20254393,0.00251924,0.00426181,0.00391616,0.00520814,4.05087856,1.57826781,3.36910943
5.300,2,1,1,-531.424,191.155,49.438,32.533834,-1.338931,-1.338931,-33.872764,-4.898789,nan,0.502212,-1.081959,1.117268,1.385361,1.321369,-1.125038,1.489690,1.698502,1.714548,60.500000,-39.500000,100.000000,21.000000,854.08718829,0.000000,0.00000000,65.56128407,0.000000,396.32456637,363.59867381,25.34197832,0.00000000,3.08127793,0.14579644,0.00909500,0.02451636,6.16953288,0.03063517,0.00859647,0.00988022,0.00263600,2.72170371,3.18860523,0.20747607,0.00255293,0.00429823,0.00395209,0.00527201,4.14952150,1.59430262,3.40212964
5.400,2,1,1,-531.384,191.200,49.399,31.938789,-1.391817,-1.391817,-33.330605,-5.371479,nan,0.549202,-0.951937,1.532662,1.270108,1.314870,-0.857585,2.950733,1.492664,1.701384,60.500000,-39.500000,100.000000,21.000000,848.59536555,0.000000,0.00000000,63.86039015,0.000000,395.14520910,362.29421935,24.15403958,0.00000000,2.96235690,0.14535097,0.00926170,0.02453781,6.23538468,0.03096629,0.00864125,0.01005904,0.00276856,2.74876565,3.22148939,0.21269450,0.00258052,0.00432063,0.00402361,0.00553713,4.25389008,1.61074469,3.43595706
5.500,2,1,1,-531.342,191.245,49.358,31.348024,-1.444962,-1.444962,-32.792986,-5.471747,nan,0.578059,-0.814606,1.589958,1.135263,1.306746,-0.565696,3.165592,1.243661,1.686188,63.250000,-36.750000,100.000000,26.500000,843.30477624,0.000000,0.00000000,62.16206911,0.000000,393.65199897,360.59103134,23.89492608,0.00000000,2.82851564,0.14505014,0.00858871,0.02259625,6.29940001,0.03120877,0.00866074,0.01025148,0.00292114,2.77496268,3.25335147,0.21804373,0.00260073,0.00433037,0.00410059,0.00584228,4.36087452,1.62667573,3.46870335
5.600,2,1,1,-531.299,191.289,49.316,30.762207,-1.498293,-1.498293,-32.260500,-5.944437,nan,0.600349,-0.671784,1.704549,0.988184,1.297282,-0.255491,4.368803,0.962253,1.669951,63.250000,-36.750000,100.000000,26.500000,837.91202681,0.000000,0.00000000,60.54053465,0.000000,392.52576336,359.35577328,22.66721990,0.00000000,2.64682702,0.14465381,0.00884832,0.02240647,6.36169237,0.03137380,0.00866472,0.01047283,0.00321195,2.80033471,3.28423743,0.22339692,0.00261448,0.00433236,0.00418913,0.00642391,4.46793848,1.64211871,3.50041838
5.808,2,1,1,-531.299,191.289,49.316,30.762207,-1.498293,-1.498293,-32.260500,-5.944437,nan,0.600349,-0.671784,1.704549,0.988184,1.278539,-0.255491,4.368803,0.962253,1.637675,63.250000,-36.750000,100.000000,26.500000,837.91202681,0.000000,0.00000000,60.54053465,0.000000,392.52576336,359.35577328,22.66721990,0.00000000,2.64682702,0.14465381,0.00884832,0.02240647,6.49125329,0.03171704,0.00867300,0.01093322,0.00381682,2.85310559,3.34847666,0.23453096,0.00264309,0.00433650,0.00437329,0.00763364,4.69061918,1.67423833,3.56638199
5.900,2,1,1,-531.162,191.424,49.182,29.043607,-1.658754,-1.658754,-30.702361,-6.001733,nan,0.582737,-0.227306,1.375099,0.706529,1.267958,0.727520,3.051000,0.613994,1.626450,64.625000,-35.375000,100.000000,29.250000,825.63316848,0.000000,0.00000000,56.41056797,0.000000,389.83296944,356.45411574,20.27256520,0.00000000,2.48858712,0.14480313,0.00892357,0.02063631,6.54343072,0.03173440,0.00870263,0.01106557,0.00394713,2.87421874,3.37424259,0.23951965,0.00264453,0.00435132,0.00442623,0.00789425,4.79039309,1.68712130,3.59277342
6.000,2,1,1,-531.114,191.468,49.136,28.481679,-1.712244,-1.712244,-30.193922,-4.626634,nan,0.619795,-0.083729,1.403747,0.542055,1.256431,1.058203,2.907761,0.616242,1.617902,64.625000,-35.375000,100.000000,29.250000,822.01836278,0.000000,0.00000000,55.34606763,0.000000,388.61740550,355.13306259,20.00912249,0.00000000,2.73986979,0.14432468,0.00882194,0.01968817,6.59854716,0.03173697,0.00877084,0.01121560,0.00407588,2.89643072,3.40137093,0.24494623,0.00264475,0.00438542,0.00448624,0.00815175,4.89892459,1.70068547,3.62053840
6.100,2,1,1,-531.065,191.512,49.088,27.925073,-1.765651,-1.765651,-29.690725,-5.213916,nan,0.640816,0.055350,2.248859,0.371906,1.245184,1.383215,2.535338,0.796967,1.614010,65.312500,-34.687500,100.000000,30.625000,817.33850514,0.000000,0.00000000,53.99062954,0.000000,387.34356572,353.74492984,19.09533023,0.00000000,2.99171592,0.14407015,0.00898731,0.01927644,6.65235968,0.03173809,0.00888741,0.01160076,0.00417378,2.91791434,3.42762986,0.25041544,0.00264484,0.00444371,0.00464030,0.00834757,5.00830881,1.71381493,3.64739292
6.200,2,1,1,-531.015,191.557,49.040,27.374259,-1.818905,-1.818905,-29.193164,-4.196916,nan,0.657804,0.190099,2.363451,0.218799,1.234466,1.698455,3.394775,1.073078,1.615530,65.312000,-34.688000,100.000000,30.624000,813.93504486,0.000000,0.00000000,53.07293071,0.000000,386.21531638,352.53934356,18.70399968,0.00000000,3.23223194,0.14372961,0.00897712,0.01851585,6.70480650,0.03175130,0.00906321,0.01202627,0.00434936,2.93868906,3.45304131,0.25588597,0.00264594,0.00453161,0.00481051,0.00869873,5.11771942,1.72652066,3.67336133
6.300,2,1,1,-530.965,191.600,48.991,26.828458,-1.871952,-1.871952,-28.700409,-5.514719,nan,0.669630,0.318260,1.418071,0.180220,1.224494,1.998783,2.248859,1.372786,1.622903,65.656000,-34.344000,100.000000,31.312000,809.29624953,0.000000,0.00000000,51.84952007,0.000000,385.04309020,351.28941965,17.47804113,0.00000000,3.46461508,0.14353641,0.00943597,0.01859100,6.75543764,0.03178831,0.00930654,0.01217937,0.00442637,2.95875671,3.47760572,0.26137462,0.00264903,0.00465327,0.00487175,0.00885274,5.22749235,1.73880286,3.69844588
6.513,2,1,1,-530.965,191.600,48.991,26.828458,-1.871952,-1.871952,-28.700409,-5.514719,nan,0.669630,0.318260,1.418071,0.180220,1.204114,1.998783,2.248859,1.372786,1.637684,65.828000,-34.172000,100.000000,31.656000,809.28529767,0.000000,0.00000000,51.85021706,0.000000,385.02041067,351.26131497,17.51566323,0.00000000,3.46624054,0.14356458,0.00937556,0.01851106,6.86326586,0.03186713,0.00982464,0.01250535,0.00459033,3.00148526,3.52990891,0.27308424,0.00265559,0.00491232,0.00500214,0.00918067,5.46168484,1.76495445,3.75185657
6.600,2,1,1,-530.812,191.730,48.842,25.223055,-2.029523,-2.029523,-27.252578,-2.793169,nan,0.634189,0.641839,1.160240,0.374170,1.197943,2.758503,2.879113,2.026635,1.659029,65.914000,-34.086000,100.000000,31.828000,801.06677541,0.000000,0.00000000,49.32749449,0.000000,382.53702688,348.70570515,16.32830507,0.00000000,3.99894736,0.14371655,0.00915846,0.01642146,6.90390530,0.03199831,0.01022850,0.01259466,0.00470032,3.01725272,3.54924944,0.27788134,0.00266653,0.00511425,0.00503786,0.00940064,5.55762677,1.77462472,3.77156591
6.700,2,1,1,-530.760,191.772,48.792,24.689383,-2.081349,-2.081349,-26.770733,-6.102001,nan,0.651079,0.728459,0.601606,0.495258,1.191838,2.951729,1.632930,2.357067,1.687755,65.957000,-34.043000,100.000000,31.914000,796.21845014,0.000000,0.00000000,48.29190469,0.000000,381.43230757,347.56423921,14.60650549,0.00000000,4.15211421,0.14359380,0.01026240,0.01752277,6.94910948,0.03219229,0.01075931,0.01262222,0.00474093,3.03471771,3.57068639,0.28339063,0.00268269,0.00537966,0.00504889,0.00948187,5.66781256,1.78534319,3.79339714
6.800,2,1,1,-530.709,191.814,48.743,24.156735,-2.132783,-2.132783,-26.289518,-6.044705,nan,0.658949,0.803581,0.673225,0.609476,1.186667,3.110999,2.134268,2.650985,1.719578,65.978500,-34.021500,100.000000,31.957000,793.20522471,0.000000,0.00000000,47.76944917,0.000000,380.43428650,346.54070090,14.01251757,0.00000000,4.27713556,0.14344554,0.01047882,0.01721064,6.99308715,0.03242838,0.01134906,0.01265674,0.00481032,3.05156353,3.59137681,0.28890230,0.00270237,0.00567453,0.00506270,0.00962065,5.77804593,1.79568840,3.81445442
6.900,2,1,1,-530.658,191.855,48.693,23.640398,-2.183814,-2.183814,-25.824212,-3.351803,nan,0.663341,0.867064,1.489690,0.710060,1.182338,3.234329,0.644578,2.895488,1.753341,65.989000,-34.011000,100.000000,31.978000,791.40335630,0.000000,0.00000000,47.64059390,0.000000,379.50983254,345.60102542,14.10913513,0.00000000,4.37383694,0.14323107,0.00994958,0.01575172,7.03591244,0.03270321,0.01198640,0.01282575,0.00481665,3.06781591,3.61135069,0.29441382,0.00272527,0.00599320,0.00513030,0.00963331,5.88827646,1.80567534,3.83476989
7.115,2,1,1,-530.658,191.855,48.693,23.640398,-2.183814,-2.183814,-25.824212,-3.351803,nan,0.663341,0.867064,1.489690,0.710060,1.173443,3.234329,0.644578,2.895488,1.820371,65.994500,-34.005500,100.000000,31.989000,791.40257795,0.000000,0.00000000,47.64053468,0.000000,379.50909660,345.60011713,14.10999804,0.00000000,4.37390269,0.14323197,0.00994756,0.01574928,7.12776914,0.03329268,0.01335343,0.01318825,0.00483023,3.10267564,3.65419266,0.30623625,0.00277439,0.00667672,0.00527530,0.00966045,6.12472496,1.82709633,3.87834455
7.200,2,1,1,-530.506,191.977,48.546,22.145871,-2.334424,-2.334424,-24.480295,-2.148592,nan,0.616739,0.978435,-0.085944,0.843401,1.171158,3.376306,-0.730521,3.160357,1.848513,65.997500,-34.002500,100.000000,31.995000,783.43977778,0.000000,0.00000000,45.53202727,0.000000,377.25459228,343.33426786,12.70427869,0.00000000,4.44644057,0.14358569,0.01008905,0.01449636,7.16126336,0.03359208,0.01394762,0.01318873,0.00483718,3.11517057,3.66957516,0.31095202,0.00279934,0.00697381,0.00527549,0.00967436,6.21904031,1.83478758,3.89396321
7.300,2,1,1,-530.456,192.017,48.498,21.642415,-2.383758,-2.383758,-24.026173,-1.289155,nan,0.627637,0.995638,0.243507,0.905639,1.168768,3.348784,-1.002676,3.263932,1.879263,65.999000,-34.001000,100.000000,31.998000,781.46109912,0.000000,0.00000000,45.60626396,0.000000,376.39804973,342.49426280,12.36358268,0.00000000,4.43149079,0.14348090,0.01005884,0.01390942,7.19922247,0.03395431,0.01463059,0.01319325,0.00485249,3.12923289,3.68689698,0.31646196,0.00282953,0.00731530,0.00527730,0.00970498,6.32923920,1.84344849,3.91154111
7.400,2,1,1,-530.406,192.056,48.450,21.115914,-2.432650,-2.432650,-23.548564,-8.322212,nan,0.628174,1.000062,-0.415394,0.952548,1.166498,3.282563,-1.618606,3.319532,1.906986,66.000000,-28.000000,94.000000,38.000000,777.74341291,0.000000,0.00000000,45.09512481,0.000000,375.54918785,341.66036335,10.86433398,0.00000000,4.41087693,0.14124061,0.00832946,0.01395593,7.23560107,0.03431984,0.01528695,0.01320639,0.00489238,3.14274441,3.70354996,0.32160114,0.00285999,0.00764348,0.00528255,0.00978477,6.43202274,1.85177498,3.92843051
7.500,2,1,1,-530.357,192.095,48.402,20.591133,-2.481129,-2.481129,-23.072262,-8.637339,nan,0.627065,0.992040,1.862113,0.983280,1.164189,3.178435,-0.615930,3.324710,1.931058,66.000000,-28.000000,94.000000,38.000000,775.53214472,0.000000,0.00000000,44.98559236,0.000000,374.75851246,340.89101838,10.31966208,0.00000000,4.41394026,0.14126662,0.00828847,0.01386409,7.27096449,0.03467966,0.01590257,0.01347051,0.00489816,3.15571992,3.71955136,0.32674231,0.00288997,0.00795128,0.00538820,0.00979633,6.53484625,1.85977568,3.94464989
7.713,2,1,1,-530.357,192.095,48.402,20.591133,-2.481129,-2.481129,-23.072262,-8.637339,nan,0.627065,0.992040,1.862113,0.983280,1.159464,3.178435,-0.615930,3.324710,1.979271,66.000000,-28.000000,94.000000,38.000000,775.53214472,0.000000,0.00000000,44.98559236,0.000000,374.75851246,340.89101838,10.31966208,0.00000000,4.41394026,0.14126662,0.00828847,0.01386409,7.34640210,0.03544725,0.01721581,0.01403394,0.00491049,3.18339940,3.75368569,0.33770952,0.00295394,0.00860790,0.00561358,0.00982099,6.75419040,1.87684285,3.97924925
7.800,2,1,1,-530.212,192.209,48.262,19.129868,-2.623633,-2.623633,-21.753501,-8.623015,nan,0.550055,0.917985,-0.759169,0.976463,1.156895,2.657594,-3.208564,3.125884,1.988675,66.000000,-28.000000,94.000000,38.000000,767.34585750,0.000000,0.00000000,42.08108835,0.000000,372.82948043,338.93556534,9.11325407,0.00000000,4.22257161,0.14200234,0.00863914,0.01325622,7.37398709,0.03571401,0.01758844,0.01407195,0.00504628,3.19338599,3.76601970,0.34216072,0.00297617,0.00879422,0.00562878,0.01009256,6.84321445,1.88300985,3.99173249
7.900,2,1,1,-530.164,192.246,48.216,18.634168,-2.670224,-2.670224,-21.304393,-9.224621,nan,0.561382,0.874924,-0.186211,0.955515,1.153544,2.424332,-1.905085,2.947589,1.995196,66.000000,-28.000000,94.000000,38.000000,765.12710231,0.000000,0.00000000,41.87096452,0.000000,372.07576329,338.19723504,8.72509465,0.00000000,4.09363139,0.14208885,0.00897349,0.01335109,7.40455003,0.03599382,0.01794650,0.01407459,0.00510156,3.20444638,3.77968662,0.34730057,0.00299949,0.00897325,0.00562984,0.01020311,6.94601142,1.88984331,4.00555797
8.000,2,1,1,-530.116,192.283,48.170,18.219450,-2.716434,-2.716434,-20.935884,-9.654339,nan,0.572290,0.829985,-0.759169,0.926318,1.149828,2.187175,-2.291831,2.749157,1.997878,66.000000,-28.000000,94.000000,38.000000,763.11911953,0.000000,0.00000000,41.79179663,0.000000,371.30863983,337.44672359,8.45465081,0.00000000,3.95251476,0.14213581,0.00924551,0.01341258,7.43424661,0.03624567,0.01823798,0.01411848,0.00518157,3.21512928,3.79289232,0.35244130,0.00302047,0.00911899,0.00564739,0.01036314,7.04882605,1.89644616,4.01891160
8.100,2,1,1,-530.068,192.319,48.124,17.732333,-2.762254,-2.762254,-20.494587,-8.852198,nan,0.571992,0.773027,-0.300803,0.883692,1.145675,1.909309,-1.833465,2.491971,1.996738,66.000000,-28.000000,94.000000,38.000000,760.79689185,0.000000,0.00000000,41.43176579,0.000000,370.57192885,336.71377836,8.14901798,0.00000000,3.76619988,0.14214983,0.00920162,0.01284954,7.46278028,0.03646411,0.01846008,0.01412538,0.00523277,3.22536521,3.80555139,0.35758135,0.00303868,0.00923004,0.00565015,0.01046554,7.15162704,1.90277570,4.03170651
8.200,2,1,1,-530.021,192.355,48.078,17.368740,-2.807677,-2.807677,-20.176417,0.845113,nan,0.566355,0.720833,-0.687549,0.842576,1.141169,1.649132,-2.764521,2.275223,1.992609,66.000000,-28.000000,94.000000,38.000000,760.60644583,0.000000,0.00000000,41.60147436,0.000000,369.90510935,336.04060939,9.29390662,0.00000000,3.60752266,0.14182004,0.00695211,0.00905130,7.49063864,0.03665416,0.01862587,0.01416140,0.00534924,3.23529170,3.81783181,0.36272446,0.00305451,0.00931293,0.00566456,0.01069849,7.25448929,1.90891591,4.04411462
8.447,2,1,1,-530.021,192.355,48.078,17.368740,-2.807677,-2.807677,-20.176417,0.845113,nan,0.566355,0.720833,-0.687549,0.842576,1.130450,1.649132,-2.764521,2.275223,1.982820,66.000000,-28.000000,94.000000,38.000000,760.60644583,0.000000,0.00000000,41.60147436,0.000000,369.90510935,336.04060939,9.29390662,0.00000000,3.60752266,0.14182004,0.00695211,0.00905130,7.55947590,0.03712377,0.01903553,0.01425041,0.00563705,3.25981979,3.84817640,0.37543296,0.00309365,0.00951776,0.00570016,0.01127409,7.50865918,1.92408820,4.07477474
8.500,2,1,1,-529.877,192.460,47.940,15.982696,-2.941930,-2.941930,-18.924625,1.661578,nan,0.578283,0.511329,-0.343775,0.739595,1.127483,0.701966,-3.795845,1.806700,1.977097,66.000000,-28.000000,94.000000,38.000000,753.45484069,0.000000,0.00000000,40.55911117,0.000000,367.60039040,333.74428570,8.12208945,0.00000000,3.27170726,0.14183141,0.00717665,0.00824866,7.57267510,0.03717416,0.01905136,0.01425515,0.00575276,3.26442175,3.85387673,0.37814319,0.00309785,0.00952568,0.00570206,0.01150552,7.56286378,1.92693837,4.08052718
8.600,2,1,1,-529.828,192.495,47.893,15.560205,-2.986070,-2.986070,-18.546274,3.108296,nan,0.583374,0.434756,-0.945380,0.655970,1.121544,0.379721,-2.463719,1.445542,1.965310,66.000000,-28.000000,94.000000,38.000000,751.18194593,0.000000,0.00000000,40.25245625,0.000000,366.75794992,332.88816137,8.10814972,0.00000000,3.01877723,0.14173794,0.00700399,0.00770951,7.59681567,0.03724323,0.01906014,0.01432320,0.00584518,3.27280165,3.86426048,0.38328178,0.00310360,0.00953007,0.00572928,0.01169037,7.66563565,1.93213024,4.09100207
8.700,2,1,1,-529.779,192.529,47.846,15.087407,-3.029912,-3.029912,-18.117319,-10.657015,nan,0.590183,0.356297,-0.315127,0.563995,1.115378,0.062311,-2.836141,1.060474,1.953301,66.000000,-16.000000,82.000000,50.000000,745.89632627,0.000000,0.00000000,39.11435211,0.000000,365.82300892,331.93011070,6.12830419,0.00000000,2.74899961,0.13844540,0.00529930,0.00780604,7.61952056,0.03728964,0.01906038,0.01433076,0.00596771,3.28080116,3.87417682,0.38789411,0.00310747,0.00953019,0.00573230,0.01193541,7.75788212,1.93708841,4.10100145
8.800,2,1,1,-529.729,192.563,47.798,14.620593,-3.073431,-3.073431,-17.694024,-10.356212,nan,0.591754,0.275683,-0.673225,0.462162,1.109051,-0.246454,-1.991028,0.632333,1.941687,66.000000,-16.000000,82.000000,50.000000,742.86920725,0.000000,0.00000000,38.45051929,0.000000,364.95817800,331.03958354,5.82435276,0.00000000,2.44643792,0.13838924,0.00419639,0.00755010,7.64134925,0.03731742,0.01906408,0.01436527,0.00602808,3.28843049,3.88363793,0.39250598,0.00310979,0.00953204,0.00574611,0.01205616,7.85011966,1.94181896,4.11053811
8.900,2,1,1,-529.679,192.596,47.750,14.230705,-3.116442,-3.116442,-17.347147,4.039352,nan,0.591529,0.195051,-0.916732,0.383739,1.102636,-0.542665,-3.165592,0.426983,1.931004,66.000000,-28.000000,94.000000,38.000000,742.21810008,0.000000,0.00000000,38.24909087,0.000000,364.14099236,330.19244306,7.09487786,0.00000000,2.38380633,0.14153217,0.00839006,0.00696737,7.66316642,0.03733133,0.01908202,0.01442927,0.00618070,3.29576331,3.89273416,0.39764563,0.00311094,0.00954101,0.00577171,0.01236140,7.95291270,1.94636708,4.11970414
9.100,2,1,1,-529.679,192.596,47.750,14.230705,-3.116442,-3.116442,-17.347147,4.039352,nan,0.591529,0.195051,-0.916732,0.383739,1.090140,-0.542665,-3.165592,0.426983,1.910203,66.000000,-28.000000,94.000000,38.000000,742.21694808,0.000000,0.00000000,38.24909087,0.000000,364.14099236,330.19244306,7.09487786,0.00000000,2.38380633,0.14153217,0.00723806,0.00696737,7.70682121,0.03735915,0.01911791,0.01455732,0.00648608,3.31043584,3.91093514,0.40792976,0.00311326,0.00955896,0.00582293,0.01297216,8.15859518,1.95546757,4.13804480
9.200,2,1,1,-529.524,192.693,47.601,12.973567,-3.243574,-3.243574,-16.217141,-12.017790,nan,0.621238,-0.043538,-0.931056,0.238510,1.083872,-1.314224,-1.489690,0.743588,1.904418,66.000000,-16.000000,82.000000,50.000000,732.54129386,0.000000,0.00000000,36.02410821,0.000000,361.38062866,327.37224978,4.67072977,0.00000000,2.94175780,0.13825061,0.00593402,0.00763502,7.72598802,0.03735985,0.01922304,0.01462327,0.00651985,3.31683890,3.91888567,0.41253745,0.00311332,0.00961152,0.00584931,0.01303969,8.25074894,1.95944283,4.14604862
9.300,2,1,1,-529.471,192.725,47.549,12.596171,-3.285504,-3.285504,-15.881675,3.108296,nan,0.619837,-0.125571,-0.888085,0.169528,1.077778,-1.520811,-1.346451,1.002587,1.900493,66.000000,-28.000000,94.000000,38.000000,731.17532564,0.000000,0.00000000,35.47410998,0.000000,360.45519175,326.39557924,5.60036601,0.00000000,3.09298954,0.14125761,0.00919927,0.00663223,7.74514743,0.03736561,0.01936398,0.01468335,0.00654747,3.32298688,3.92652157,0.41767858,0.00311380,0.00968199,0.00587334,0.01309493,8.35357153,1.96326078,4.15373360
9.400,2,1,1,-529.417,192.756,47.497,12.228291,-3.326949,-3.326949,-15.555240,3.810169,nan,0.622723,-0.200489,-1.776169,0.129138,1.071917,-1.697238,-0.945380,1.256830,1.898330,66.000000,-28.000000,94.000000,38.000000,728.08004188,0.000000,0.00000000,34.44547755,0.000000,359.46271053,325.34643909,5.44610778,0.00000000,3.22381197,0.14114349,0.00802209,0.00632938,7.76395073,0.03738030,0.01953945,0.01492356,0.00656108,3.32888254,3.93384599,0.42281780,0.00311503,0.00976973,0.00596943,0.01312215,8.45635600,1.96692300,4.16110318
9.500,2,1,1,-529.362,192.787,47.444,11.797543,-3.368121,-3.368121,-15.165664,-10.943494,nan,0.625392,-0.268538,-0.902409,0.146450,1.066322,-1.841609,-1.131592,1.481149,1.897709,66.000000,-16.000000,82.000000,50.000000,723.19328805,0.000000,0.00000000,32.90654996,0.000000,358.41916566,324.24460791,4.14031210,0.00000000,3.33167316,0.13796990,0.00607489,0.00693447,7.78144680,0.03740666,0.01974607,0.01498558,0.00658058,3.33448723,3.94081105,0.42742963,0.00311722,0.00987303,0.00599423,0.01316116,8.54859262,1.97040552,4.16810904
9.600,2,1,1,-529.307,192.818,47.391,11.370796,-3.409062,-3.409062,-14.779858,-11.244297,nan,0.637803,-0.337738,-0.171887,0.205471,1.061036,-1.952057,-1.246183,1.653621,1.898315,66.000000,-14.000000,80.000000,52.000000,719.92384524,0.000000,0.00000000,31.99977241,0.000000,357.36984778,323.14245921,3.84542546,0.00000000,3.41832732,0.13739151,0.00437304,0.00624851,7.79824234,0.03744836,0.01997826,0.01498783,0.00660424,3.33981156,3.94742963,0.43198246,0.00312070,0.00998913,0.00599513,0.01320847,8.63964928,1.97371482,4.17476445
9.804,2,1,1,-529.307,192.818,47.391,11.370796,-3.409062,-3.409062,-14.779858,-11.244297,nan,0.637803,-0.337738,-0.171887,0.205471,1.050514,-1.952057,-1.246183,1.653621,1.899512,66.000000,-14.000000,80.000000,52.000000,719.92381324,0.000000,0.00000000,31.99977241,0.000000,357.36984778,323.14245921,3.84542546,0.00000000,3.41832732,0.13739151,0.00434104,0.00624851,7.83255340,0.03753356,0.02045260,0.01499242,0.00665256,3.35068845,3.96095051,0.44128329,0.00312780,0.01022630,0.00599697,0.01330513,8.82566584,1.98047526,4.18836056
9.900,2,1,1,-529.134,192.907,47.223,10.306359,-3.528964,-3.528964,-13.835323,-10.012437,nan,0.670786,-0.530245,0.085944,0.363283,1.046523,-2.069340,0.157563,1.907944,1.901316,66.000000,-14.000000,80.000000,52.000000,711.48072205,0.000000,0.00000000,30.10257317,0.000000,354.31019559,319.99128112,3.41136731,0.00000000,3.51819994,0.13708083,0.00443300,0.00559109,7.84726942,0.03763187,0.02070216,0.01499296,0.00665293,3.35515063,3.96650120,0.44563767,0.00313599,0.01035108,0.00599719,0.01330585,8.91275349,1.98325060,4.19393829
10.000,2,1,1,-529.074,192.935,47.166,9.940162,-3.567874,-3.567874,-13.508036,-9.912170,nan,0.665452,-0.581570,-0.587282,0.439996,1.042709,-2.037055,1.504014,1.988768,1.902796,66.000000,-14.000000,80.000000,52.000000,707.68832631,0.000000,0.00000000,28.75072132,0.000000,353.20872213,318.81503082,3.26637165,0.00000000,3.50050706,0.13698617,0.00451102,0.00547614,7.86223869,0.03775552,0.02095498,0.01501923,0.00668738,3.35959752,3.97203411,0.45018996,0.00314629,0.01047749,0.00600769,0.01337476,9.00379914,1.98601705,4.19949690
10.100,2,1,1,-529.014,192.963,47.107,9.644738,-3.606336,-3.606336,-13.251075,4.526367,nan,0.669710,-0.632290,-0.716197,0.511385,1.039270,-1.969243,1.346451,2.026747,1.903500,66.000000,-26.000000,92.000000,40.000000,705.35424458,0.000000,0.00000000,27.93637917,0.000000,352.11132635,317.65110696,4.00162930,0.00000000,3.50046702,0.13967897,0.00880861,0.00484819,7.87732125,0.03790163,0.02119120,0.01505829,0.00671499,3.36387584,3.97735821,0.45522110,0.00315847,0.01059560,0.00602331,0.01342998,9.10442205,1.98867911,4.20484480
10.200,2,1,1,-528.953,192.991,47.048,9.352088,-3.644400,-3.644400,-12.996488,4.239888,nan,0.672877,-0.677802,-0.200535,0.573787,1.036187,-1.867951,1.761845,2.017088,1.903136,66.000000,-26.000000,92.000000,40.000000,701.67747353,0.000000,0.00000000,26.76567913,0.000000,350.98173913,316.45790576,3.81989551,0.00000000,3.49999138,0.13957515,0.00784683,0.00484065,7.89202438,0.03806957,0.02140379,0.01506135,0.00676227,3.36799228,3.98248173,0.46025339,0.00317246,0.01070189,0.00602454,0.01352454,9.20506783,1.99124087,4.20999035
10.300,2,1,1,-528.890,193.018,46.987,8.990767,-3.682188,-3.682188,-12.672955,-10.871874,nan,0.675120,-0.715408,-0.572958,0.622417,1.033417,-1.735960,0.830789,1.959056,1.901505,66.000000,-14.000000,80.000000,52.000000,697.06846114,0.000000,0.00000000,25.36190914,0.000000,349.83285223,315.25105472,3.01082752,0.00000000,3.46340494,0.13672986,0.00607336,0.00560937,7.90576594,0.03825662,0.02158735,0.01508634,0.00677278,3.37190529,3.98735309,0.46480446,0.00318805,0.01079367,0.00603454,0.01354556,9.29608919,1.99367655,4.21488162
10.503,2,1,1,-528.890,193.018,46.987,8.990767,-3.682188,-3.682188,-12.672955,-10.871874,nan,0.675120,-0.715408,-0.572958,0.622417,1.027957,-1.735960,0.830789,1.959056,1.898298,66.000000,-14.000000,80.000000,52.000000,697.06730914,0.000000,0.00000000,25.36190914,0.000000,349.83285223,315.25105472,3.01082752,0.00000000,3.46340494,0.13672986,0.00492136,0.00560937,7.93358987,0.03863536,0.02195902,0.01513695,0.00679406,3.37982837,3.99721664,0.47401947,0.00321961,0.01097951,0.00605478,0.01358812,9.48038943,1.99860832,4.22478547
10.600,2,1,1,-528.699,193.096,46.801,8.052061,-3.792451,-3.792451,-11.844512,4.311507,nan,0.690216,-0.785252,-0.572958,0.712252,1.025887,-1.173384,2.721550,1.687242,1.892624,66.000000,-26.000000,92.000000,40.000000,688.86594449,0.000000,0.00000000,23.58993243,0.000000,346.63995850,311.98696851,3.22291315,0.00000000,3.27280936,0.13936493,0.00948644,0.00451118,7.94642421,0.03885524,0.02204084,0.01516134,0.00690411,3.38316355,4.00137078,0.47892833,0.00323794,0.01102042,0.00606454,0.01380823,9.57856662,2.00068539,4.22895444
10.700,2,1,1,-528.634,193.120,46.738,7.711223,-3.828039,-3.828039,-11.539262,-10.356212,nan,0.694897,-0.791334,1.346451,0.746538,1.023848,-0.940810,2.019676,1.492238,1.885626,66.000000,-14.000000,80.000000,52.000000,684.33490061,0.000000,0.00000000,22.23201375,0.000000,345.41264662,310.69361092,2.71034352,0.00000000,3.13825053,0.13648397,0.00634104,0.00521026,7.95874729,0.03908416,0.02209477,0.01529941,0.00696625,3.38640864,4.00541345,0.48348060,0.00325701,0.01104739,0.00611976,0.01393249,9.66961201,2.00270673,4.23301080
10.800,2,1,1,-528.568,193.145,46.674,7.367415,-3.863238,-3.863238,-11.230653,-10.542423,nan,0.697785,-0.795157,0.873761,0.772097,1.021870,-0.690968,2.478042,1.261791,1.877668,66.000000,-14.000000,80.000000,52.000000,680.71864672,0.000000,0.00000000,21.22236274,0.000000,344.22714477,309.45375387,2.69263975,0.00000000,2.97579106,0.13639963,0.00533002,0.00522488,7.97063904,0.03931576,0.02212392,0.01535767,0.00705997,3.38948862,4.00925112,0.48804198,0.00327631,0.01106196,0.00614307,0.01411993,9.76083952,2.00462556,4.23686078
10.900,2,1,1,-528.533,193.157,46.640,7.091362,-3.881296,-3.881296,-10.972658,4.984733,nan,0.697970,-0.792729,-0.071620,0.786731,1.019915,-0.426540,2.750197,1.019172,1.869101,66.000000,-26.000000,92.000000,40.000000,679.15555210,0.000000,0.00000000,20.87440699,0.000000,343.63255981,308.83457387,2.86057770,0.00000000,2.80050388,0.13904946,0.00974634,0.00413405,7.98259850,0.03954510,0.02213499,0.01535806,0.00717498,3.39241794,4.01290158,0.49306584,0.00329543,0.01106749,0.00614323,0.01434996,9.86131689,2.00645079,4.24052242
11.098,2,1,1,-528.501,193.168,46.609,7.091362,-3.897778,-3.897778,-10.989140,4.984733,nan,0.558148,-0.792729,-0.071620,0.786731,1.016146,-0.426540,2.750197,1.019172,1.852520,66.000000,-26.000000,92.000000,40.000000,677.86025113,0.000000,0.00000000,19.07549096,0.000000,343.88274552,309.12481156,2.87056248,0.00000000,2.75407852,0.14007734,0.00834785,0.00413690,8.00629216,0.03999872,0.02215687,0.01535883,0.00740247,3.39822925,4.02014348,0.50300255,0.00333323,0.01107844,0.00614353,0.01480493,10.06005099,2.01007174,4.24778656
11.115,2,1,1,-528.466,193.180,46.575,6.723996,-3.915424,-3.915424,-10.639420,-9.768930,nan,0.558148,-0.771841,0.128916,0.786931,1.015789,-0.097110,2.119944,0.995622,1.850985,66.000000,-14.000000,80.000000,52.000000,676.22586424,0.000000,0.00000000,18.90114600,0.000000,343.33154143,308.58712087,2.52042549,0.00000000,2.73712966,0.13736375,0.00627926,0.00485778,8.00823884,0.04003713,0.02215698,0.01535906,0.00741454,3.39871580,4.02074992,0.50380543,0.00333643,0.01107849,0.00614362,0.01482908,10.07610850,2.01037496,4.24839474
11.200,2,1,1,-528.331,193.225,46.443,6.203784,-3.981978,-3.981978,-10.185762,4.025029,nan,0.870820,-0.723291,-0.859437,0.775569,1.013800,0.386363,2.707226,0.622095,1.843946,66.000000,-26.000000,92.000000,40.000000,670.25473653,0.000000,0.00000000,20.85936915,0.000000,339.45758675,304.56615045,2.65602555,0.00000000,2.56285136,0.13788160,0.01065101,0.00422066,8.01764848,0.04019952,0.02216470,0.01540682,0.00750933,3.40086284,4.02342667,0.50807859,0.00334996,0.01108235,0.00616273,0.01501867,10.16157186,2.01171333,4.25107855
11.300,2,1,1,-528.263,193.247,46.377,5.854503,-4.014398,-4.014398,-9.868900,-10.499452,nan,0.821366,-0.687999,0.572958,0.757063,1.011265,0.666074,2.678578,0.490755,1.836510,66.000000,-14.000000,80.000000,52.000000,666.66393910,0.000000,0.00000000,19.52028878,0.000000,338.35588545,303.41658427,2.62969324,0.00000000,2.59405377,0.13523873,0.00717602,0.00501885,8.02786488,0.04037250,0.02219172,0.01543182,0.00761858,3.40323563,4.02638533,0.51262931,0.00336437,0.01109586,0.00617273,0.01523716,10.25258615,2.01319266,4.25404454
11.400,2,1,1,-528.195,193.268,46.310,5.571063,-4.046189,-4.046189,-9.617251,4.784198,nan,0.777663,-0.652049,-0.085944,0.732245,1.008550,0.908332,2.850465,0.509981,1.830133,66.000000,-26.000000,92.000000,40.000000,663.41623539,0.000000,0.00000000,18.30506686,0.000000,337.34860691,302.37669482,2.46506740,0.00000000,2.76819450,0.13804677,0.01064895,0.00390917,8.03829571,0.04052797,0.02224200,0.01543238,0.00774238,3.40549046,4.02919726,0.51766325,0.00337733,0.01112100,0.00617295,0.01548476,10.35326496,2.01459863,4.25686308
11.500,2,1,1,-528.126,193.288,46.243,5.247830,-4.077176,-4.077176,-9.325006,-9.181649,nan,0.719374,-0.605182,1.231859,0.699474,1.005610,1.154384,2.592634,0.656787,1.825114,66.000000,-14.000000,80.000000,52.000000,660.35518485,0.000000,0.00000000,16.88575173,0.000000,336.49751489,301.51634747,2.37397019,0.00000000,2.93449057,0.13566247,0.00696878,0.00447875,8.04804946,0.04066194,0.02232325,0.01554802,0.00784483,3.40761098,4.03184206,0.52221838,0.00338850,0.01116162,0.00621921,0.01568966,10.44436761,2.01592103,4.25951373
11.709,2,1,1,-528.126,193.288,46.243,5.247830,-4.077176,-4.077176,-9.325006,-9.181649,nan,0.719374,-0.605182,1.231859,0.699474,0.999617,1.154384,2.592634,0.656787,1.814885,66.000000,-2.000000,68.000000,64.000000,659.51783120,0.000000,0.00000000,16.80815419,0.000000,336.48520700,301.50124316,1.64859932,0.00000000,2.93449057,0.13402910,0.00440077,0.00170710,8.06800442,0.04094154,0.02249280,0.01578937,0.00805864,3.41203647,4.03736172,0.53132390,0.00341179,0.01124640,0.00631575,0.01611728,10.62647791,2.01868086,4.26504558
11.801,2,1,1,-527.921,193.344,46.043,4.350353,-4.165514,-4.165514,-8.515867,-9.697311,nan,0.616670,-0.426004,0.845113,0.599799,0.996300,1.852008,2.664254,1.232779,1.815188,66.000000,-2.000000,68.000000,64.000000,652.54177035,0.000000,0.00000000,14.74114051,0.000000,333.97871694,299.08061217,1.20281885,0.00000000,3.39892355,0.13493767,0.00299707,0.00162359,8.07602696,0.04100222,0.02268395,0.01583912,0.00815754,3.41365309,4.03937878,0.53531225,0.00341685,0.01134198,0.00633565,0.01631507,10.70624505,2.01968939,4.26706637
11.900,2,1,1,-527.853,193.362,45.976,4.105963,-4.193074,-4.193074,-8.299038,5.070676,nan,0.656080,-0.352641,1.188887,0.532364,0.992484,2.059374,1.446718,1.520007,1.817465,66.000000,-14.000000,80.000000,52.000000,650.52429867,0.000000,0.00000000,14.14127759,0.000000,332.77414169,297.82451247,2.08235881,0.00000000,3.55959285,0.13596549,0.00504511,0.00140466,8.08476458,0.04104752,0.02294143,0.01594639,0.00818930,3.41532567,4.04146585,0.53984842,0.00342063,0.01147071,0.00637855,0.01637861,10.79696832,2.02073293,4.26915709
12.000,2,1,1,-527.785,193.378,45.910,3.878423,-4.219617,-4.219617,-8.098039,5.872817,nan,0.675957,-0.270680,1.145916,0.455157,0.988484,2.244392,0.744845,1.787006,1.821607,66.000000,-26.000000,92.000000,40.000000,647.22260998,0.000000,0.00000000,13.08047149,0.000000,331.57919445,296.58543516,2.12285459,0.00000000,3.70142515,0.13906117,0.01078663,0.00338133,8.09382716,0.04107429,0.02324819,0.01604634,0.00819775,3.41692308,4.04345929,0.54487822,0.00342286,0.01162409,0.00641854,0.01639550,10.89756447,2.02172964,4.27115385
12.100,2,1,1,-527.718,193.394,45.844,3.587542,-4.245454,-4.245454,-7.832996,-9.754606,nan,0.685128,-0.186126,1.246183,0.373828,0.984366,2.404627,1.231859,2.019989,1.827427,66.000000,-14.000000,80.000000,52.000000,645.05970106,0.000000,0.00000000,12.44379557,0.000000,330.45749525,295.43553274,2.75107846,0.00000000,3.82339469,0.13643612,0.00739932,0.00456889,8.10224522,0.04108695,0.02360039,0.01616459,0.00822086,3.41841801,4.04532504,0.54942938,0.00342391,0.01180020,0.00646583,0.01644172,10.98858765,2.02266252,4.27302251
12.200,2,1,1,-527.651,193.409,45.778,3.286485,-4.270824,-4.270824,-7.557309,-9.024085,nan,0.688100,-0.104159,0.487014,0.302120,0.980196,2.538730,1.661578,2.202690,1.834679,66.000000,-2.000000,68.000000,64.000000,639.75809103,0.000000,0.00000000,11.22890286,0.000000,329.30554936,294.25165900,0.90764651,0.00000000,3.92418058,0.13454898,0.00423574,0.00136800,8.11019510,0.04109092,0.02399326,0.01618266,0.00826293,3.41981053,4.04706317,0.55379163,0.00342424,0.01199663,0.00647306,0.01652586,11.07583259,2.02353159,4.27476316
12.394,2,1,1,-527.651,193.409,45.778,3.286485,-4.270824,-4.270824,-7.557309,-9.024085,nan,0.688100,-0.104159,0.487014,0.302120,0.972285,2.538730,1.661578,2.202690,1.848272,66.000000,-2.000000,68.000000,64.000000,639.75693903,0.000000,0.00000000,11.22890286,0.000000,329.30554936,294.25165900,0.90764651,0.00000000,3.92418058,0.13454898,0.00308374,0.00136800,8.12556036,0.04109859,0.02475257,0.01621759,0.00834424,3.42250196,4.05042258,0.56222283,0.00342488,0.01237629,0.00648703,0.01668849,11.24445668,2.02521129,4.27812745
12.410,2,1,1,-527.619,193.416,45.747,3.034890,-4.282782,-4.282782,-7.317672,5.858493,nan,0.552607,-0.000431,1.489690,0.294536,0.971617,2.663529,1.117268,2.222691,1.849638,66.000000,-14.000000,80.000000,52.000000,640.62530256,0.000000,0.00000000,10.55952042,0.000000,329.64060946,294.68535357,1.64823129,0.00000000,3.94876527,0.13675400,0.00492339,0.00114517,8.12688578,0.04109859,0.02482324,0.01624522,0.00834735,3.42271532,4.05068893,0.56296712,0.00342488,0.01241162,0.00649809,0.01669471,11.25934243,2.02534446,4.27839416
12.500,2,1,1,-527.453,193.451,45.584,2.591126,-4.341993,-4.341993,-6.933120,-9.067057,nan,0.580339,0.165774,0.415394,0.176142,0.968062,2.774057,-0.272155,2.523603,1.858310,66.000000,-2.000000,68.000000,64.000000,633.77698411,0.000000,0.00000000,9.83642149,0.000000,326.98234834,292.05496879,0.72789636,0.00000000,4.03455695,0.13548865,0.00401525,0.00128828,8.13364499,0.04110766,0.02524650,0.01625708,0.00834837,3.42377285,4.05200922,0.56690330,0.00342564,0.01262325,0.00650283,0.01669674,11.33806609,2.02600461,4.27971606
12.600,2,1,1,-527.388,193.464,45.520,2.342058,-4.364220,-4.364220,-6.706278,-9.095705,nan,0.615173,0.256403,1.031324,0.157515,0.964339,2.795399,0.401070,2.642795,1.867974,66.000000,-2.000000,68.000000,64.000000,630.74289445,0.000000,0.00000000,9.15381720,0.000000,325.83788368,290.87745595,0.67510720,0.00000000,4.05911239,0.13535227,0.00290056,0.00126520,8.14104689,0.04113167,0.02572218,0.01633802,0.00835082,3.42486795,4.05337653,0.57125973,0.00342764,0.01286109,0.00653521,0.01670164,11.42519463,2.02668826,4.28108493
12.700,2,1,1,-527.323,193.476,45.457,2.170563,-4.385838,-4.385838,-6.556401,6.846846,nan,0.620478,0.343681,0.888085,0.194089,0.960883,2.787899,-0.057296,2.727746,1.877346,66.000000,-14.000000,80.000000,52.000000,629.21201377,0.000000,0.00000000,8.86138725,0.000000,324.85501505,289.88721463,1.41254184,0.00000000,4.05339121,0.13651431,0.00499758,0.00095190,8.14852951,0.04117484,0.02619559,0.01639806,0.00835087,3.42591525,4.05468423,0.57581066,0.00343124,0.01309779,0.00655923,0.01670174,11.51621327,2.02734212,4.28239406
12.800,2,1,1,-527.260,193.488,45.394,2.008806,-4.406890,-4.406890,-6.415696,7.648987,nan,0.637774,0.428868,1.231859,0.263931,0.957750,2.752403,-1.074296,2.769488,1.886097,66.000000,-14.000000,80.000000,52.000000,626.63054853,0.000000,0.00000000,8.42079855,0.000000,323.76216402,288.77545069,1.48300358,0.00000000,4.04801221,0.13639971,0.00381687,0.00090289,8.15599853,0.04124206,0.02665710,0.01651362,0.00836845,3.42691826,4.05593668,0.58036236,0.00343684,0.01332855,0.00660545,0.01673689,11.60724723,2.02796834,4.28364782
12.900,2,1,1,-527.196,193.500,45.332,1.778838,-4.427520,-4.427520,-6.206357,-9.955142,nan,0.639306,0.508659,1.045648,0.343622,0.954972,2.690627,-0.716197,2.768033,1.893957,66.000000,-2.000000,68.000000,64.000000,622.82862295,0.000000,0.00000000,7.56677157,0.000000,322.72976448,287.73524368,0.60815277,0.00000000,4.04796005,0.13525072,0.00411941,0.00136027,8.16309948,0.04133669,0.02709836,0.01659692,0.00837626,3.42785738,4.05710944,0.58472442,0.00344472,0.01354918,0.00663877,0.01675252,11.69448838,2.02855472,4.28482173
13.101,2,1,1,-527.196,193.500,45.332,1.778838,-4.427520,-4.427520,-6.206357,-9.955142,nan,0.639306,0.508659,1.045648,0.343622,0.949505,2.690627,-0.716197,2.768033,1.909264,66.000000,0.000000,66.000000,66.000000,622.75022067,0.000000,0.00000000,7.56212990,0.000000,322.72869997,287.73406906,0.53818842,0.00000000,4.04796005,0.13517849,0.00293365,0.00106115,8.17734683,0.04152664,0.02798421,0.01676416,0.00839195,3.42974271,4.05946379,0.59347336,0.00346055,0.01399210,0.00670566,0.01678391,11.86946726,2.02973190,4.28717838
13.200,2,1,1,-527.010,193.532,45.148,1.266349,-4.486827,-4.486827,-5.753176,6.689282,nan,0.694706,0.721462,1.561310,0.533075,0.947938,2.358712,-2.148592,2.641611,1.913180,66.000000,-12.000000,78.000000,54.000000,616.94313062,0.000000,0.00000000,7.44154201,0.000000,319.56813622,284.56916608,1.23975269,0.00000000,3.98340487,0.13564148,0.00477967,0.00070760,8.18438202,0.04171520,0.02832010,0.01694813,0.00846163,3.43054204,4.06046212,0.59793280,0.00347627,0.01416005,0.00677925,0.01692326,11.95865599,2.03023106,4.28817755
13.300,2,1,1,-526.948,193.542,45.088,1.074325,-4.505825,-4.505825,-5.580150,-9.124353,nan,0.657978,0.774661,0.343775,0.619517,0.946707,2.206528,-1.532662,2.530223,1.915646,66.000000,0.000000,66.000000,66.000000,613.58449399,0.000000,0.00000000,6.64390755,0.000000,318.72895755,283.74874158,0.43211926,0.00000000,3.89085396,0.13492506,0.00410783,0.00088119,8.19100621,0.04193458,0.02861676,0.01695713,0.00849742,3.43130095,4.06141001,0.60228935,0.00349455,0.01430838,0.00678285,0.01699483,12.04578705,2.03070500,4.28912619
13.400,2,1,1,-526.887,193.552,45.028,0.959574,-4.524655,-4.524655,-5.484229,6.402803,nan,0.653890,0.815889,1.360775,0.689711,0.945762,2.050436,-2.291831,2.404829,1.916728,66.000000,-12.000000,78.000000,54.000000,612.31073944,0.000000,0.00000000,6.63435859,0.000000,317.82227972,282.85388246,1.05975838,0.00000000,3.79919452,0.13580625,0.00479449,0.00066504,8.19788073,0.04217811,0.02887311,0.01709826,0.00857748,3.43203450,4.06232625,0.60679302,0.00351484,0.01443656,0.00683930,0.01715496,12.13586031,2.03116312,4.29004313
13.500,2,1,1,-526.826,193.562,44.968,0.763051,-4.543197,-4.543197,-5.306249,5.801198,nan,0.629316,0.852872,0.458366,0.759439,0.945083,1.852124,-1.575634,2.231426,1.916240,66.000000,-14.000000,80.000000,52.000000,609.85506541,0.000000,0.00000000,6.14989598,0.000000,317.03655886,282.09763921,0.76843322,0.00000000,3.66116800,0.13630672,0.00426191,0.00080152,8.20449841,0.04244375,0.02908190,0.01711425,0.00861526,3.43272001,4.06318252,0.61134073,0.00353698,0.01454095,0.00684570,0.01723051,12.22681451,2.03159126,4.29090001
