t,controller_id,state_code,wp_idx,x,y,dist,yaw_deg,yaw_to_wp_deg,yaw_ref_deg,yaw_err_deg,yaw_rate_deg_s,speed_ref,speed_meas,roll_deg,roll_rate_deg_s,roll_rms_window_deg,roll_rms_total_deg,pitch_deg,pitch_rate_deg_s,pitch_rms_window_deg,pitch_rms_total_deg,base_cmd,diff_cmd,T_left,T_right,J_inst,J_goal,J_wave_roll,J_progress,J_smooth,J_mpc_distance,J_mpc_final,J_mpc_heading,J_mpc_wrong_way,J_mpc_pitch,J_mpc_control,J_mpc_slew,J_mpc_turn,J_total,J_roll,J_pitch,J_roll_rate,J_pitch_rate,J_goal_heading,J_no_progress,J_control,I_roll,I_pitch,I_roll_rate,I_pitch_rate,I_control,I_no_progress,I_goal_heading
0.200,2,1,1,-532.003,189.997,50.003,57.312862,0.003989,0.003989,-57.308872,1.074296,nan,0.000000,-1.437490,1.088620,1.460639,0.000000,-0.901163,-1.618606,0.742460,0.000000,2.500000,-9.500000,12.000000,-7.000000,1059.28223938,0.000000,0.00000000,65.26116458,0.000000,420.68266257,388.52345807,182.65463363,0.00002007,1.94306297,0.14256031,0.02575692,0.04892027,0.00000000,0.00000000,0.00000000,0.00000000,0.00000000,0.00000000,0.00000000,0.00000000,0.00000000,0.00000000,0.00000000,0.00000000,0.00000000,0.00000000,0.00000000
0.504,2,1,1,-532.003,189.997,50.003,57.312862,0.003989,0.003989,-57.308872,1.074296,nan,0.000000,-1.437490,1.088620,1.460639,1.437490,-0.901163,-1.618606,0.742460,0.901163,2.500000,-21.500000,24.000000,-19.000000,1008.28611883,0.000000,0.00000000,52.40508492,0.000000,420.09793798,387.76628091,145.84799511,0.00000522,1.94973734,0.14356476,0.02638328,0.04912932,0.52667919,0.00229402,0.00015026,0.00027409,0.00012119,0.24307502,0.27934175,0.00142286,0.00019117,0.00007513,0.00010964,0.00024238,0.02845716,0.13967087,0.30384378
0.600,2,1,1,-532.001,189.996,50.001,57.213059,0.004291,0.004291,-57.208768,0.243507,nan,0.014953,-1.070390,1.876437,1.345987,1.358226,-0.610175,3.495043,0.771673,0.840380,8.000000,-28.000000,36.000000,-20.000000,982.26201028,0.000000,0.00000000,44.67875611,0.000000,418.73675812,385.98978549,130.73154472,0.00003997,1.91446196,0.14285600,0.01902967,0.04877824,0.69341488,0.00269724,0.00017210,0.00053225,0.00030031,0.31986212,0.36761158,0.00223928,0.00022477,0.00008605,0.00021290,0.00060062,0.04478558,0.18380579,0.39982766
0.700,2,1,1,-531.998,189.999,49.998,57.132627,0.001346,0.001346,-57.131280,-0.386747,nan,0.027167,-0.904864,1.260507,1.267508,1.280461,-0.409139,1.690225,0.726567,0.773609,14.000000,-34.000000,48.000000,-20.000000,960.67277694,0.000000,0.00000000,38.82792678,0.000000,417.19609978,383.98192154,118.53079194,0.00008425,1.92829054,0.14360122,0.01474951,0.04931139,0.86622948,0.00299652,0.00018230,0.00065324,0.00034382,0.39939904,0.45906336,0.00359120,0.00024971,0.00009115,0.00026130,0.00068764,0.07182409,0.22953168,0.49924880
0.800,2,1,1,-531.995,190.001,49.995,57.013411,-0.001391,-0.001391,-57.014802,-0.902409,nan,0.031095,-0.734664,1.890761,1.129278,1.206745,-0.261199,1.174563,0.669555,0.714197,20.000000,-40.000000,60.000000,-20.000000,942.58959582,0.000000,0.00000000,34.99979485,0.000000,415.73220982,382.10968072,107.60242693,0.00009408,1.93612665,0.14582031,0.01292032,0.05052214,1.03909239,0.00319385,0.00018645,0.00092555,0.00036484,0.47863254,0.55019754,0.00559161,0.00026615,0.00009323,0.00037022,0.00072967,0.11183228,0.27509877,0.59829068
0.900,2,1,1,-531.992,190.004,49.992,56.850109,-0.004661,-0.004661,-56.854770,-1.088620,nan,0.035924,-0.540960,2.392099,0.958240,1.135761,-0.123268,2.162916,0.539992,0.662841,26.000000,-46.000000,72.000000,-20.000000,926.87390726,0.000000,0.00000000,31.96112241,0.000000,414.27002938,380.25978321,98.26358359,0.00007126,1.90402367,0.14948820,0.01349087,0.05231466,1.21198092,0.00330086,0.00018738,0.00136147,0.00043611,0.55743357,0.64087693,0.00838460,0.00027507,0.00009369,0.00054459,0.00087223,0.16769200,0.32043846,0.69679196
1.120,2,1,1,-531.992,190.004,49.992,56.850109,-0.004661,-0.004661,-56.854770,-1.088620,nan,0.035924,-0.540960,2.392099,0.958240,1.025576,-0.123268,2.162916,0.539992,0.581440,32.000000,-52.000000,84.000000,-20.000000,914.69544503,0.000000,0.00000000,29.74025891,0.000000,413.05034717,378.72744146,91.01212277,0.00004018,1.94053875,0.15428039,0.01548105,0.05493434,1.59356025,0.00353577,0.00018941,0.00231840,0.00059258,0.73041712,0.83993580,0.01657117,0.00029465,0.00009471,0.00092736,0.00118517,0.33142347,0.41996790,0.91302140
1.200,2,1,1,-531.977,190.022,49.977,56.069418,-0.025730,-0.025730,-56.095148,-1.704549,nan,0.072277,0.175101,2.535338,0.656939,0.984765,0.464643,2.993704,0.339900,0.572936,38.000000,-58.000000,96.000000,-20.000000,898.45929835,0.000000,0.00000000,26.72470173,0.000000,411.60839741,377.05348252,80.90953639,0.00000000,1.92858936,0.15915167,0.01626993,0.05916935,1.73060675,0.00354477,0.00019998,0.00271169,0.00070225,0.79202570,0.91098831,0.02043405,0.00029540,0.00009999,0.00108467,0.00140451,0.40868091,0.45549416,0.99003212
1.300,2,1,1,-531.971,190.033,49.971,55.712111,-0.037359,-0.037359,-55.749470,-3.695578,nan,0.095639,0.402594,2.664254,0.495128,0.946732,0.690386,3.523690,0.376018,0.584595,40.000000,-60.000000,100.000000,-20.000000,891.70450062,0.000000,0.00000000,25.93573958,0.000000,410.98624046,376.38668766,76.07622369,0.00000000,2.07823392,0.16144869,0.01674705,0.06317957,1.89988690,0.00360405,0.00022903,0.00325252,0.00089146,0.86780370,0.99846949,0.02563664,0.00030034,0.00011452,0.00130101,0.00178292,0.51273288,0.49923475,1.08475463
1.400,2,1,1,-531.963,190.045,49.963,55.302591,-0.051857,-0.051857,-55.354448,-4.068000,nan,0.118707,0.626180,2.291831,0.406517,0.924281,0.940447,3.838817,0.520585,0.622064,40.000000,-60.000000,100.000000,-20.000000,890.27513742,0.000000,0.00000000,26.62222183,0.000000,410.67035919,376.10622209,74.39963005,0.00000000,2.23559532,0.16112753,0.01682086,0.06316055,2.06683507,0.00374734,0.00028290,0.00365241,0.00111585,0.94245442,1.08474689,0.03083526,0.00031228,0.00014145,0.00146096,0.00223170,0.61670515,0.54237344,1.17806802
1.500,2,1,1,-531.954,190.060,49.954,54.845180,-0.069387,-0.069387,-54.914567,-4.311507,nan,0.146221,0.853204,2.893437,0.460173,0.919005,1.224041,3.380451,0.727950,0.687393,40.000000,-60.000000,100.000000,-20.000000,889.49929714,0.000000,0.00000000,28.01200675,0.000000,410.30566410,375.78274520,72.74239584,0.00000000,2.41580538,0.16074793,0.01693533,0.06299660,2.23185727,0.00401364,0.00037425,0.00429045,0.00129003,1.01599829,1.16985143,0.03603917,0.00033447,0.00018712,0.00171618,0.00258007,0.72078341,0.58492572,1.26999787
1.708,2,1,1,-531.954,190.060,49.954,54.845180,-0.069387,-0.069387,-54.914567,-4.311507,nan,0.146221,0.853204,2.893437,0.460173,0.910204,1.224041,3.380451,0.727950,0.783661,40.000000,-60.000000,100.000000,-20.000000,889.49929714,0.000000,0.00000000,28.01200675,0.000000,410.30566410,375.78274520,72.74239584,0.00000000,2.41580538,0.16074793,0.01693533,0.06299660,2.57523032,0.00456774,0.00056433,0.00561807,0.00165246,1.16902609,1.34693431,0.04686731,0.00038065,0.00028216,0.00224723,0.00330493,0.93734620,0.67346716,1.46128262
1.800,2,1,1,-531.923,190.118,49.923,53.426961,-0.135778,-0.135778,-53.562740,-4.741226,nan,0.147330,1.383511,1.375099,0.877138,0.943776,1.919274,3.051000,1.260861,0.888880,40.000000,-60.000000,100.000000,-20.000000,885.42034535,0.000000,0.00000000,29.13089307,0.000000,409.74209428,375.34086113,68.12888421,0.00000000,2.83716664,0.16069942,0.01751144,0.06223515,2.71974596,0.00520960,0.00077020,0.00575017,0.00178252,1.23316243,1.42143353,0.05163752,0.00043413,0.00038510,0.00230007,0.00356505,1.03275034,0.71071676,1.54145304
1.900,2,1,1,-531.913,190.140,49.913,52.839353,-0.160992,-0.160992,-53.000344,-5.428775,nan,0.182062,1.529413,2.664254,1.106421,0.987906,2.088502,2.320479,1.552869,1.000162,40.500000,-59.500000,100.000000,-19.000000,887.12608206,0.000000,0.00000000,33.23560283,0.000000,409.40598379,375.17281493,66.11555812,0.00000000,2.95723075,0.15994764,0.01724342,0.06170057,2.87485551,0.00606515,0.00103609,0.00629106,0.00186458,1.30165811,1.50111938,0.05682113,0.00050543,0.00051805,0.00251642,0.00372917,1.13642265,0.75055969,1.62707264
2.000,2,1,1,-531.907,190.152,49.908,52.276423,-0.174744,-0.174744,-52.451167,-5.657958,nan,0.193547,1.646102,2.406423,1.294488,1.035478,2.225379,2.234535,1.791266,1.104418,40.500000,-59.500000,100.000000,-19.000000,886.91069041,0.000000,0.00000000,34.84576287,0.000000,409.27335364,375.13142570,64.37478452,0.00000000,3.04657857,0.15982038,0.01747975,0.06148498,3.02690830,0.00705503,0.00133762,0.00673179,0.00194059,1.36866050,1.57918429,0.06199847,0.00058792,0.00066881,0.00269272,0.00388118,1.23996950,0.78959215,1.71082562
2.100,2,1,1,-531.896,190.177,49.897,51.643988,-0.202689,-0.202689,-51.846676,-5.600662,nan,0.253106,1.753407,0.916732,1.482297,1.085201,2.379261,1.876437,2.031319,1.205666,43.500000,-56.500000,100.000000,-13.000000,890.81944395,0.000000,0.00000000,40.75120250,0.000000,408.53074541,374.52572172,63.59693758,0.00000000,3.18682954,0.15689157,0.01448574,0.05662989,3.17563290,0.00817963,0.00168274,0.00679583,0.00199425,1.43421163,1.65568240,0.06708641,0.00068164,0.00084137,0.00271833,0.00398851,1.34172828,0.82784120,1.79276454
2.311,2,1,1,-531.896,190.177,49.897,51.643988,-0.202689,-0.202689,-51.846676,-5.600662,nan,0.253106,1.753407,0.916732,1.482297,1.169197,2.379261,1.876437,2.031319,1.368814,43.500000,-56.500000,100.000000,-13.000000,890.81929995,0.000000,0.00000000,40.75120250,0.000000,408.53074541,374.52572172,63.59693758,0.00000000,3.18682954,0.15689157,0.01434174,0.05662989,3.48882955,0.01054789,0.00240951,0.00693070,0.00210726,1.57225468,1.81677850,0.07780102,0.00087899,0.00120475,0.00277228,0.00421453,1.55602040,0.90838925,1.96531834
2.400,2,1,1,-531.862,190.259,49.862,49.659887,-0.298044,-0.298044,-49.957931,-6.087677,nan,0.346788,1.872661,0.329451,1.705451,1.205740,2.755570,0.601606,2.380144,1.451078,43.500000,-56.500000,100.000000,-13.000000,893.66997494,0.000000,0.00000000,49.97262195,0.000000,407.81889441,374.32485132,57.86911283,0.00000000,3.45789092,0.15608305,0.01491888,0.05560158,3.61285563,0.01169174,0.00282229,0.00693808,0.00211218,1.62652609,1.88042725,0.08233799,0.00097431,0.00141115,0.00277523,0.00422436,1.64675978,0.94021363,2.03315762
2.500,2,1,1,-531.850,190.289,49.851,48.978263,-0.332389,-0.332389,-49.310652,-7.219268,nan,0.362715,1.850591,-0.071620,1.786497,1.240758,2.788135,0.458366,2.541564,1.533625,47.750000,-52.250000,100.000000,-4.500000,897.51035909,0.000000,0.00000000,56.20685576,0.000000,407.11295584,373.81689726,56.62383703,0.00000000,3.53439379,0.15308993,0.01198287,0.05034661,3.74842952,0.01294334,0.00329579,0.00693847,0.00211538,1.68576860,1.95002090,0.08734704,0.00107861,0.00164790,0.00277539,0.00423076,1.74694088,0.97501045,2.10721075
2.600,2,1,1,-531.839,190.320,49.840,48.290775,-0.367694,-0.367694,-48.658469,-6.517395,nan,0.376237,1.802018,0.544310,1.831386,1.269111,2.776104,-0.544310,2.668310,1.604723,47.750000,-52.250000,100.000000,-4.500000,902.52910965,0.000000,0.00000000,62.36287026,0.000000,407.03227922,374.07717918,55.29903958,0.00000000,3.54415776,0.15266270,0.01166862,0.04925233,3.88072374,0.01413045,0.00376535,0.00696103,0.00211989,1.74347177,2.01791763,0.09235761,0.00117754,0.00188268,0.00278441,0.00423979,1.84715216,1.00895882,2.17933971
2.700,2,1,1,-531.828,190.352,49.829,47.602610,-0.404186,-0.404186,-48.006796,-6.059029,nan,0.390533,1.727928,-0.429718,1.835558,1.290591,2.727425,-0.214859,2.746591,1.664214,47.750000,-52.250000,100.000000,-4.500000,906.85880874,0.000000,0.00000000,68.01521082,0.000000,406.95432222,374.32532813,53.81063180,0.00000000,3.54094173,0.15230158,0.01169854,0.04837391,4.00959838,0.01522144,0.00421838,0.00697509,0.00212060,1.79961325,2.08408381,0.09736582,0.00126845,0.00210919,0.00279003,0.00424119,1.94731630,1.04204190,2.24951657
2.800,2,1,1,-531.816,190.384,49.818,46.913929,-0.441907,-0.441907,-47.355836,-5.944437,nan,0.396103,1.626545,-0.028648,1.794008,1.305109,2.644535,-0.802141,2.749454,1.712318,47.750000,-52.250000,100.000000,-4.500000,909.84099080,0.000000,0.00000000,72.55454905,0.000000,406.88099104,374.53255679,52.10760078,0.00000000,3.55360751,0.15207883,0.01181378,0.04779303,4.13514624,0.01618833,0.00464436,0.00697515,0.00213040,1.85425176,2.14858138,0.10237487,0.00134903,0.00232218,0.00279006,0.00426079,2.04749737,1.07429069,2.31781470
3.039,2,1,1,-531.816,190.384,49.818,46.913929,-0.441907,-0.441907,-47.355836,-5.944437,nan,0.396103,1.626545,-0.028648,1.794008,1.335152,2.644535,-0.802141,2.749454,1.809396,47.750000,-52.250000,100.000000,-4.500000,909.84099080,0.000000,0.00000000,72.55454905,0.000000,406.88099104,374.53255679,52.10760078,0.00000000,3.55360751,0.15207883,0.01181378,0.04779303,4.43523317,0.01849940,0.00566255,0.00697530,0.00215381,1.98484978,2.30274472,0.11434760,0.00154162,0.00283128,0.00279012,0.00430763,2.28695209,1.15137236,2.48106223
3.100,2,1,1,-531.781,190.488,49.784,44.844887,-0.561546,-0.561546,-45.406432,-5.858493,nan,0.311004,1.181667,-1.389423,1.629067,1.332104,2.188725,-1.675902,2.616245,1.818194,49.875000,-50.125000,100.000000,-0.250000,896.87232449,0.000000,0.00000000,66.14526860,0.000000,406.01324013,373.37725027,47.66936384,0.00000000,3.46096451,0.15162026,0.01098218,0.04363471,4.50591743,0.01881090,0.00584067,0.00706502,0.00217992,2.01551282,2.33910903,0.11739907,0.00156757,0.00292033,0.00282601,0.00435984,2.34798140,1.16955452,2.51939103
3.200,2,1,1,-531.769,190.524,49.772,44.155493,-0.603332,-0.603332,-44.758825,-5.944437,nan,0.362642,1.000786,-0.601606,1.473329,1.322398,1.981610,-2.492366,2.465953,1.823878,50.937500,-49.062500,100.000000,1.875000,902.29779327,0.000000,0.00000000,72.99024691,0.000000,405.83956927,373.57361752,46.30085815,0.00000000,3.39029380,0.15079561,0.01044235,0.04196967,4.61845376,0.01917702,0.00607990,0.00709258,0.00227454,2.06433415,2.39709465,0.12240091,0.00159809,0.00303995,0.00283703,0.00454907,2.44801829,1.19854732,2.58041769
3.300,2,1,1,-531.757,190.561,49.760,43.469504,-0.646034,-0.646034,-44.115538,-6.589015,nan,0.411379,0.808249,-1.675902,1.285656,1.308972,1.747464,-2.205888,2.271350,1.821463,51.469000,-48.531000,100.000000,2.938000,907.05936037,0.000000,0.00000000,79.65598053,0.000000,405.68179748,373.80543188,44.42611640,0.00000000,3.28804746,0.15021888,0.01036168,0.04140606,4.72797961,0.01941575,0.00626589,0.00730641,0.00234863,2.11174796,2.45349116,0.12740381,0.00161798,0.00313294,0.00292257,0.00469725,2.54807625,1.22674558,2.63968495
3.400,2,1,1,-531.743,190.599,49.747,42.787920,-0.689488,-0.689488,-43.477408,-5.973085,nan,0.434440,0.610855,-0.272155,1.063733,1.292873,1.482055,-1.747521,2.030106,1.811818,51.734500,-48.265500,100.000000,3.469000,910.65328332,0.000000,0.00000000,84.51700645,0.000000,405.53219244,373.94163856,43.31594628,0.00000000,3.14630601,0.14978421,0.01023318,0.04017619,4.83425476,0.01955216,0.00639972,0.00731206,0.00239514,2.15781774,2.50836759,0.13241034,0.00162935,0.00319986,0.00292482,0.00479029,2.64820677,1.25418380,2.69727218
3.500,2,1,1,-531.730,190.637,49.734,42.110877,-0.733558,-0.733558,-42.844435,-5.543367,nan,0.439087,0.410192,-1.145916,0.879691,1.275132,1.186703,-2.635606,1.802130,1.796073,51.867000,-48.133000,100.000000,3.734000,911.91938468,0.000000,0.00000000,87.34102910,0.000000,405.35364705,373.94551268,42.07459023,0.00000000,3.00557173,0.14955403,0.01021474,0.03926512,4.93771894,0.01961367,0.00648553,0.00741207,0.00250096,2.20255610,2.56173276,0.13741785,0.00163447,0.00324276,0.00296483,0.00500191,2.74835693,1.28086638,2.75319513
3.712,2,1,1,-531.730,190.637,49.734,42.110877,-0.733558,-0.733558,-42.844435,-5.543367,nan,0.439087,0.410192,-1.145916,0.879691,1.240086,1.186703,-2.635606,1.802130,1.765210,51.933500,-48.066500,100.000000,3.867000,911.91226589,0.000000,0.00000000,87.33438695,0.000000,405.34481117,373.93423609,42.09386050,0.00000000,3.00607555,0.14952701,0.01018107,0.03918754,5.15745064,0.01974431,0.00666775,0.00762446,0.00272567,2.29756859,2.67506632,0.14805355,0.00164536,0.00333388,0.00304978,0.00545134,2.96107091,1.33753316,2.87196073
3.800,2,1,1,-531.684,190.755,49.690,40.103999,-0.870166,-0.870166,-40.974166,-6.517395,nan,0.470732,-0.201762,-1.274831,0.555858,1.225310,0.233759,-2.435071,1.290508,1.743983,57.933500,-42.066500,100.000000,15.867000,906.78828615,0.000000,0.00000000,88.62472372,0.000000,403.70370551,372.28027221,39.26573054,0.00000000,2.72439167,0.14789933,0.00867434,0.03288884,5.24090549,0.01975734,0.00667067,0.00773288,0.00280478,2.33340779,2.71798832,0.15254371,0.00164645,0.00333534,0.00309315,0.00560957,3.05087411,1.35899416,2.91675973
3.900,2,1,1,-531.667,190.795,49.674,39.444988,-0.917259,-0.917259,-40.362248,-5.256888,nan,0.472889,-0.394210,-2.119944,0.407349,1.210372,-0.077470,-1.948057,0.969074,1.720296,56.466500,-43.533500,100.000000,12.933000,906.53511323,0.000000,0.00000000,90.09930419,0.000000,403.56718136,372.28129517,37.89068014,0.00000000,2.50755574,0.14769104,0.00893553,0.03247006,5.33377371,0.01981416,0.00667104,0.00807520,0.00286260,2.37311677,2.76560552,0.15762843,0.00165118,0.00333552,0.00323008,0.00572519,3.15256860,1.38280276,2.96639596
4.000,2,1,1,-531.649,190.836,49.656,38.796726,-0.965056,-0.965056,-39.761782,-7.047381,nan,0.480895,-0.570093,-1.346451,0.348968,1.197918,-0.386297,-1.102944,0.645711,1.698671,56.466000,-43.534000,100.000000,12.932000,903.07401696,0.000000,0.00000000,90.26748838,0.000000,403.11462849,371.88568626,35.31676146,0.00000000,2.29936793,0.14759794,0.00919998,0.03328653,5.42390556,0.01993293,0.00668012,0.00821323,0.00288112,2.41163528,2.81185207,0.16271080,0.00166108,0.00334006,0.00328529,0.00576224,3.25421595,1.40592603,3.01454410
4.100,2,1,1,-531.629,190.878,49.637,38.156414,-1.013435,-1.013435,-39.169848,-6.159296,nan,0.493111,-0.731571,-1.518338,0.419687,1.188250,-0.688887,-2.048324,0.403891,1.680379,56.466000,-43.534000,100.000000,12.932000,901.88020429,0.000000,0.00000000,90.74038685,0.000000,402.65192694,371.45409858,34.50952348,0.00000000,2.33546140,0.14732677,0.00918495,0.03229532,5.51177483,0.02012854,0.00670903,0.00838877,0.00294501,2.44901942,2.85679035,0.16779370,0.00167738,0.00335452,0.00335551,0.00589003,3.35587401,1.42839517,3.06127428
4.200,2,1,1,-531.608,190.920,49.616,37.522978,-1.062471,-1.062471,-38.585448,-5.428775,nan,0.507659,-0.882860,-1.504014,0.568381,1.181578,-0.977745,-1.976704,0.507682,1.666430,56.466000,-43.534000,100.000000,12.932000,900.44282611,0.000000,0.00000000,90.97964583,0.000000,402.13992974,370.95939395,33.63917188,0.00000000,2.53700948,0.14705191,0.00918854,0.03143479,5.59736704,0.02041342,0.00676727,0.00856101,0.00300452,2.48529612,2.90044813,0.17287657,0.00170112,0.00338363,0.00342440,0.00600903,3.45753139,1.45022407,3.10662016
4.406,2,1,1,-531.608,190.920,49.616,37.522978,-1.062471,-1.062471,-38.585448,-5.428775,nan,0.507659,-0.882860,-1.504014,0.568381,1.168750,-0.977745,-1.976704,0.507682,1.639499,56.466000,-43.534000,100.000000,12.932000,900.44282611,0.000000,0.00000000,90.97964583,0.000000,402.13992974,370.95939395,33.63917188,0.00000000,2.53700948,0.14705191,0.00918854,0.03143479,5.77338181,0.02099925,0.00688702,0.00891521,0.00312688,2.55989679,2.99022751,0.18332916,0.00174994,0.00344351,0.00356608,0.00625376,3.66658312,1.49511375,3.19987098
4.500,2,1,1,-531.536,191.049,49.547,35.654618,-1.213501,-1.213501,-36.868119,-4.669606,nan,0.499436,-1.236839,-1.231859,0.905082,1.170288,-1.688509,-1.131592,1.076484,1.640591,56.466000,-43.534000,100.000000,12.932000,890.58819236,0.000000,0.00000000,86.98573452,0.000000,400.66130135,369.31074835,30.43004696,0.00000000,3.01405932,0.14703830,0.00934739,0.02991615,5.84803460,0.02152719,0.00705101,0.00902431,0.00314530,2.59116976,3.02798838,0.18812865,0.00179393,0.00352550,0.00360973,0.00629059,3.76257301,1.51399419,3.23896220
4.600,2,1,1,-531.509,191.093,49.521,35.039861,-1.264833,-1.264833,-36.304695,-5.915789,nan,0.526353,-1.309767,-0.658901,1.056520,1.173641,-1.863163,-0.529986,1.356799,1.645982,60.500000,-39.500000,100.000000,21.000000,885.80560674,0.000000,0.00000000,85.50853049,0.000000,399.34315374,367.79780833,29.79441761,0.00000000,3.17978324,0.14629139,0.00862443,0.02699751,5.92505530,0.02215411,0.00726244,0.00905737,0.00314957,2.62328130,3.06680267,0.19334784,0.00184618,0.00363122,0.00362295,0.00629914,3.86695676,1.53340134,3.27910163
4.700,2,1,1,-531.481,191.137,49.494,34.430452,-1.316650,-1.316650,-35.747102,-4.941761,nan,0.545857,-1.366371,0.114592,1.185331,1.178267,-2.004326,-0.085944,1.608309,1.654789,60.500000,-39.500000,100.000000,21.000000,882.80265599,0.000000,0.00000000,84.59719043,0.000000,398.58107875,366.96796939,29.18544045,0.00000000,3.29058934,0.14594458,0.00835779,0.02608524,6.00002913,0.02283661,0.00750721,0.00905837,0.00314968,2.65442400,3.10448456,0.19856870,0.00190305,0.00375360,0.00362335,0.00629937,3.97137395,1.55224228,3.31803000
4.800,2,1,1,-531.451,191.182,49.465,33.829734,-1.369036,-1.369036,-35.198770,-6.216592,nan,0.559585,-1.405202,-0.057296,1.283820,1.183664,-2.109089,-0.572958,1.813904,1.665985,60.500000,-39.500000,100.000000,21.000000,877.54254561,0.000000,0.00000000,82.87896790,0.000000,397.75542462,366.05664891,27.29516847,0.00000000,3.37555605,0.14562988,0.00893362,0.02621616,6.07302091,0.02355853,0.00777826,0.00905862,0.00315469,2.68462157,3.14105919,0.20379007,0.00196321,0.00388913,0.00362345,0.00630937,4.07580132,1.57052959,3.35577696
5.008,2,1,1,-531.451,191.182,49.465,33.829734,-1.369036,-1.369036,-35.198770,-6.216592,nan,0.559585,-1.405202,-0.057296,1.283820,1.194103,-2.109089,-0.572958,1.813904,1.687573,60.500000,-39.500000,100.000000,21.000000,877.54254561,0.000000,0.00000000,82.87896790,0.000000,397.75542462,366.05664891,27.29516847,0.00000000,3.37555605,0.14562988,0.00893362,0.02621616,6.22488511,0.02506052,0.00834219,0.00905914,0.00316509,2.74744960,3.21715511,0.21465347,0.00208838,0.00417110,0.00362365,0.00633018,4.29306935,1.60857756,3.43431199
5.100,2,1,1,-531.350,191.317,49.368,32.137570,-1.529071,-1.529071,-33.666641,-5.715254,nan,0.504325,-1.397544,0.114592,1.374022,1.198238,-2.169885,1.962380,2.050621,1.697883,60.500000,-39.500000,100.000000,21.000000,863.96884904,0.000000,0.00000000,76.04450275,0.000000,395.88637120,363.86290014,24.59465109,0.00000000,3.40039128,0.14591683,0.00919062,0.02492513,6.28688515,0.02571681,0.00860588,0.00906006,0.00321901,2.77284029,3.24799074,0.21945237,0.00214307,0.00430294,0.00362402,0.00643801,4.38904749,1.62399537,3.46605036
5.200,2,1,1,-531.314,191.363,49.333,31.606243,-1.583250,-1.583250,-33.189492,-5.142296,nan,0.538447,-1.362693,0.243507,1.390208,1.201747,-2.113120,0.730521,2.110273,1.707175,63.250000,-36.750000,100.000000,26.500000,859.24024536,0.000000,0.00000000,74.04434487,0.000000,394.51516689,362.26552553,24.83441038,0.00000000,3.40409131,0.14568094,0.00826233,0.02276311,6.35265388,0.02639542,0.00887785,0.00906457,0.00322713,2.79967733,3.28060944,0.22480213,0.00219962,0.00443892,0.00362583,0.00645427,4.49604259,1.64030472,3.49959667
5.300,2,1,1,-531.275,191.409,49.296,31.034040,-1.637815,-1.637815,-32.671855,-6.144972,nan,0.558785,-1.311789,0.415394,1.386732,1.204001,-2.012797,1.690225,2.129822,1.713691,63.250000,-36.750000,100.000000,26.500000,853.24547902,0.000000,0.00000000,71.73055171,0.000000,393.48745042,361.10208100,23.31776563,0.00000000,3.43084627,0.14535225,0.00862610,0.02280564,6.41659081,0.02702439,0.00912465,0.00907771,0.00327064,2.82568858,3.31225196,0.23015287,0.00225203,0.00456233,0.00363108,0.00654128,4.60305741,1.65612598,3.53211072
5.400,2,1,1,-531.235,191.455,49.257,30.469427,-1.692714,-1.692714,-32.162141,-4.182592,nan,0.583315,-1.245279,0.358099,1.360368,1.204808,-1.874513,2.320479,2.096942,1.716925,63.250000,-36.750000,100.000000,26.500000,849.85449683,0.000000,0.00000000,70.43400673,0.000000,392.47969891,359.98082737,23.35952876,0.00000000,3.42550885,0.14497506,0.00837938,0.02157177,6.47868707,0.02759100,0.00933864,0.00908747,0.00335262,2.85088568,3.34292993,0.23550173,0.00229925,0.00466932,0.00363499,0.00670524,4.71003456,1.67146497,3.56360710
5.500,2,1,1,-531.194,191.501,49.217,29.911380,-1.747856,-1.747856,-31.659236,-5.500395,nan,0.602218,-1.162354,2.034000,1.313001,1.204019,-1.698941,2.592634,2.009845,1.716587,63.250000,-36.750000,100.000000,26.500000,843.95686925,0.000000,0.00000000,68.43221848,0.000000,391.40050237,358.78481514,21.78323187,0.00000000,3.38073844,0.14463923,0.00895605,0.02176768,6.53944135,0.02808591,0.00951485,0.00940320,0.00345521,2.87536259,3.37275549,0.24086409,0.00234049,0.00475743,0.00376128,0.00691043,4.81728181,1.68637774,3.59420324
5.706,2,1,1,-531.194,191.501,49.217,29.911380,-1.747856,-1.747856,-31.659236,-5.500395,nan,0.602218,-1.162354,2.034000,1.313001,1.202489,-1.698941,2.592634,2.009845,1.715931,63.250000,-36.750000,100.000000,26.500000,843.95686925,0.000000,0.00000000,68.43221848,0.000000,391.40050237,358.78481514,21.78323187,0.00000000,3.38073844,0.14463923,0.00895605,0.02176768,6.66407323,0.02910117,0.00987635,0.01005088,0.00366567,2.92557476,3.43393991,0.25186449,0.00242510,0.00493818,0.00402035,0.00733135,5.03728982,1.71696995,3.65696845
5.800,2,1,1,-531.059,191.640,49.087,28.333121,-1.914493,-1.914493,-30.247614,-4.841493,nan,0.527341,-0.863873,1.948057,1.158218,1.197577,-1.006843,3.580986,1.691202,1.706426,64.625000,-35.375000,100.000000,29.250000,830.39664162,0.000000,0.00000000,62.05005928,0.000000,388.98655287,356.05285619,19.98978272,0.00000000,3.14363006,0.14523798,0.00871043,0.01981208,6.71669280,0.02935855,0.00993462,0.01032354,0.00384995,2.94661076,3.45962985,0.25698553,0.00244655,0.00496731,0.00412942,0.00769990,5.13971069,1.72981492,3.68326345
5.900,2,1,1,-531.012,191.686,49.041,27.793560,-1.970316,-1.970316,-29.763876,-5.672282,nan,0.587185,-0.747492,1.461042,1.045480,1.191147,-0.713359,3.867465,1.447156,1.694027,65.312500,-34.687500,100.000000,30.625000,824.93608137,0.000000,0.00000000,60.62124966,0.000000,387.59690936,354.52937964,19.01289298,0.00000000,3.00239633,0.14481252,0.00891986,0.01952102,6.77076723,0.02956282,0.00996563,0.01048613,0.00407779,2.96820212,3.48601755,0.26245519,0.00246357,0.00498281,0.00419445,0.00815558,5.24910380,1.74300878,3.71025265
6.000,2,1,1,-530.963,191.732,48.993,27.259432,-2.026149,-2.026149,-29.285580,-4.755550,nan,0.626018,-0.624342,2.048324,0.917023,1.183675,-0.399747,4.454747,1.160789,1.680178,65.656000,-34.344000,100.000000,31.312000,820.60954793,0.000000,0.00000000,59.47244359,0.000000,386.31314999,353.12861137,18.70110861,0.00000000,2.82235368,0.14439080,0.00883611,0.01865378,6.82350070,0.02970533,0.00997536,0.01080569,0.00438009,2.98910537,3.51158268,0.26794619,0.00247544,0.00498768,0.00432228,0.00876017,5.35892372,1.75579134,3.73638171
6.100,2,1,1,-530.912,191.778,48.944,26.730951,-2.081934,-2.081934,-28.812884,-4.741226,nan,0.652054,-0.496091,2.392099,0.780084,1.175376,-0.070817,4.068000,0.846916,1.665903,65.828000,-34.172000,100.000000,31.656000,815.77949746,0.000000,0.00000000,58.16556906,0.000000,385.06596509,351.77561708,17.98510962,0.00000000,2.61593059,0.14401851,0.00903081,0.01825671,6.87477692,0.02979530,0.00997567,0.01124150,0.00463216,3.00933866,3.53634577,0.27344785,0.00248294,0.00498784,0.00449660,0.00926433,5.46895700,1.76817289,3.76167333
6.200,2,1,1,-530.861,191.824,48.895,26.207819,-2.137657,-2.137657,-28.345476,-5.414451,nan,0.669611,-0.366954,2.191564,0.663686,1.166504,0.268197,4.368803,0.607517,1.652327,65.914000,-34.086000,100.000000,31.828000,810.74019080,0.000000,0.00000000,56.77968084,0.000000,383.84849212,350.46251977,17.02048008,0.00000000,2.45769188,0.14370499,0.00942082,0.01820031,6.92454573,0.02984451,0.00998005,0.01160721,0.00492282,3.02891565,3.56032196,0.27895352,0.00248704,0.00499003,0.00464288,0.00984565,5.57907042,1.78016098,3.78614457
6.403,2,1,1,-530.861,191.824,48.895,26.207819,-2.137657,-2.137657,-28.345476,-5.414451,nan,0.669611,-0.366954,2.191564,0.663686,1.149188,0.268197,4.368803,0.607517,1.625807,65.957000,-34.043000,100.000000,31.914000,810.73651895,0.000000,0.00000000,56.77935743,0.000000,383.84281682,350.45549357,17.02957267,0.00000000,2.45797978,0.14371218,0.00940606,0.01818044,7.02553022,0.02994437,0.00998894,0.01234922,0.00551256,3.06863659,3.60896868,0.29012987,0.00249536,0.00499447,0.00493969,0.01102512,5.80259734,1.80448434,3.83579574
6.500,2,1,1,-530.700,191.959,48.740,24.665149,-2.304013,-2.304013,-26.969162,-4.454747,nan,0.562927,0.003917,1.231859,0.426410,1.140299,1.294509,3.423423,0.689993,1.621215,65.978500,-34.021500,100.000000,31.957000,799.06288001,0.000000,0.00000000,51.24694401,0.000000,381.48491675,347.91034136,15.33301504,0.00000000,2.91683255,0.14440956,0.00952913,0.01689160,7.06958756,0.02994437,0.01008806,0.01246141,0.00568585,3.08584419,3.63008396,0.29547972,0.00249536,0.00504403,0.00498457,0.01137171,5.90959431,1.81504198,3.85730524
6.600,2,1,1,-530.646,192.004,48.687,24.157994,-2.358942,-2.358942,-26.516936,-4.741226,nan,0.636237,0.121616,1.575634,0.302268,1.131462,1.624075,4.297183,0.958711,1.621260,65.989000,-34.011000,100.000000,31.978000,795.41579011,0.000000,0.00000000,50.90177066,0.000000,380.08461041,346.44588486,14.63238726,0.00000000,3.18065143,0.14382500,0.00991533,0.01674515,7.11388927,0.02994978,0.01024867,0.01265039,0.00596697,3.10297144,3.65111360,0.30098843,0.00249581,0.00512434,0.00506016,0.01193394,6.01976852,1.82555680,3.87871430
6.700,2,1,1,-530.590,192.048,48.633,23.653604,-2.413538,-2.413538,-26.067142,-4.784198,nan,0.667550,0.233320,1.403747,0.200318,1.123097,1.939071,3.151268,1.279578,1.626620,65.994500,-34.005500,100.000000,31.989000,791.77552048,0.000000,0.00000000,50.17406418,0.000000,378.83681982,345.13422042,14.03369508,0.00000000,3.42656259,0.14345917,0.01019610,0.01650312,7.15685893,0.02996968,0.01047777,0.01280047,0.00611824,3.11953218,3.67145992,0.30650069,0.00249747,0.00523889,0.00512019,0.01223648,6.13001372,1.83572996,3.89941522
6.800,2,1,1,-530.535,192.092,48.580,23.151574,-2.467783,-2.467783,-25.619356,-4.282860,nan,0.669776,0.336392,1.604282,0.176917,1.115324,2.234152,3.466395,1.606709,1.637508,65.997500,-34.002500,100.000000,31.995000,788.25852111,0.000000,0.00000000,49.14219317,0.000000,377.73556962,343.97045335,13.59183599,0.00000000,3.64888091,0.14327649,0.01028346,0.01602812,7.19875483,0.03001104,0.01078188,0.01299648,0.00630126,3.13552783,3.69112356,0.31201279,0.00250092,0.00539094,0.00519859,0.01260252,6.24025579,1.84556178,3.91940978
6.900,2,1,1,-530.479,192.135,48.526,22.651557,-2.521631,-2.521631,-25.173188,-3.595310,nan,0.684653,0.430245,1.389423,0.249495,1.108208,2.504572,3.237212,1.906839,1.653814,65.999000,-34.001000,100.000000,31.998000,785.31898224,0.000000,0.00000000,48.68217409,0.000000,376.60303985,342.80024186,13.20499073,0.00000000,3.85971139,0.14300264,0.01033872,0.01548296,7.23951045,0.03007879,0.01116452,0.01314367,0.00646107,3.15098936,3.71014157,0.31753147,0.00250657,0.00558226,0.00525747,0.01292213,6.35062947,1.85507079,3.93873670
7.113,2,1,1,-530.479,192.135,48.526,22.651557,-2.521631,-2.521631,-25.173188,-3.595310,nan,0.684653,0.430245,1.389423,0.249495,1.093651,2.504572,3.237212,1.906839,1.686364,65.999000,-34.001000,100.000000,31.998000,785.31898224,0.000000,0.00000000,48.68217409,0.000000,376.60303985,342.80024186,13.20499073,0.00000000,3.85971139,0.14300264,0.01033872,0.01548296,7.32598324,0.03022254,0.01197636,0.01345598,0.00680014,3.18379470,3.75049284,0.32924068,0.00251854,0.00598818,0.00538239,0.01360028,6.58481362,1.87524642,3.97974337
7.200,2,1,1,-530.312,192.262,48.365,21.160930,-2.680309,-2.680309,-23.841239,-3.924761,nan,0.570577,0.660870,0.315127,0.446728,1.089306,3.134829,2.793169,2.498497,1.712030,65.999000,-34.001000,100.000000,31.998000,775.30218001,0.000000,0.00000000,44.29628425,0.000000,374.37422033,340.48620116,11.72065830,0.00000000,4.25522407,0.14398454,0.01047321,0.01513416,7.35860785,0.03036212,0.01249982,0.01346259,0.00690403,3.19590540,3.76541404,0.33405984,0.00253018,0.00624991,0.00538504,0.01380806,6.68119679,1.88270702,3.99488175
7.300,2,1,1,-530.257,192.303,48.312,20.666435,-2.732217,-2.732217,-23.398652,-4.053676,nan,0.623598,0.717644,1.375099,0.544795,1.084956,3.276115,1.847789,2.787207,1.743826,65.999000,-34.001000,100.000000,31.998000,772.99289201,0.000000,0.00000000,44.55444415,0.000000,373.22710863,339.33894897,11.32305105,0.00000000,4.37994669,0.14369564,0.01060378,0.01509311,7.39494543,0.03055037,0.01315367,0.01360659,0.00695603,3.20924688,3.78186040,0.33957149,0.00254586,0.00657684,0.00544263,0.01391206,6.79142980,1.89093020,4.01155860
7.400,2,1,1,-530.202,192.344,48.259,20.172829,-2.783629,-2.783629,-22.956458,-4.153944,nan,0.647800,0.763223,0.401070,0.630897,1.081143,3.379224,1.690225,3.033282,1.776881,65.999000,-34.001000,100.000000,31.998000,770.70202424,0.000000,0.00000000,44.61617573,0.000000,372.18429873,338.29934417,10.96398443,0.00000000,4.46893042,0.14353921,0.01070847,0.01504308,7.43010878,0.03076333,0.01384946,0.01361884,0.00699955,3.22209124,3.79770220,0.34508416,0.00256361,0.00692473,0.00544754,0.01399910,6.90168320,1.89885110,4.02761404
7.500,2,1,1,-530.148,192.384,48.207,19.679995,-2.834519,-2.834519,-22.514514,-4.583662,nan,0.659389,0.798747,0.401070,0.701890,1.077775,3.442565,1.274831,3.224780,1.810080,66.000000,-28.000000,94.000000,38.000000,768.43555099,0.000000,0.00000000,44.69510517,0.000000,371.20894037,337.32192959,10.52417531,0.00000000,4.52479453,0.14074693,0.00791659,0.01194249,7.46383386,0.03099652,0.01457140,0.01363109,0.00702430,3.23444286,3.81294408,0.35022362,0.00258304,0.00728570,0.00545243,0.01404860,7.00447234,1.90647204,4.04305357
7.600,2,1,1,-530.094,192.424,48.155,19.190859,-2.884854,-2.884854,-22.075713,-4.712578,nan,0.668191,0.824585,1.074296,0.748731,1.074750,3.465301,1.604282,3.331608,1.842392,66.000000,-28.000000,94.000000,38.000000,766.04327254,0.000000,0.00000000,44.69920625,0.000000,370.25359558,336.37979988,10.00068468,0.00000000,4.54975037,0.14062741,0.00783372,0.01177465,7.49662441,0.03124510,0.01530310,0.01371899,0.00706351,3.24632071,3.82760863,0.35536437,0.00260376,0.00765155,0.00548760,0.01412701,7.10728744,1.91380431,4.05790089
7.794,2,1,1,-530.094,192.424,48.155,19.190859,-2.884854,-2.884854,-22.075713,-4.712578,nan,0.668191,0.824585,1.074296,0.748731,1.069079,3.465301,1.604282,3.331608,1.901267,66.000000,-28.000000,94.000000,38.000000,766.04327254,0.000000,0.00000000,44.69920625,0.000000,370.25359558,336.37979988,10.00068468,0.00000000,4.54975037,0.14062741,0.00783372,0.01177465,7.56033354,0.03172807,0.01672472,0.01388978,0.00713968,3.26939833,3.85610055,0.36535241,0.00264401,0.00836236,0.00555591,0.01427936,7.30704811,1.92805028,4.08674792
7.811,2,1,1,-530.068,192.442,48.130,18.654370,-2.908788,-2.908788,-21.563158,-4.698254,nan,0.536800,0.843802,1.461042,0.753299,1.068641,3.442393,0.501338,3.339725,1.905966,66.000000,-28.000000,94.000000,38.000000,761.98142482,0.000000,0.00000000,41.05939632,0.000000,370.40247161,336.43941544,9.45591050,0.00000000,4.46332888,0.14158785,0.00779490,0.01151932,7.56556084,0.03177110,0.01684408,0.01391666,0.00714031,3.27127171,3.85841477,0.36620221,0.00264759,0.00842204,0.00556666,0.01428062,7.32404420,1.92920738,4.08908964
7.900,2,1,1,-529.936,192.539,48.003,17.776791,-3.032169,-3.032169,-20.808960,-3.294507,nan,0.561301,0.850461,0.057296,0.815211,1.066371,3.291774,0.272155,3.401004,1.927715,66.000000,-28.000000,94.000000,38.000000,757.34990352,0.000000,0.00000000,41.20495074,0.000000,368.25250037,334.33656101,8.95738519,0.00000000,4.43863453,0.14146368,0.00775358,0.01065444,7.59200132,0.03200676,0.01743249,0.01391688,0.00714132,3.28067723,3.87004300,0.37078363,0.00266723,0.00871625,0.00556675,0.01428264,7.41567270,1.93502150,4.10084654
8.000,2,1,1,-529.884,192.577,47.953,17.319747,-3.080170,-3.080170,-20.399917,-4.540691,nan,0.594932,0.840447,0.358099,0.833465,1.063778,3.157129,-0.802141,3.367510,1.948392,66.000000,-28.000000,94.000000,38.000000,755.03173651,0.000000,0.00000000,41.31813209,0.000000,367.33313039,333.43966057,8.35676093,0.00000000,4.42349910,0.14138644,0.00822851,0.01093846,7.62071108,0.03226496,0.01803974,0.01392664,0.00715112,3.29081863,3.88258640,0.37592359,0.00268875,0.00901987,0.00557066,0.01430224,7.51847179,1.94129320,4.11352329
8.100,2,1,1,-529.832,192.614,47.904,16.868399,-3.127645,-3.127645,-19.996043,-4.211240,nan,0.610294,0.822877,-0.386747,0.840816,1.061070,2.987329,-1.074296,3.286276,1.964985,66.000000,-28.000000,94.000000,38.000000,753.00031739,0.000000,0.00000000,41.36203104,0.000000,366.47239908,332.59602280,8.03993128,0.00000000,4.36966711,0.14131135,0.00831488,0.01063984,7.64848171,0.03251256,0.01858362,0.01393804,0.00716870,3.30056597,3.89464741,0.38106541,0.00270938,0.00929181,0.00557522,0.01433740,7.62130810,1.94732370,4.12570746
8.200,2,1,1,-529.781,192.650,47.855,16.422039,-3.174601,-3.174601,-19.596640,-3.022352,nan,0.617335,0.799076,-0.100268,0.836476,1.058196,2.784988,-1.675902,3.161253,1.977331,66.000000,-28.000000,94.000000,38.000000,751.06417989,0.000000,0.00000000,41.35595626,0.000000,365.64257016,331.77983021,7.84420849,0.00000000,4.28217735,0.14122903,0.00818130,0.01002709,7.67530622,0.03274590,0.01905601,0.01393880,0.00721147,3.30992169,3.90622849,0.38620386,0.00272883,0.00952801,0.00557552,0.01442293,7.72407715,1.95311425,4.13740211
8.300,2,1,1,-529.731,192.686,47.806,15.980033,-3.221075,-3.221075,-19.201107,-4.254212,nan,0.613834,0.769050,0.300803,0.821545,1.055110,2.552992,-1.217535,3.003480,1.985454,66.000000,-28.000000,94.000000,38.000000,748.46694219,0.000000,0.00000000,40.91568593,0.000000,364.85118422,330.99446814,7.37933575,0.00000000,4.16596179,0.14133830,0.00863431,0.01033375,7.70119495,0.03296206,0.01945303,0.01394569,0.00723404,3.31890467,3.91735252,0.39134295,0.00274684,0.00972651,0.00557828,0.01446808,7.82685894,1.95867626,4.14863084
8.533,2,1,1,-529.731,192.686,47.806,15.980033,-3.221075,-3.221075,-19.201107,-4.254212,nan,0.613834,0.769050,0.300803,0.821545,1.048171,2.552992,-1.217535,3.003480,2.003515,66.000000,-28.000000,94.000000,38.000000,748.46694219,0.000000,0.00000000,40.91568593,0.000000,364.85118422,330.99446814,7.37933575,0.00000000,4.16596179,0.14133830,0.00863431,0.01033375,7.76154477,0.03346594,0.02037852,0.01396175,0.00728666,3.33984510,3.94328400,0.40332280,0.00278883,0.01018926,0.00558470,0.01457333,8.06645596,1.97164200,4.17480637
8.600,2,1,1,-529.606,192.774,47.687,14.761130,-3.334509,-3.334509,-18.095638,-3.351803,nan,0.489194,0.651024,-0.200535,0.769077,1.045602,1.773947,-3.194240,2.609399,2.001789,66.000000,-28.000000,94.000000,38.000000,741.02734200,0.000000,0.00000000,37.43304018,0.000000,363.44112084,329.53591964,6.63061769,0.00000000,3.82617918,0.14225493,0.00865034,0.00955921,7.77729164,0.03356968,0.02050689,0.01396380,0.00739072,3.34518833,3.94990770,0.40676451,0.00279747,0.01025345,0.00558552,0.01478144,8.13529019,1.97495385,4.18148541
8.700,2,1,1,-529.556,192.808,47.639,14.331218,-3.379559,-3.379559,-17.710777,-3.853141,nan,0.549142,0.599961,-0.830789,0.723998,1.041468,1.461491,-2.922085,2.300382,1.996282,66.000000,-28.000000,94.000000,38.000000,738.94664918,0.000000,0.00000000,37.68145867,0.000000,362.50688530,328.61513421,6.36325665,0.00000000,3.61920745,0.14209786,0.00898790,0.00962114,7.80000088,0.03370127,0.02063703,0.01401637,0.00752078,3.35283292,3.95938759,0.41190492,0.00280844,0.01031852,0.00560655,0.01504156,8.23809830,1.97969380,4.19104115
8.800,2,1,1,-529.505,192.843,47.590,13.903595,-3.424231,-3.424231,-17.327827,-3.394775,nan,0.591459,0.545693,-0.501338,0.671238,1.037067,1.138262,-2.635606,1.954182,1.988436,66.000000,-28.000000,94.000000,38.000000,736.90842318,0.000000,0.00000000,38.00165700,0.000000,361.55476100,327.67488324,6.13090656,0.00000000,3.38597899,0.14185449,0.00907456,0.00930733,7.82184241,0.03381010,0.02071595,0.01403551,0.00762656,3.36014826,3.96846229,0.41704375,0.00281751,0.01035797,0.00561420,0.01525312,8.34087503,1.98423114,4.20018532
8.900,2,1,1,-529.455,192.876,47.542,13.477972,-3.468558,-3.468558,-16.946531,-3.366127,nan,0.605193,0.488077,0.200535,0.610800,1.032415,0.808986,-2.392099,1.566161,1.978874,66.000000,-28.000000,94.000000,38.000000,734.48564277,0.000000,0.00000000,37.83051147,0.000000,360.67589090,326.79412808,5.91005030,0.00000000,3.11487013,0.14176963,0.00925286,0.00916939,7.84288845,0.03389720,0.02075583,0.01403857,0.00771373,3.36714871,3.97714924,0.42218517,0.00282477,0.01037792,0.00561543,0.01542747,8.44370331,1.98857462,4.20893588
9.102,2,1,1,-529.455,192.876,47.542,13.477972,-3.468558,-3.468558,-16.946531,-3.366127,nan,0.605193,0.488077,0.200535,0.610800,1.023288,0.808986,-2.392099,1.566161,1.960104,66.000000,-28.000000,94.000000,38.000000,734.48564277,0.000000,0.00000000,37.83051147,0.000000,360.67589090,326.79412808,5.91005030,0.00000000,3.11487013,0.14176963,0.00925286,0.00916939,7.88534697,0.03407292,0.02083629,0.01404475,0.00788961,3.38127149,3.99467439,0.43255751,0.00283941,0.01041815,0.00561790,0.01577921,8.65115025,1.99733720,4.22658936
9.200,2,1,1,-529.302,192.976,47.396,12.210781,-3.599720,-3.599720,-15.810501,-3.666930,nan,0.544283,0.299302,0.214859,0.484948,1.018170,-0.169388,-2.764521,0.951563,1.949461,66.000000,-28.000000,94.000000,38.000000,726.72743048,0.000000,0.00000000,35.29235627,0.000000,358.57042522,324.65729446,5.39145118,0.00000000,2.65483162,0.14238457,0.00974133,0.00894584,7.90395776,0.03410508,0.02083801,0.01404820,0.00800391,3.38725333,4.00210437,0.43760485,0.00284209,0.01041900,0.00561928,0.01600782,8.75209702,2.00105219,4.23406667
9.300,2,1,1,-529.251,193.008,47.346,11.790981,-3.642851,-3.642851,-15.433832,-4.211240,nan,0.579353,0.234242,-0.272155,0.412363,1.012858,-0.477576,-2.463719,0.669956,1.939366,66.000000,-16.000000,82.000000,50.000000,724.10433572,0.000000,0.00000000,35.16597210,0.000000,357.57883180,323.63672415,5.11013576,0.00000000,2.46413622,0.13848460,0.00497543,0.00507565,7.92172024,0.03412514,0.02085190,0.01405384,0.00809637,3.39305861,4.00931720,0.44221718,0.00284376,0.01042595,0.00562154,0.01619274,8.84434356,2.00465860,4.24132327
9.400,2,1,1,-529.198,193.040,47.296,11.379543,-3.685694,-3.685694,-15.065236,-3.409099,nan,0.606497,0.167173,-0.859437,0.334655,1.007490,-0.769678,-3.108296,0.495757,1.930468,66.000000,-28.000000,94.000000,38.000000,721.73379785,0.000000,0.00000000,34.74400617,0.000000,356.55776110,322.59654625,5.13001981,0.00000000,2.54364266,0.14198557,0.01115864,0.00867765,7.93951102,0.03413535,0.02088799,0.01411008,0.00824349,3.39858836,4.01618965,0.44735610,0.00284461,0.01044399,0.00564403,0.01648698,8.94712195,2.00809483,4.24823545
9.500,2,1,1,-529.145,193.072,47.245,10.980500,-3.728084,-3.728084,-14.708584,-3.323155,nan,0.607585,0.102056,0.200535,0.260121,1.002115,-1.041722,-1.876437,0.565254,1.923098,66.000000,-16.000000,82.000000,50.000000,718.89219701,0.000000,0.00000000,34.05527001,0.000000,355.63225705,321.62795660,4.68896020,0.00000000,2.73988580,0.13817334,0.00505709,0.00463693,7.95607450,0.03413916,0.02095410,0.01411314,0.00829711,3.40386007,4.02274318,0.45196773,0.00284493,0.01047705,0.00564526,0.01659423,9.03935458,2.01137159,4.25482509
9.600,2,1,1,-529.091,193.103,47.194,10.586908,-3.770155,-3.770155,-14.357063,-3.437747,nan,0.636006,0.035474,-0.487014,0.199534,0.996778,-1.290002,-1.991028,0.791039,1.917464,66.000000,-16.000000,82.000000,50.000000,716.23042390,0.000000,0.00000000,33.70815213,0.000000,354.55329451,320.51784207,4.37564188,0.00000000,2.92901897,0.13789651,0.00403506,0.00454277,7.97213286,0.03413962,0.02105546,0.01413120,0.00835748,3.40888221,4.02898808,0.45657881,0.00284497,0.01052773,0.00565248,0.01671496,9.13157611,2.01449404,4.26110277
9.809,2,1,1,-529.091,193.103,47.194,10.586908,-3.770155,-3.770155,-14.357063,-3.437747,nan,0.636006,0.035474,-0.487014,0.199534,0.985917,-1.290002,-1.991028,0.791039,1.906041,66.000000,-16.000000,82.000000,50.000000,716.23042390,0.000000,0.00000000,33.70815213,0.000000,354.55329451,320.51784207,4.37564188,0.00000000,2.92901897,0.13789651,0.00403506,0.00454277,8.00562546,0.03414058,0.02126687,0.01416887,0.00848338,3.41935679,4.04201294,0.46619603,0.00284505,0.01063343,0.00566755,0.01696677,9.32392066,2.02100647,4.27419599
9.900,2,1,1,-528.926,193.194,47.034,9.499829,-3.893830,-3.893830,-13.393659,-3.051000,nan,0.611683,-0.162618,0.171887,0.124386,0.981384,-1.861196,-1.876437,1.330803,1.905623,66.000000,-16.000000,82.000000,50.000000,708.73306158,0.000000,0.00000000,31.60684400,0.000000,352.00338922,317.92781624,3.72136196,0.00000000,3.32731323,0.13806239,0.00412000,0.00415454,8.01907272,0.03414942,0.02145993,0.01417093,0.00853244,3.42335589,4.04698909,0.47041502,0.00284578,0.01072996,0.00566837,0.01706489,9.40830041,2.02349454,4.27919486
10.000,2,1,1,-528.869,193.223,46.979,9.162972,-3.934177,-3.934177,-13.097150,-2.965057,nan,0.633064,-0.226278,-0.200535,0.131411,0.976631,-1.985555,-0.658901,1.575638,1.906455,66.000000,-16.000000,82.000000,50.000000,705.27346142,0.000000,0.00000000,30.58877261,0.000000,350.86218155,316.71684766,3.53093857,0.00000000,3.42863172,0.13782384,0.00421713,0.00404834,8.03333551,0.03416814,0.02170010,0.01417399,0.00853905,3.42753594,4.05219144,0.47502684,0.00284734,0.01085005,0.00566960,0.01707811,9.50053689,2.02609572,4.28441993
10.100,2,1,1,-528.811,193.252,46.924,8.836431,-3.974126,-3.974126,-12.810558,-3.351803,nan,0.647940,-0.289023,-2.191564,0.172391,0.972121,-2.074122,-0.343775,1.783419,1.908222,66.000000,-16.000000,82.000000,50.000000,701.74807069,0.000000,0.00000000,29.56060679,0.000000,349.72751598,315.51646846,3.29382491,0.00000000,3.50361359,0.13762020,0.00437009,0.00405067,8.04758502,0.03419867,0.02196219,0.01453975,0.00854085,3.43153514,4.05716965,0.47963876,0.00284989,0.01098110,0.00581590,0.01708171,9.59277527,2.02858483,4.28941893
10.200,2,1,1,-528.752,193.280,46.867,8.519006,-4.013685,-4.013685,-12.532691,-2.692902,nan,0.659282,-0.350057,-0.759169,0.228672,0.967877,-2.126051,0.300803,1.940428,1.910526,66.000000,-16.000000,82.000000,50.000000,698.46138963,0.000000,0.00000000,28.62449673,0.000000,348.60399366,314.33174698,3.20394666,0.00000000,3.55157505,0.13741809,0.00438273,0.00382974,8.06116778,0.03424350,0.02223782,0.01458368,0.00854223,3.43536622,4.06193944,0.48425488,0.00285363,0.01111891,0.00583347,0.01708447,9.68509766,2.03096972,4.29420778
10.401,2,1,1,-528.752,193.280,46.867,8.519006,-4.013685,-4.013685,-12.532691,-2.692902,nan,0.659282,-0.350057,-0.759169,0.228672,0.959558,-2.126051,0.300803,1.940428,1.915004,66.000000,-16.000000,82.000000,50.000000,698.46138963,0.000000,0.00000000,28.62449673,0.000000,348.60399366,314.33174698,3.20394666,0.00000000,3.55157505,0.13741809,0.00438273,0.00382974,8.08843043,0.03433349,0.02279104,0.01467185,0.00854500,3.44305578,4.07151312,0.49352014,0.00286112,0.01139552,0.00586874,0.01709001,9.87040278,2.03575656,4.30381973
10.500,2,1,1,-528.571,193.363,46.692,7.634951,-4.129908,-4.129908,-11.764859,-2.563986,nan,0.587326,-0.509094,0.544310,0.363502,0.956235,-2.067075,1.790493,2.070294,1.916525,66.000000,-16.000000,82.000000,50.000000,690.20606778,0.000000,0.00000000,25.93685973,0.000000,346.08287264,311.78502819,2.77437627,0.00000000,3.48097235,0.13795897,0.00440317,0.00359646,8.10093136,0.03442739,0.02304904,0.01469421,0.00859340,3.44639885,4.07567729,0.49809119,0.00286895,0.01152452,0.00587769,0.01718679,9.96182371,2.03783865,4.30799856
10.600,2,1,1,-528.508,193.389,46.632,7.344253,-4.167826,-4.167826,-11.512079,-2.549662,nan,0.631563,-0.556195,0.501338,0.430312,0.953188,-1.977021,1.274831,2.081483,1.917116,66.000000,-16.000000,82.000000,50.000000,686.39734001,0.000000,0.00000000,24.93802917,0.000000,344.77048322,310.39018074,2.64458778,0.00000000,3.50838238,0.13761154,0.00453424,0.00353095,8.11318942,0.03454045,0.02328713,0.01471335,0.00861815,3.44962791,4.07970006,0.50270238,0.00287837,0.01164356,0.00588534,0.01723629,10.05404756,2.03985003,4.31203488
10.700,2,1,1,-528.445,193.415,46.570,7.058606,-4.205330,-4.205330,-11.263936,-2.392099,nan,0.660953,-0.599041,-0.329451,0.492301,0.950439,-1.853815,2.034000,2.049610,1.916523,66.000000,-16.000000,82.000000,50.000000,682.71518448,0.000000,0.00000000,24.02217085,0.000000,343.48225274,309.02906915,2.53340507,0.00000000,3.50291295,0.13729905,0.00463790,0.00343678,8.12515568,0.03467160,0.02349646,0.01472162,0.00868115,3.45271931,4.08355189,0.50731365,0.00288930,0.01174823,0.00588865,0.01736230,10.14627298,2.04177594,4.31589914
10.800,2,1,1,-528.381,193.441,46.508,6.777441,-4.242396,-4.242396,-11.019837,-2.277507,nan,0.678329,-0.636612,0.372423,0.546337,0.947964,-1.699605,3.294507,1.974835,1.914591,66.000000,-16.000000,82.000000,50.000000,679.09513367,0.000000,0.00000000,23.11507888,0.000000,342.23197454,307.71446142,2.42551647,0.00000000,3.46296499,0.13704793,0.00473480,0.00335464,8.13691477,0.03481975,0.02367245,0.01473218,0.00884646,3.45567864,4.08723966,0.51192563,0.00290165,0.01183623,0.00589287,0.01769292,10.23851261,2.04361983,4.31959831
10.900,2,1,1,-528.316,193.465,46.446,6.500257,-4.278997,-4.278997,-10.779253,-2.005352,nan,0.691631,-0.668054,-0.830789,0.588618,0.945731,-1.516845,2.234535,1.863785,1.911257,66.000000,-16.000000,82.000000,50.000000,675.54089860,0.000000,0.00000000,22.25455754,0.000000,340.99534813,306.41971739,2.33155060,0.00000000,3.39486224,0.13681913,0.00480306,0.00324051,8.14832084,0.03498291,0.02381264,0.01478475,0.00892252,3.45851058,4.09076915,0.51653828,0.00291524,0.01190632,0.00591390,0.01784504,10.33076568,2.04538458,4.32313823
11.099,2,1,1,-528.316,193.465,46.446,6.500257,-4.278997,-4.278997,-10.779253,-2.005352,nan,0.691631,-0.668054,-0.830789,0.588618,0.941398,-1.516845,2.234535,1.863785,1.904792,66.000000,-16.000000,82.000000,50.000000,675.54089860,0.000000,0.00000000,22.25455754,0.000000,340.99534813,306.41971739,2.33155060,0.00000000,3.39486224,0.13681913,0.00480306,0.00324051,8.17099887,0.03530732,0.02409138,0.01488927,0.00907375,3.46414116,4.09778664,0.52570936,0.00294228,0.01204569,0.00595571,0.01814750,10.51418712,2.04889332,4.33017645
11.117,2,1,1,-528.282,193.478,46.413,6.172279,-4.297839,-4.297839,-10.470118,-2.019676,nan,0.554418,-0.697363,-0.315127,0.593262,0.941057,-1.263730,3.695578,1.847106,1.903936,66.000000,-16.000000,82.000000,50.000000,673.70589621,0.000000,0.00000000,20.27125115,0.000000,341.15542214,306.60305459,2.20052638,0.00000000,3.33001574,0.13779836,0.00465359,0.00317425,8.17294586,0.03533849,0.02410844,0.01489060,0.00911022,3.46460957,4.09837052,0.52651802,0.00294487,0.01205422,0.00595624,0.01822044,10.53036038,2.04918526,4.33076196
11.200,2,1,1,-528.117,193.537,46.253,5.688475,-4.385844,-4.385844,-10.074319,-2.162916,nan,0.679392,-0.724006,-0.100268,0.661298,0.939597,-0.826283,3.666930,1.506543,1.898057,66.000000,-16.000000,82.000000,50.000000,667.28297137,0.000000,0.00000000,20.69761642,0.000000,337.92326307,303.34062120,2.04574127,0.00000000,3.13070549,0.13692457,0.00497381,0.00312553,8.18180961,0.03549860,0.02414320,0.01489124,0.00928135,3.46667624,4.10094721,0.53037178,0.00295822,0.01207160,0.00595649,0.01856270,10.60743557,2.05047361,4.33334530
11.300,2,1,1,-528.049,193.560,46.187,5.423320,-4.420411,-4.420411,-9.843730,-2.420747,nan,0.692051,-0.729014,0.272155,0.690566,0.937911,-0.559931,3.122620,1.262446,1.890235,66.000000,-14.000000,80.000000,52.000000,663.31219461,0.000000,0.00000000,19.66467368,0.000000,336.63674434,301.98651382,1.91652358,0.00000000,2.96433851,0.13628565,0.00442095,0.00269410,8.19203560,0.03569288,0.02416230,0.01489688,0.00942987,3.46903776,4.10389186,0.53492406,0.00297441,0.01208115,0.00595875,0.01885974,10.69848118,2.05194593,4.33629719
11.400,2,1,1,-527.981,193.582,46.121,5.161508,-4.454399,-4.454399,-9.615907,-2.234535,nan,0.701254,-0.726508,0.042972,0.711560,0.936235,-0.281788,3.151268,0.985325,1.881966,66.000000,-14.000000,80.000000,52.000000,659.49720418,0.000000,0.00000000,18.71143440,0.000000,335.37228734,300.66405398,1.83495307,0.00000000,2.77131735,0.13608865,0.00445816,0.00261124,8.20199953,0.03588580,0.02416714,0.01489702,0.00958111,3.47129095,4.10670174,0.53947577,0.00299048,0.01208357,0.00595881,0.01916223,10.78951546,2.05335087,4.33911368
11.500,2,1,1,-527.913,193.604,46.054,4.904719,-4.487747,-4.487747,-9.392466,-2.778845,nan,0.709135,-0.715976,0.028648,0.722315,0.934513,0.004162,3.122620,0.699406,1.873617,66.000000,-14.000000,80.000000,52.000000,655.74733527,0.000000,0.00000000,17.80858709,0.000000,334.12175778,299.36260132,1.74140256,0.00000000,2.56975235,0.13593472,0.00461944,0.00268000,8.21172247,0.03607326,0.02416714,0.01489708,0.00972968,3.47344163,4.10938408,0.54402959,0.00300611,0.01208357,0.00595883,0.01945937,10.88059178,2.05469204,4.34180204
11.600,2,1,1,-527.844,193.624,45.987,4.652429,-4.520431,-4.520431,-9.172860,-2.778845,nan,0.700763,-0.697595,0.572958,0.721113,0.932691,0.293890,3.824493,0.492573,1.865560,66.000000,-14.000000,80.000000,52.000000,652.25369538,0.000000,0.00000000,16.86309662,0.000000,332.97513840,298.17981203,1.67260540,0.00000000,2.41982692,0.13589849,0.00467734,0.00264017,8.22134326,0.03625170,0.02417242,0.01492216,0.00995315,3.47549847,4.11194964,0.54859571,0.00302098,0.01208621,0.00596886,0.01990631,10.97191426,2.05597482,4.34437309
11.792,2,1,1,-527.844,193.624,45.987,4.652429,-4.520431,-4.520431,-9.172860,-2.778845,nan,0.700763,-0.697595,0.572958,0.721113,0.929292,0.293890,3.824493,0.492573,1.850479,66.000000,-14.000000,80.000000,52.000000,652.25369538,0.000000,0.00000000,16.86309662,0.000000,332.97513840,298.17981203,1.67260540,0.00000000,2.41982692,0.13589849,0.00467734,0.00264017,8.23970093,0.03659219,0.02418249,0.01497001,0.01037956,3.47942317,4.11684505,0.55730846,0.00304935,0.01209125,0.00598800,0.02075912,11.14616912,2.05842253,4.34927897
11.808,2,1,1,-527.807,193.635,45.951,4.404129,-4.537161,-4.537161,-8.941290,-1.647254,nan,0.565146,-0.671824,1.418071,0.720080,0.928991,0.583417,3.122620,0.480654,1.849349,66.000000,-14.000000,80.000000,52.000000,651.20034121,0.000000,0.00000000,15.40150405,0.000000,333.16618320,298.43154555,1.61143291,0.00000000,2.44610450,0.13686864,0.00433521,0.00236716,8.24118276,0.03661814,0.02418575,0.01499410,0.01040293,3.47972971,4.11722745,0.55802467,0.00305151,0.01209288,0.00599764,0.02080586,11.16049340,2.05861372,4.34966214
11.900,2,1,1,-527.635,193.683,45.783,3.946598,-4.614389,-4.614389,-8.560987,-0.429718,nan,0.592157,-0.603345,0.358099,0.685114,0.926864,1.113719,3.308831,0.595592,1.844681,66.000000,-14.000000,80.000000,52.000000,645.62203647,0.000000,0.00000000,14.97938959,0.000000,330.42877136,295.71973551,1.51757233,0.00000000,2.83347667,0.13673518,0.00427897,0.00207685,8.24946753,0.03674130,0.02425569,0.01500314,0.01055726,3.48138271,4.11928985,0.56223758,0.00306177,0.01212785,0.00600126,0.02111452,11.24475155,2.05964493,4.35172839
12.000,2,1,1,-527.565,193.702,45.715,3.707470,-4.644285,-4.644285,-8.351755,-1.618606,nan,0.643655,-0.555939,0.902409,0.652848,0.924347,1.381527,3.509366,0.830792,1.841246,66.000000,-14.000000,80.000000,52.000000,642.12347991,0.000000,0.00000000,14.16222805,0.000000,329.05653665,294.28485790,1.43398029,0.00000000,3.04260174,0.13645661,0.00455793,0.00226075,8.25831849,0.03685427,0.02437196,0.01506515,0.01074482,3.48308238,4.12141069,0.56678922,0.00307119,0.01218598,0.00602606,0.02148965,11.33578431,2.06070534,4.35385298
12.100,2,1,1,-527.495,193.719,45.647,3.470875,-4.673454,-4.673454,-8.144329,-1.847789,nan,0.672109,-0.501361,0.974028,0.611265,0.921602,1.634991,2.678578,1.098385,1.839609,66.000000,-14.000000,80.000000,52.000000,638.88526211,0.000000,0.00000000,13.43345360,0.000000,327.75117088,292.93029699,1.38747263,0.00000000,3.23967219,0.13622473,0.00469630,0.00227480,8.26693893,0.03694613,0.02453480,0.01513739,0.01085408,3.48469855,4.12342749,0.57134049,0.00307884,0.01226740,0.00605496,0.02170817,11.42680973,2.06171375,4.35587319
12.200,2,1,1,-527.426,193.736,45.579,3.236541,-4.701902,-4.701902,-7.938442,-1.919409,nan,0.687667,-0.440450,0.028648,0.563129,0.918634,1.870961,1.962380,1.363305,1.839873,66.000000,-14.000000,80.000000,52.000000,635.81364629,0.000000,0.00000000,12.76016377,0.000000,326.50042179,291.64131708,1.34632239,0.00000000,3.42231609,0.13604545,0.00480036,0.00225937,8.27528493,0.03701704,0.02474803,0.01513745,0.01091273,3.48623406,4.12534381,0.57589182,0.00308475,0.01237401,0.00605498,0.02182546,11.51783641,2.06267190,4.35779257
12.300,2,1,1,-527.356,193.753,45.511,3.004224,-4.729640,-4.729640,-7.733865,-1.790493,nan,0.698923,-0.373899,0.186211,0.512033,0.915461,2.086570,3.351803,1.606206,1.842047,66.000000,-14.000000,80.000000,52.000000,632.85067781,0.000000,0.00000000,12.15260414,0.000000,325.27708970,290.38667236,1.30149963,0.00000000,3.58985728,0.13588056,0.00487057,0.00220357,8.28360505,0.03706815,0.02501331,0.01514009,0.01108387,3.48769186,4.12716330,0.58044447,0.00308901,0.01250666,0.00605604,0.02216773,11.60888941,2.06358165,4.35961483
12.490,2,1,1,-527.356,193.753,45.511,3.004224,-4.729640,-4.729640,-7.733865,-1.790493,nan,0.698923,-0.373899,0.186211,0.512033,0.909540,2.086570,3.351803,1.606206,1.846079,66.000000,-14.000000,80.000000,52.000000,632.85067781,0.000000,0.00000000,12.15260414,0.000000,325.27708970,290.38667236,1.30149963,0.00000000,3.58985728,0.13588056,0.00487057,0.00220357,8.29942867,0.03716535,0.02551784,0.01514512,0.01140934,3.49046439,4.13062370,0.58910292,0.00309711,0.01275892,0.00605805,0.02281868,11.78205845,2.06531185,4.36308049
12.507,2,1,1,-527.320,193.761,45.476,2.746168,-4.743786,-4.743786,-7.489954,-2.306155,nan,0.564741,-0.293142,1.031324,0.505510,0.908991,2.300772,2.492366,1.635593,1.846766,66.000000,-14.000000,80.000000,52.000000,632.41474024,0.000000,0.00000000,11.10355978,0.000000,325.49092000,290.68810728,1.30160521,0.00000000,3.68658580,0.13690811,0.00477071,0.00228334,8.30077969,0.03717056,0.02557127,0.01515854,0.01142502,3.49069087,4.13090640,0.58985703,0.00309755,0.01278564,0.00606341,0.02285003,11.79714070,2.06545320,4.36336359
12.600,2,1,1,-527.151,193.798,45.310,2.317397,-4.808695,-4.808695,-7.126092,-2.563986,nan,0.590712,-0.144832,1.776169,0.375439,0.905655,2.587870,1.847789,2.113576,1.853443,66.000000,-14.000000,80.000000,52.000000,627.04856342,0.000000,0.00000000,10.81341356,0.000000,322.83260109,288.06620566,1.29224643,0.00000000,3.90003177,0.13683806,0.00492679,0.00230006,8.30827633,0.03717770,0.02595160,0.01538249,0.01147349,3.49184441,4.13234647,0.59410017,0.00309814,0.01297580,0.00615299,0.02294698,11.88200348,2.06617324,4.36480552
12.700,2,1,1,-527.083,193.812,45.244,2.091263,-4.833732,-4.833732,-6.924995,-0.200535,nan,0.631946,-0.061350,1.074296,0.294704,0.902041,2.700657,1.432394,2.333338,1.861754,66.000000,-14.000000,80.000000,52.000000,623.79173677,0.000000,0.00000000,10.20308506,0.000000,321.58432638,286.77881244,1.08596875,0.00000000,3.99658661,0.13650668,0.00466752,0.00178332,8.31602353,0.03717908,0.02639610,0.01547041,0.01150475,3.49301346,4.13380600,0.59865374,0.00309826,0.01319805,0.00618816,0.02300950,11.97307471,2.06690300,4.36626683
12.800,2,1,1,-527.016,193.826,45.178,1.884245,-4.858172,-4.858172,-6.742417,-0.859437,nan,0.659577,0.017017,0.845113,0.217234,0.898453,2.778789,1.131592,2.503510,1.870808,66.000000,-14.000000,80.000000,52.000000,620.93978886,0.000000,0.00000000,9.71845499,0.000000,320.37369113,285.53820794,1.09910692,0.00000000,4.06725035,0.13632863,0.00486089,0.00188801,8.32361561,0.03717918,0.02686681,0.01552483,0.01152427,3.49412197,4.13519004,0.60320850,0.00309827,0.01343341,0.00620993,0.02304853,12.06416995,2.06759502,4.36765246
12.900,2,1,1,-526.949,193.839,45.113,1.660223,-4.882050,-4.882050,-6.542273,-2.134268,nan,0.663628,0.103084,0.902409,0.137136,0.894955,2.835342,1.317803,2.650375,1.880337,66.000000,-14.000000,80.000000,52.000000,618.47625468,0.000000,0.00000000,9.26028239,0.000000,319.29397529,284.44830430,1.21710735,0.00000000,4.11297824,0.13633338,0.00513174,0.00214197,8.33109594,0.03718307,0.02735664,0.01558685,0.01155072,3.49516512,4.13649256,0.60776097,0.00309859,0.01367832,0.00623474,0.02310144,12.15521945,2.06824628,4.36895640
