t,controller_id,state_code,wp_idx,x,y,dist,yaw_deg,yaw_to_wp_deg,yaw_ref_deg,yaw_err_deg,yaw_rate_deg_s,speed_ref,speed_meas,roll_deg,roll_rate_deg_s,roll_rms_window_deg,roll_rms_total_deg,pitch_deg,pitch_rate_deg_s,pitch_rms_window_deg,pitch_rms_total_deg,base_cmd,diff_cmd,T_left,T_right,J_inst,J_goal,J_wave_roll,J_progress,J_smooth,J_mpc_distance,J_mpc_final,J_mpc_heading,J_mpc_wrong_way,J_mpc_pitch,J_mpc_control,J_mpc_slew,J_mpc_turn,J_total,J_roll,J_pitch,J_roll_rate,J_pitch_rate,J_goal_heading,J_no_progress,J_control,I_roll,I_pitch,I_roll_rate,I_pitch_rate,I_control,I_no_progress,I_goal_heading
0.200,2,1,1,-532.001,189.997,50.001,56.549783,0.003635,0.003635,-56.546148,-0.444042,nan,0.000000,-0.342578,0.744845,0.337081,0.000000,0.469365,0.630254,0.356634,0.000000,2.500000,-9.500000,12.000000,-7.000000,1043.93904347,0.000000,0.00000000,61.51403990,0.000000,420.50371875,388.29282282,171.69412970,0.00001165,1.71894408,0.14203455,0.02610708,0.04723494,0.00000000,0.00000000,0.00000000,0.00000000,0.00000000,0.00000000,0.00000000,0.00000000,0.00000000,0.00000000,0.00000000,0.00000000,0.00000000,0.00000000,0.00000000
0.523,2,1,1,-532.001,189.997,50.001,56.549783,0.003635,0.003635,-56.546148,-0.444042,nan,0.000000,-0.342578,0.744845,0.337081,0.342578,0.469365,0.630254,0.356634,0.469365,2.500000,-21.500000,24.000000,-19.000000,997.00980264,0.000000,0.00000000,49.62295848,0.000000,420.01639592,387.66815878,137.76403496,0.00000279,1.72272988,0.14257997,0.02543934,0.04750252,0.54245608,0.00013832,0.00004328,0.00013623,0.00001951,0.25123782,0.28937035,0.00151058,0.00001153,0.00002164,0.00005449,0.00003901,0.03021161,0.14468517,0.31404728
0.600,2,1,1,-532.014,189.974,50.014,56.250899,0.029740,0.029740,-56.221159,-0.945380,nan,0.040416,-0.321427,0.100268,0.332522,0.338581,0.091858,-0.501338,0.286549,0.423366,8.000000,-28.000000,36.000000,-20.000000,994.50197867,0.000000,0.00000000,63.42521912,0.000000,419.40850082,387.07133819,122.73615600,0.00001517,1.65323244,0.14208789,0.01840082,0.04702823,0.67169509,0.00016760,0.00004367,0.00013682,0.00002247,0.31094812,0.35820846,0.00216794,0.00001397,0.00002184,0.00005473,0.00004495,0.04335873,0.17910423,0.38868515
0.700,2,1,1,-532.016,189.970,50.016,56.124593,0.034247,0.034247,-56.090346,-0.673225,nan,0.041364,-0.298809,-0.085944,0.327574,0.331007,0.152815,0.759169,0.257991,0.384773,14.000000,-34.000000,48.000000,-20.000000,975.61112680,0.000000,0.00000000,57.24538629,0.000000,418.25319062,385.64250440,112.59616447,0.00002710,1.66845894,0.14327692,0.01450391,0.04761416,0.83823819,0.00020025,0.00004510,0.00013738,0.00003126,0.38764288,0.44666094,0.00352039,0.00001669,0.00002255,0.00005495,0.00006251,0.07040774,0.22333047,0.48455360
0.800,2,1,1,-532.017,189.968,50.017,55.958977,0.036468,0.036468,-55.922508,-1.145916,nan,0.032631,-0.262783,0.644578,0.316850,0.320645,0.291947,-0.128916,0.248591,0.370919,20.000000,-40.000000,60.000000,-20.000000,954.22375055,0.000000,0.00000000,49.56882328,0.000000,416.91887064,383.92085746,101.88804741,0.00002040,1.71980509,0.14563031,0.01286815,0.04882782,1.00444434,0.00022549,0.00005029,0.00016902,0.00003151,0.46385187,0.53459582,0.00552033,0.00001879,0.00002514,0.00006761,0.00006302,0.11040666,0.26729791,0.57981484
0.900,2,1,1,-532.017,189.967,50.017,55.748995,0.037746,0.037746,-55.711249,-2.449395,nan,0.024078,-0.222992,-0.902409,0.295272,0.308597,0.401963,1.246183,0.228702,0.375509,26.000000,-46.000000,72.000000,-20.000000,933.64886844,0.000000,0.00000000,43.00867828,0.000000,415.53665952,382.14166398,90.93092202,0.00000136,1.81699481,0.14924413,0.01374678,0.05095755,1.17024067,0.00024366,0.00006013,0.00023101,0.00005515,0.53945496,0.62188466,0.00831111,0.00002030,0.00003006,0.00009240,0.00011030,0.16622211,0.31094233,0.67431870
1.111,2,1,1,-532.017,189.967,50.017,55.748995,0.037746,0.037746,-55.711249,-2.449395,nan,0.024078,-0.222992,-0.902409,0.295272,0.291018,0.401963,1.246183,0.228702,0.381800,32.000000,-52.000000,84.000000,-20.000000,920.87835885,0.000000,0.00000000,39.67628510,0.000000,414.29893911,380.58515667,84.24154099,0.00000000,1.85223471,0.15422840,0.01619599,0.05377788,1.52219704,0.00028201,0.00008090,0.00036186,0.00010506,0.69904640,0.80614368,0.01617712,0.00002350,0.00004045,0.00014475,0.00021012,0.32354248,0.40307184,0.87380800
1.200,2,1,1,-532.020,189.967,50.020,54.828440,0.037798,0.037798,-54.790642,-3.853141,nan,0.020068,-0.098033,0.186211,0.229502,0.279296,0.420437,0.186211,0.338457,0.385397,38.000000,-58.000000,96.000000,-20.000000,903.81445676,0.000000,0.00000000,35.09260888,0.000000,413.38624661,379.47366988,73.73794231,0.00000000,1.88707596,0.16002892,0.01724652,0.05963769,1.66703079,0.00028514,0.00009049,0.00036421,0.00010553,0.76418238,0.88154509,0.02045795,0.00002376,0.00004524,0.00014569,0.00021106,0.40915907,0.44077254,0.95522798
1.300,2,1,1,-532.020,189.970,50.020,54.423863,0.033953,0.033953,-54.389910,-2.535338,nan,0.026967,-0.042747,0.071620,0.182802,0.266610,0.453597,0.071620,0.390308,0.392087,40.000000,-60.000000,100.000000,-20.000000,901.77253718,0.000000,0.00000000,34.99109429,0.000000,413.03887863,379.07608686,72.50900469,0.00000000,1.91708536,0.16236746,0.01713575,0.06088413,1.82787683,0.00028580,0.00010302,0.00036460,0.00010561,0.83627100,0.96508902,0.02565778,0.00002382,0.00005151,0.00014584,0.00021121,0.51315555,0.48254451,1.04533874
1.400,2,1,1,-532.018,189.976,50.018,53.967081,0.027385,0.027385,-53.939696,-4.325831,nan,0.041685,0.013209,-0.071620,0.132302,0.255292,0.501598,1.131592,0.432337,0.402350,40.000000,-60.000000,100.000000,-20.000000,898.52393279,0.000000,0.00000000,34.95275268,0.000000,412.89111458,378.95437566,69.53409746,0.00000000,1.94943483,0.16235584,0.01767377,0.06212797,1.98622734,0.00028587,0.00011834,0.00036499,0.00012510,0.90714666,1.04733056,0.03085581,0.00002382,0.00005917,0.00014600,0.00025021,0.61711614,0.52366528,1.13393332
1.500,2,1,1,-532.016,189.984,50.016,53.462369,0.018322,0.018322,-53.444047,-5.070676,nan,0.060526,0.064589,-0.186211,0.086404,0.245929,0.548140,0.315127,0.463086,0.415387,40.000000,-60.000000,100.000000,-20.000000,897.06442994,0.000000,0.00000000,35.80607547,0.000000,412.73063187,378.83921032,67.46367815,0.00000000,1.98217887,0.16221146,0.01801637,0.06242743,2.14194983,0.00028739,0.00013665,0.00036764,0.00012662,0.97675863,1.12821661,0.03605629,0.00002395,0.00006833,0.00014705,0.00025323,0.72112585,0.56410831,1.22094829
1.706,2,1,1,-532.016,189.984,50.016,53.462369,0.018322,0.018322,-53.444047,-5.070676,nan,0.060526,0.064589,-0.186211,0.086404,0.229714,0.548140,0.315127,0.463086,0.435966,40.000000,-60.000000,100.000000,-20.000000,897.06442994,0.000000,0.00000000,35.80607547,0.000000,412.73063187,378.83921032,67.46367815,0.00000000,1.98217887,0.16221146,0.01801637,0.06242743,2.46317930,0.00029054,0.00017441,0.00037308,0.00012974,1.12035650,1.29507101,0.04678402,0.00002421,0.00008721,0.00014923,0.00025947,0.93568050,0.64753550,1.40044562
1.800,2,1,1,-532.002,190.021,50.002,51.717407,-0.023754,-0.023754,-51.741161,-5.500395,nan,0.087373,0.209642,0.372423,0.112718,0.228587,0.785202,0.830789,0.583934,0.463730,43.500000,-56.500000,100.000000,-13.000000,890.75084817,0.000000,0.00000000,35.53556771,0.000000,411.79020940,377.79739785,63.25075523,0.00000000,2.14615363,0.15933839,0.01501746,0.05640850,2.60052129,0.00030559,0.00020961,0.00038298,0.00013959,1.18149501,1.36643966,0.05154884,0.00002547,0.00010481,0.00015319,0.00027918,1.03097680,0.68321983,1.47686876
1.900,2,1,1,-531.995,190.037,49.995,51.128492,-0.042282,-0.042282,-51.170774,-6.431451,nan,0.121837,0.251109,-0.014324,0.151621,0.229972,0.871655,-0.601606,0.663959,0.497074,43.500000,-56.500000,100.000000,-13.000000,889.75331950,0.000000,0.00000000,37.38804284,0.000000,411.46259079,377.55158805,60.91111338,0.00000000,2.20902025,0.15900275,0.01515016,0.05681128,2.74405757,0.00032864,0.00025589,0.00038300,0.00014510,1.24529041,1.44102236,0.05663218,0.00002739,0.00012795,0.00015320,0.00029020,1.13264355,0.72051118,1.55661301
2.000,2,1,1,-531.988,190.054,49.988,50.549944,-0.062269,-0.062269,-50.612213,-6.374155,nan,0.149450,0.286100,0.100268,0.194030,0.233448,0.922230,0.200535,0.745851,0.529755,43.500000,-56.500000,100.000000,-13.000000,889.85482113,0.000000,0.00000000,39.49535665,0.000000,411.15667236,377.33093311,59.39155595,0.00000000,2.25013231,0.15860163,0.01523938,0.05632974,2.88488068,0.00035859,0.00030776,0.00038376,0.00014571,1.30777890,1.51418407,0.06172189,0.00002988,0.00015388,0.00015351,0.00029142,1.23443772,0.75709203,1.63472362
2.100,2,1,1,-531.980,190.073,49.980,49.876648,-0.083481,-0.083481,-49.960130,-6.703606,nan,0.168990,0.320098,-1.418071,0.240055,0.238793,0.939372,0.372423,0.827963,0.558842,43.500000,-56.500000,100.000000,-13.000000,889.15362317,0.000000,0.00000000,41.23389137,0.000000,410.86561869,377.12592891,57.42823451,0.00000000,2.26998861,0.15831666,0.01548910,0.05615531,3.02233896,0.00039603,0.00036151,0.00053687,0.00014782,1.36858980,1.58550184,0.06680509,0.00003300,0.00018075,0.00021475,0.00029565,1.33610188,0.79275092,1.71073725
2.319,2,1,1,-531.980,190.073,49.980,49.876648,-0.083481,-0.083481,-49.960130,-6.703606,nan,0.168990,0.320098,-1.418071,0.240055,0.248407,0.939372,0.372423,0.827963,0.609156,43.500000,-56.500000,100.000000,-13.000000,889.15362317,0.000000,0.00000000,41.23389137,0.000000,410.86561869,377.12592891,57.42823451,0.00000000,2.26998861,0.15831666,0.01548910,0.05615531,3.32256229,0.00047782,0.00047890,0.00087126,0.00015244,1.50140720,1.74126733,0.07790735,0.00003982,0.00023945,0.00034850,0.00030487,1.55814707,0.87063366,1.87675900
2.400,2,1,1,-531.949,190.137,49.949,47.775310,-0.157685,-0.157685,-47.932995,-7.104677,nan,0.175647,0.387409,-0.759169,0.312149,0.254926,1.014968,0.558634,0.921969,0.628920,47.750000,-52.250000,100.000000,-4.500000,880.59320489,0.000000,0.00000000,40.01677646,0.000000,409.56254615,375.68595609,52.76647824,0.00000000,2.34416422,0.15552659,0.01259809,0.04915905,3.42643393,0.00052263,0.00053016,0.00090711,0.00015632,1.54714092,1.79517711,0.08199969,0.00004355,0.00026508,0.00036284,0.00031264,1.63999378,0.89758856,1.93392615
2.500,2,1,1,-531.937,190.162,49.937,47.055356,-0.186193,-0.186193,-47.241549,-7.620339,nan,0.221007,0.394850,0.042972,0.346072,0.262563,1.076356,1.017000,0.970426,0.654759,49.875000,-50.125000,100.000000,-0.250000,880.42615293,0.000000,0.00000000,42.73545595,0.000000,408.81436769,374.98262436,51.27223360,0.00000000,2.41007338,0.15393117,0.01109579,0.04637099,3.55016156,0.00057961,0.00060073,0.00090725,0.00017207,1.60151851,1.85938451,0.08699888,0.00004830,0.00030037,0.00036290,0.00034414,1.73997760,0.92969226,2.00189814
2.600,2,1,1,-531.923,190.188,49.924,46.334120,-0.216004,-0.216004,-46.550125,-7.892494,nan,0.252729,0.395232,0.429718,0.371416,0.269396,1.116742,0.214859,1.014553,0.680291,49.875000,-50.125000,100.000000,-0.250000,879.87549034,0.000000,0.00000000,44.95483067,0.000000,408.36384009,374.64099016,49.25515207,0.00000000,2.44990612,0.15348795,0.01117964,0.04610364,3.67052400,0.00063669,0.00067668,0.00092130,0.00017277,1.65430390,1.92181573,0.09199692,0.00005306,0.00033834,0.00036852,0.00034554,1.83993846,0.96090787,2.06787987
2.700,2,1,1,-531.909,190.215,49.909,45.614014,-0.246811,-0.246811,-45.860825,-7.906818,nan,0.275237,0.394128,-0.787817,0.388294,0.275468,1.124935,0.171887,1.055895,0.703480,50.937500,-49.062500,100.000000,1.875000,879.07527339,0.000000,0.00000000,46.72047445,0.000000,407.77596057,374.10230339,47.79464043,0.00000000,2.47433068,0.15259742,0.01066610,0.04430034,3.78760712,0.00069343,0.00075373,0.00096854,0.00017322,1.70552579,1.98249687,0.09699554,0.00005779,0.00037686,0.00038742,0.00034644,1.93991079,0.99124843,2.13190724
2.800,2,1,1,-531.894,190.243,49.894,44.895432,-0.278721,-0.278721,-45.174153,-7.734930,nan,0.295780,0.386401,-0.988352,0.392335,0.280552,1.111299,-0.974028,1.088688,0.723448,51.469000,-48.531000,100.000000,2.938000,878.25207556,0.000000,0.00000000,48.34237944,0.000000,407.25711767,373.64686053,46.31900336,0.00000000,2.48126256,0.15198253,0.01043926,0.04303022,3.90168079,0.00074807,0.00082904,0.00104300,0.00018769,1.75530487,2.04156340,0.10200472,0.00006234,0.00041452,0.00041720,0.00037537,2.04009444,1.02078170,2.19413109
3.054,2,1,1,-531.894,190.243,49.894,44.895432,-0.278721,-0.278721,-45.174153,-7.734930,nan,0.295780,0.386401,-0.988352,0.392335,0.291532,1.111299,-0.974028,1.088688,0.765960,51.469000,-48.531000,100.000000,2.938000,878.25207104,0.000000,0.00000000,48.34237944,0.000000,407.25711767,373.64686053,46.31900336,0.00000000,2.48126256,0.15198253,0.01043474,0.04303022,4.19108266,0.00088666,0.00102011,0.00123191,0.00022438,1.88159308,2.19141364,0.11471288,0.00007389,0.00051005,0.00049277,0.00044876,2.29425769,1.09570682,2.35199135
3.100,2,1,1,-531.841,190.332,49.842,42.754865,-0.382046,-0.382046,-43.136911,-6.230916,nan,0.235497,0.323075,-0.673225,0.378754,0.292060,1.047289,-0.830789,1.097851,0.771230,51.734500,-48.265500,100.000000,3.469000,868.16312795,0.000000,0.00000000,44.22782901,0.000000,406.36103224,372.63863448,42.27067283,0.00000000,2.46216354,0.15220011,0.01048062,0.04011512,4.23923218,0.00090423,0.00105088,0.00124781,0.00022922,1.90247533,2.21630653,0.11701818,0.00007535,0.00052544,0.00049912,0.00045844,2.34036363,1.10815326,2.37809416
3.200,2,1,1,-531.822,190.364,49.823,42.102296,-0.418635,-0.418635,-42.520930,-6.918465,nan,0.294034,0.294738,-0.315127,0.362113,0.292150,1.017885,-1.403747,1.086250,0.780713,51.867000,-48.133000,100.000000,3.734000,867.67001126,0.000000,0.00000000,46.63814448,0.000000,405.73090063,372.11814088,40.50647195,0.00000000,2.47393703,0.15166102,0.01063179,0.04012350,4.34108085,0.00093600,0.00111403,0.00125537,0.00025925,1.94655962,2.26892872,0.12202785,0.00007800,0.00055702,0.00050215,0.00051850,2.44055693,1.13446436,2.43319952
3.300,2,1,1,-531.801,190.396,49.803,41.338297,-0.456094,-0.456094,-41.794391,-7.219268,nan,0.325548,0.258038,-0.572958,0.333930,0.291113,0.975206,-0.257831,1.055890,0.787727,51.933500,-48.066500,100.000000,3.867000,866.41665868,0.000000,0.00000000,48.20122312,0.000000,405.14523014,371.61236574,38.78684145,0.00000000,2.46907408,0.15127114,0.01080200,0.03985102,4.43951437,0.00096031,0.00117189,0.00128034,0.00026026,1.98906616,2.31974729,0.12702812,0.00008003,0.00058595,0.00051214,0.00052052,2.54056245,1.15987364,2.48633270
3.400,2,1,1,-531.780,190.430,49.782,40.632693,-0.494393,-0.494393,-41.127085,-6.975761,nan,0.362006,0.220976,-1.145916,0.299866,0.289179,0.931690,-0.558634,1.018172,0.792621,57.933500,-42.066500,100.000000,15.867000,866.03531760,0.000000,0.00000000,50.27847766,0.000000,403.73052068,370.07856775,39.25819281,0.00000000,2.49846780,0.14919056,0.00868896,0.03321138,4.53536183,0.00097815,0.00122476,0.00138031,0.00026501,2.03027570,2.36908510,0.13215279,0.00008151,0.00061238,0.00055213,0.00053003,2.64305580,1.18454255,2.53784462
3.500,2,1,1,-531.757,190.463,49.760,39.987562,-0.533539,-0.533539,-40.521102,-7.076029,nan,0.373735,0.181647,-0.458366,0.269279,0.286512,0.886840,-0.300803,0.984254,0.795643,56.466500,-43.533500,100.000000,12.933000,863.87841882,0.000000,0.00000000,51.03736282,0.000000,403.35486926,369.80385416,37.01295890,0.00000000,2.47756455,0.14894796,0.00910822,0.03375295,4.62858357,0.00099022,0.00127272,0.00139633,0.00026639,2.07032386,2.41709323,0.13724082,0.00008252,0.00063636,0.00055853,0.00053279,2.74481634,1.20854661,2.58790482
3.710,2,1,1,-531.757,190.463,49.760,39.987562,-0.533539,-0.533539,-40.521102,-7.076029,nan,0.373735,0.181647,-0.458366,0.269279,0.281340,0.886840,-0.300803,0.984254,0.801390,55.733000,-44.267000,100.000000,11.466000,863.86001685,0.000000,0.00000000,51.03174257,0.000000,403.45229268,369.92772178,36.78230286,0.00000000,2.47298701,0.14913839,0.00928838,0.03454318,4.82410543,0.00101555,0.00137332,0.00142992,0.00026929,2.15433640,2.51780410,0.14787684,0.00008463,0.00068666,0.00057197,0.00053857,2.95753685,1.25890205,2.69292050
3.800,2,1,1,-531.684,190.568,49.687,37.929831,-0.654812,-0.654812,-38.584643,-7.176296,nan,0.325879,0.060265,-0.888085,0.196820,0.277965,0.670932,-0.472690,0.876335,0.798389,55.733000,-44.267000,100.000000,11.466000,853.15813807,0.000000,0.00000000,47.24650455,0.000000,402.17336508,368.56072821,32.59159983,0.00000000,2.39333462,0.14951777,0.00960961,0.03347839,4.90068648,0.00101674,0.00139800,0.00148397,0.00027235,2.18698470,2.55709529,0.15243542,0.00008473,0.00069900,0.00059359,0.00054470,3.04870839,1.27854764,2.73373088
3.900,2,1,1,-531.657,190.604,49.661,37.253504,-0.696477,-0.696477,-37.949981,-6.947113,nan,0.382913,0.016302,-0.315127,0.151234,0.274193,0.590304,-1.303479,0.798736,0.793478,60.500000,-39.500000,100.000000,21.000000,852.42745955,0.000000,0.00000000,49.20737991,0.000000,400.77676260,367.07902510,32.78900228,0.00000000,2.38987042,0.14832052,0.00822567,0.02887305,4.98342212,0.00101684,0.00141925,0.00149154,0.00029825,2.22211258,2.59942312,0.15766054,0.00008474,0.00070963,0.00059662,0.00059650,3.15321076,1.29971156,2.77764072
4.000,2,1,1,-531.644,190.621,49.648,36.662637,-0.716724,-0.716724,-37.379361,-5.987409,nan,0.404718,-0.024789,-0.888085,0.108523,0.270591,0.525177,-1.518338,0.720592,0.787589,57.750000,-42.250000,100.000000,15.500000,851.44240295,0.000000,0.00000000,49.89102636,0.000000,400.76734227,367.19470981,31.07227989,0.00000000,2.32996318,0.14812782,0.00918022,0.02977339,5.06378433,0.00101706,0.00143606,0.00155161,0.00033337,2.25616497,2.64050014,0.16278112,0.00008476,0.00071803,0.00062064,0.00066673,3.25562248,1.32025007,2.82020621
4.100,2,1,1,-531.616,190.658,49.620,35.999121,-0.759382,-0.759382,-36.758503,-7.133325,nan,0.466930,-0.065993,0.243507,0.063258,0.267308,0.456410,-0.114592,0.626869,0.780854,60.500000,-39.500000,100.000000,21.000000,849.81340204,0.000000,0.00000000,51.79822674,0.000000,399.54117143,365.96301531,30.02209042,0.00000000,2.30511698,0.14730935,0.00854479,0.02792701,5.14171236,0.00101866,0.00144875,0.00155612,0.00033357,2.28909001,2.68026404,0.16800122,0.00008489,0.00072437,0.00062245,0.00066713,3.36002432,1.34013202,2.86136252
4.324,2,1,1,-531.616,190.658,49.620,35.999121,-0.759382,-0.759382,-36.758503,-7.133325,nan,0.466930,-0.065993,0.243507,0.063258,0.260421,0.456410,-0.114592,0.626869,0.766804,60.500000,-39.500000,100.000000,21.000000,849.81328104,0.000000,0.00000000,51.79822674,0.000000,399.54117143,365.96301531,30.02209042,0.00000000,2.30511698,0.14730935,0.00842379,0.02792701,5.31578375,0.00102221,0.00147709,0.00156621,0.00033401,2.36263620,2.76908645,0.17966157,0.00008518,0.00073855,0.00062648,0.00066803,3.59323149,1.38454323,2.95329525
4.400,2,1,1,-531.524,190.769,49.530,34.048263,-0.889799,-0.889799,-34.938062,-6.259564,nan,0.371073,-0.166407,-0.544310,0.089239,0.259011,0.245836,-1.045648,0.491028,0.760501,60.500000,-39.500000,100.000000,21.000000,838.85295430,0.000000,0.00000000,47.13543150,0.000000,398.16881240,364.46637907,26.70537800,0.00000000,2.19433651,0.14778273,0.00885614,0.02597794,5.37025417,0.00102997,0.00147991,0.00158350,0.00034678,2.38543649,2.79671456,0.18366296,0.00008583,0.00073996,0.00063340,0.00069355,3.67325914,1.39835728,2.98179561
4.500,2,1,1,-531.491,190.807,49.498,33.410916,-0.934027,-0.934027,-34.344943,-6.417127,nan,0.466942,-0.198675,-0.931056,0.123084,0.257769,0.175302,-0.286479,0.401118,0.752084,60.500000,-39.500000,100.000000,21.000000,837.68766486,0.000000,0.00000000,49.23769472,0.000000,397.11441182,363.47766546,25.51662478,0.00000000,2.15949735,0.14697503,0.00908318,0.02571252,5.43914438,0.00104439,0.00148179,0.00164949,0.00034803,2.41417026,2.83156910,0.18888132,0.00008703,0.00074089,0.00065980,0.00069605,3.77762643,1.41578455,3.01771282
4.600,2,1,1,-531.457,190.845,49.465,32.778508,-0.978590,-0.978590,-33.757098,-5.271212,nan,0.526326,-0.226326,-0.673225,0.159257,0.257095,0.113242,-0.257831,0.310096,0.743658,60.500000,-39.500000,100.000000,21.000000,836.82428444,0.000000,0.00000000,50.91673727,0.000000,396.12651612,362.53155346,24.95058692,0.00000000,2.11886690,0.14623951,0.00911033,0.02467394,5.50613043,0.00106318,0.00148257,0.00168412,0.00034904,2.44203201,2.86540043,0.19411908,0.00008860,0.00074128,0.00067365,0.00069808,3.88238163,1.43270021,3.05254001
4.700,2,1,1,-531.423,190.883,49.430,32.150284,-1.023411,-1.023411,-33.173695,-6.789550,nan,0.576885,-0.246966,-1.059972,0.193520,0.256875,0.061549,-0.257831,0.212444,0.735431,63.250000,-36.750000,100.000000,26.500000,833.96821832,0.000000,0.00000000,51.97468325,0.000000,394.71816292,361.06894652,23.94099872,0.00000000,2.08753974,0.14574195,0.00867820,0.02346702,5.57080420,0.00108541,0.00148280,0.00176942,0.00035005,2.46876700,2.89789596,0.19945357,0.00009045,0.00074140,0.00070777,0.00070010,3.98907139,1.44894798,3.08595875
4.800,2,1,1,-531.387,190.921,49.395,31.526863,-1.068439,-1.068439,-32.595302,-6.331184,nan,0.595922,-0.263072,0.071620,0.218943,0.257011,0.018187,-0.501338,0.152834,0.727399,63.250000,-36.750000,100.000000,26.500000,831.66946702,0.000000,0.00000000,52.40826129,0.000000,393.79147604,360.14306971,23.08997690,0.00000000,2.05986664,0.14526614,0.00872774,0.02282255,5.63357266,0.00111070,0.00148282,0.00176981,0.00035388,2.49465661,2.92939452,0.20480433,0.00009256,0.00074141,0.00070792,0.00070776,4.09608666,1.46469726,3.11832076
5.029,2,1,1,-531.387,190.921,49.395,31.526863,-1.068439,-1.068439,-32.595302,-6.331184,nan,0.595922,-0.263072,0.071620,0.218943,0.257302,0.018187,-0.501338,0.152834,0.709954,63.250000,-36.750000,100.000000,26.500000,831.66946702,0.000000,0.00000000,52.40826129,0.000000,393.79147604,360.14306971,23.08997690,0.00000000,2.05986664,0.14526614,0.00872774,0.02282255,5.77731687,0.00116863,0.00148287,0.00177070,0.00036265,2.55394563,3.00152844,0.21705796,0.00009739,0.00074143,0.00070828,0.00072529,4.34115919,1.50076422,3.19243203
5.100,2,1,1,-531.272,191.036,49.283,29.743876,-1.204729,-1.204729,-30.948605,-5.557691,nan,0.470256,-0.293460,-1.403747,0.253627,0.257862,-0.069092,-0.358099,0.089438,0.704835,64.625000,-35.375000,100.000000,29.250000,820.96192315,0.000000,0.00000000,47.66282444,0.000000,392.03084403,358.21959458,20.87529876,0.00000000,1.99813027,0.14614734,0.00848557,0.02059816,5.81813609,0.00119101,0.00148307,0.00187737,0.00036403,2.57053668,3.02176790,0.22091602,0.00009925,0.00074154,0.00075095,0.00072807,4.41832048,1.51088395,3.21317085
5.200,2,1,1,-531.232,191.075,49.243,29.143914,-1.250442,-1.250442,-30.394356,-5.271212,nan,0.519766,-0.296029,-0.257831,0.271481,0.258680,-0.079388,-0.186211,0.066817,0.697850,64.625000,-35.375000,100.000000,29.250000,817.66596643,0.000000,0.00000000,47.30731659,0.000000,390.99469092,357.13688638,20.04888376,0.00000000,2.00374226,0.14569697,0.00866321,0.02008635,5.87353041,0.00122300,0.00148346,0.00188242,0.00036456,2.59302047,3.04921970,0.22633680,0.00010192,0.00074173,0.00075297,0.00072912,4.52673593,1.52460985,3.24127559
5.300,2,1,1,-531.190,191.113,49.203,28.620897,-1.296226,-1.296226,-29.917123,-4.855817,nan,0.527436,-0.293992,-1.059972,0.282924,0.259419,-0.080256,-0.014324,0.063699,0.691062,64.625000,-35.375000,100.000000,29.250000,814.09536330,0.000000,0.00000000,46.23124846,0.000000,390.09114028,356.16715563,19.42240145,0.00000000,2.00957510,0.14549431,0.00877048,0.01957761,5.92757449,0.00125462,0.00148385,0.00196804,0.00036456,2.61484680,3.07588834,0.23176828,0.00010455,0.00074192,0.00078722,0.00072913,4.63536563,1.53794417,3.26855850
5.400,2,1,1,-531.148,191.151,49.161,28.031481,-1.342039,-1.342039,-29.373519,-6.345508,nan,0.544923,-0.287906,0.572958,0.290895,0.259996,-0.072811,0.014324,0.069816,0.684466,65.312500,-34.687500,100.000000,30.625000,809.55972578,0.000000,0.00000000,45.22967059,0.000000,389.00611086,355.00878131,18.12514521,0.00000000,2.01598031,0.14534123,0.00914974,0.01954653,5.97978221,0.00128488,0.00148417,0.00199302,0.00036457,2.63585078,3.10157329,0.23723150,0.00010707,0.00074209,0.00079721,0.00072913,4.74462998,1.55078664,3.29481347
5.500,2,1,1,-531.104,191.190,49.119,27.493501,-1.387871,-1.387871,-28.881373,-5.600662,nan,0.532125,-0.280437,0.415394,0.291451,0.260396,-0.058293,0.515662,0.073229,0.678022,65.656000,-34.344000,100.000000,31.312000,805.94463367,0.000000,0.00000000,43.84902221,0.000000,388.13732766,354.06089769,17.70591868,0.00000000,2.01837690,0.14534824,0.00901454,0.01872774,6.03054246,0.00131364,0.00148438,0.00200616,0.00036862,2.65618647,3.12645921,0.24272398,0.00010947,0.00074219,0.00080247,0.00073724,4.85447958,1.56322960,3.32023309
5.725,2,1,1,-531.104,191.190,49.119,27.493501,-1.387871,-1.387871,-28.881373,-5.600662,nan,0.532125,-0.280437,0.415394,0.291451,0.261244,-0.058293,0.515662,0.073229,0.664158,65.828000,-34.172000,100.000000,31.656000,805.93398072,0.000000,0.00000000,43.85074857,0.000000,388.11437111,354.03245252,17.74412824,0.00000000,2.01930683,0.14537592,0.00894990,0.01864762,6.14489203,0.00137842,0.00148484,0.00203577,0.00037774,2.70198770,3.18250869,0.25511886,0.00011487,0.00074242,0.00081431,0.00075549,5.10237720,1.59125435,3.37748462
5.800,2,1,1,-530.990,191.286,49.007,25.881474,-1.503299,-1.503299,-27.384773,-5.729578,nan,0.428116,-0.244249,0.214859,0.279354,0.261024,0.036120,0.787817,0.062103,0.659726,65.914000,-34.086000,100.000000,31.828000,796.53250070,0.000000,0.00000000,39.87169198,0.000000,386.57568687,352.41849833,15.50512601,0.00000000,1.98826676,0.14611783,0.00939732,0.01771561,6.17942982,0.00139471,0.00148490,0.00203840,0.00038481,2.71564114,3.19925307,0.25923278,0.00011623,0.00074245,0.00081536,0.00076961,5.18465560,1.59962654,3.39455143
5.900,2,1,1,-530.943,191.323,48.961,25.313618,-1.548956,-1.548956,-26.862574,-5.400127,nan,0.577148,-0.225300,-0.529986,0.266140,0.260439,0.087583,-0.272155,0.058031,0.654013,65.957000,-34.043000,100.000000,31.914000,794.30700889,0.000000,0.00000000,41.29396236,0.000000,385.03834194,350.86207969,14.90255461,0.00000000,2.03804318,0.14507467,0.00970949,0.01724296,6.22416961,0.00141327,0.00148537,0.00205980,0.00038594,2.73323496,3.22084544,0.26474482,0.00011777,0.00074269,0.00082392,0.00077187,5.29489649,1.61042272,3.41654370
6.000,2,1,1,-530.895,191.361,48.914,24.749236,-1.594480,-1.594480,-26.343716,-4.469071,nan,0.653725,-0.204958,-0.000000,0.249348,0.259584,0.145640,-0.444042,0.072192,0.648635,65.978500,-34.021500,100.000000,31.957000,791.94343972,0.000000,0.00000000,42.03400456,0.000000,383.68209049,349.47713777,14.47639342,0.00000000,2.10317426,0.14429864,0.00981796,0.01652263,6.26736675,0.00142862,0.00148666,0.00205980,0.00038894,2.75014098,3.24160829,0.27025345,0.00011905,0.00074333,0.00082392,0.00077788,5.40506906,1.62080415,3.43767623
6.100,2,1,1,-530.847,191.398,48.867,24.187882,-1.639849,-1.639849,-25.827731,-5.471747,nan,0.698003,-0.184090,-0.644578,0.229270,0.258488,0.209042,-0.529986,0.107088,0.643689,65.989000,-34.011000,100.000000,31.978000,788.64773614,0.000000,0.00000000,42.17800345,0.000000,382.39642950,348.15976000,13.57435952,0.00000000,2.16831031,0.14375456,0.01044240,0.01667640,6.30917130,0.00144101,0.00148933,0.00209145,0.00039322,2.76640013,3.26159039,0.27576577,0.00012008,0.00074466,0.00083658,0.00078643,5.51531542,1.63079520,3.45800016
6.317,2,1,1,-530.847,191.398,48.867,24.187882,-1.639849,-1.639849,-25.827731,-5.471747,nan,0.698003,-0.184090,-0.644578,0.229270,0.256217,0.209042,-0.529986,0.107088,0.633388,65.994500,-34.005500,100.000000,31.989000,788.64641628,0.000000,0.00000000,42.17784300,0.000000,382.39567380,348.15882755,13.57485990,0.00000000,2.16834277,0.14375536,0.01044015,0.01667374,6.39991965,0.00146791,0.00149511,0.00216014,0.00040250,2.80169482,3.30496672,0.28773245,0.00012233,0.00074755,0.00086406,0.00080501,5.75464898,1.65248336,3.50211852
6.400,2,1,1,-530.696,191.509,48.719,22.473726,-1.774676,-1.774676,-24.248402,-5.915789,nan,0.549411,-0.112988,0.057296,0.186592,0.254830,0.434755,0.601606,0.253962,0.631140,65.997500,-34.002500,100.000000,31.995000,779.48351064,0.000000,0.00000000,38.32351864,0.000000,380.47527246,346.20165433,12.01636942,0.00000000,2.29488588,0.14489624,0.01044237,0.01647130,6.43108084,0.00147179,0.00150467,0.00216035,0.00040708,2.81359907,3.31962625,0.29231163,0.00012265,0.00075234,0.00086414,0.00081417,5.84623256,1.65981313,3.51699884
6.500,2,1,1,-530.644,191.545,48.669,21.965031,-1.819087,-1.819087,-23.784118,-5.915789,nan,0.639514,-0.090720,0.487014,0.161670,0.253063,0.508260,-0.286479,0.329780,0.629382,65.999000,-34.001000,100.000000,31.998000,776.54545117,0.000000,0.00000000,38.52919118,0.000000,379.07411424,344.74823751,11.65044717,0.00000000,2.37219716,0.14426242,0.01064582,0.01635568,6.46730555,0.00147479,0.00152037,0.00217837,0.00040833,2.82734787,3.33656688,0.29780894,0.00012290,0.00076018,0.00087135,0.00081666,5.95617876,1.66828344,3.53418484
6.600,2,1,1,-530.592,191.581,48.618,21.413415,-1.863201,-1.863201,-23.276616,-6.245240,nan,0.692224,-0.067404,-0.157563,0.132190,0.251219,0.588746,0.272155,0.415960,0.628767,66.000000,-28.000000,94.000000,38.000000,773.24324399,0.000000,0.00000000,38.49274326,0.000000,377.76119188,343.37327433,11.00321843,0.00000000,2.45086158,0.14101221,0.00798836,0.01295394,6.50196316,0.00147645,0.00154149,0.00218026,0.00040946,2.84055504,3.35285004,0.30295042,0.00012304,0.00077075,0.00087210,0.00081892,6.05900845,1.67642502,3.55069381
6.700,2,1,1,-530.539,191.616,48.566,20.865973,-1.906991,-1.906991,-22.772964,-5.042029,nan,0.722404,-0.045670,-0.572958,0.101139,0.249344,0.668736,1.618606,0.503003,0.629401,66.000000,-28.000000,94.000000,38.000000,770.39763786,0.000000,0.00000000,38.35886464,0.000000,376.53524137,342.10228418,10.71503356,0.00000000,2.52572753,0.14054691,0.00770086,0.01223882,6.53541600,0.00147721,0.00156873,0.00220525,0.00044935,2.85318979,3.36843664,0.30808903,0.00012310,0.00078437,0.00088210,0.00089870,6.16178066,1.68421832,3.56648723
6.800,2,1,1,-530.486,191.651,48.514,20.328478,-1.950342,-1.950342,-22.278821,-5.314184,nan,0.697041,-0.023634,-0.114592,0.078982,0.247465,0.747499,0.272155,0.581046,0.631355,66.000000,-28.000000,94.000000,38.000000,766.60873679,0.000000,0.00000000,37.11118747,0.000000,375.56943771,341.08461759,10.09956582,0.00000000,2.58335757,0.14053826,0.00793476,0.01209761,6.56761250,0.00147741,0.00160277,0.00220625,0.00045048,2.86528335,3.38336409,0.31322815,0.00012312,0.00080138,0.00088250,0.00090096,6.26456296,1.69168204,3.58160419
7.008,2,1,1,-530.486,191.651,48.514,20.328478,-1.950342,-1.950342,-22.278821,-5.314184,nan,0.697041,-0.023634,-0.114592,0.078982,0.243684,0.747499,0.272155,0.581046,0.635224,66.000000,-28.000000,94.000000,38.000000,766.60873679,0.000000,0.00000000,37.11118747,0.000000,375.56943771,341.08461759,10.09956582,0.00000000,2.58335757,0.14053826,0.00793476,0.01209761,6.63470425,0.00147784,0.00167369,0.00220833,0.00045283,2.89048419,3.41447022,0.32393715,0.00012315,0.00083685,0.00088333,0.00090566,6.47874295,1.70723511,3.61310523
7.100,2,1,1,-530.323,191.753,48.355,18.764515,-2.077433,-2.077433,-20.841948,-4.884465,nan,0.666705,0.038845,-0.200535,0.047199,0.242101,0.965762,0.300803,0.755420,0.640735,66.000000,-28.000000,94.000000,38.000000,757.86940003,0.000000,0.00000000,34.88359118,0.000000,372.94322320,338.42116199,8.72830387,0.00000000,2.73282368,0.14072253,0.00830892,0.01126466,6.66117913,0.00147835,0.00172579,0.00221114,0.00045409,2.90019021,3.42646956,0.32864999,0.00012320,0.00086290,0.00088446,0.00090819,6.57299986,1.71323478,3.62523776
7.200,2,1,1,-530.268,191.786,48.301,18.357251,-2.118839,-2.118839,-20.476090,-5.486071,nan,0.613508,0.052122,-0.601606,0.039829,0.240446,1.016229,0.014324,0.830979,0.647636,66.000000,-28.000000,94.000000,38.000000,753.83167519,0.000000,0.00000000,32.77981149,0.000000,372.19705431,337.61382379,8.32587034,0.00000000,2.75415174,0.14109682,0.00852022,0.01134646,6.68927100,0.00147934,0.00178872,0.00223871,0.00045410,2.91041000,3.43910891,0.33379121,0.00012328,0.00089436,0.00089548,0.00090819,6.67582429,1.71955446,3.63801250
7.300,2,1,1,-530.213,191.818,48.247,17.852774,-2.159733,-2.159733,-20.012506,-4.597986,nan,0.626444,0.067877,-0.916732,0.041403,0.238883,1.073466,0.257831,0.919578,0.655554,66.000000,-28.000000,94.000000,38.000000,750.50291241,0.000000,0.00000000,31.86441466,0.000000,371.14319367,336.50839433,8.02619365,0.00000000,2.80047086,0.14094487,0.00850416,0.01079621,6.71637493,0.00148102,0.00185890,0.00230269,0.00045511,2.92016660,3.45118117,0.33892945,0.00012342,0.00092945,0.00092108,0.00091022,6.77858893,1.72559058,3.65020825
7.400,2,1,1,-530.157,191.850,48.193,17.352785,-2.200088,-2.200088,-19.552873,-4.139620,nan,0.629913,0.083306,1.102944,0.052411,0.237421,1.123800,-0.572958,1.001291,0.664323,66.000000,-28.000000,94.000000,38.000000,747.16684500,0.000000,0.00000000,30.89578928,0.000000,370.13050809,335.45042974,7.69089864,0.00000000,2.83933630,0.14087272,0.00858196,0.01042827,6.74254776,0.00148356,0.00193586,0.00239535,0.00046011,2.92948535,3.46271700,0.34407053,0.00012363,0.00096793,0.00095814,0.00092022,6.88141067,1.73135850,3.66185668
7.614,2,1,1,-530.157,191.850,48.193,17.352785,-2.200088,-2.200088,-19.552873,-4.139620,nan,0.629913,0.083306,1.102944,0.052411,0.234401,1.123800,-0.572958,1.001291,0.681917,66.000000,-28.000000,94.000000,38.000000,747.16684500,0.000000,0.00000000,30.89578928,0.000000,370.13050809,335.45042974,7.69089864,0.00000000,2.83933630,0.14087272,0.00858196,0.01042827,6.79847385,0.00148898,0.00210031,0.00259335,0.00047080,2.94939765,3.48736676,0.35505601,0.00012408,0.00105015,0.00103734,0.00094159,7.10112016,1.74368338,3.68674707
7.700,2,1,1,-529.989,191.943,48.028,15.874241,-2.318013,-2.318013,-18.192255,-5.170944,nan,0.560294,0.118780,-0.988352,0.084705,0.233397,1.226832,0.329451,1.112855,0.690632,66.000000,-28.000000,94.000000,38.000000,738.76319816,0.000000,0.00000000,28.16006752,0.000000,367.78033547,333.09286990,6.68498814,0.00000000,2.88370275,0.14162255,0.00927513,0.01033670,6.81863562,0.00149343,0.00217940,0.00265751,0.00047222,2.95635413,3.49598954,0.35948939,0.00012445,0.00108970,0.00106300,0.00094445,7.18978773,1.74799477,3.69544267
7.800,2,1,1,-529.932,191.972,47.973,15.387057,-2.356278,-2.356278,-17.743334,-4.741226,nan,0.593467,0.126535,0.300803,0.100134,0.232310,1.243020,0.916732,1.164404,0.700732,66.000000,-28.000000,94.000000,38.000000,735.48474834,0.000000,0.00000000,27.41392340,0.000000,366.66332636,331.92664639,6.41610260,0.00000000,2.90393046,0.14142425,0.00939360,0.01000127,6.84107963,0.00149928,0.00227352,0.00266440,0.00048502,2.96402573,3.50550264,0.36462904,0.00012494,0.00113676,0.00106576,0.00097004,7.29258071,1.75275132,3.70503216
7.900,2,1,1,-529.876,192.002,47.917,14.902111,-2.393989,-2.393989,-17.296101,-4.010705,nan,0.612961,0.133552,-0.186211,0.113560,0.231298,1.249814,-0.429718,1.205155,0.710590,66.000000,-28.000000,94.000000,38.000000,732.30367277,0.000000,0.00000000,26.70363482,0.000000,365.57727123,330.79781802,6.14886358,0.00000000,2.91587601,0.14124027,0.00942067,0.00954817,6.86266538,0.00150580,0.00236871,0.00266704,0.00048783,2.97131751,3.51454836,0.36977013,0.00012548,0.00118435,0.00106682,0.00097567,7.39540259,1.75727418,3.71414688
8.000,2,1,1,-529.819,192.030,47.862,14.419117,-2.431151,-2.431151,-16.850268,-5.113648,nan,0.622708,0.139542,-0.257831,0.124542,0.230354,1.247381,-0.257831,1.232641,0.719999,66.000000,-28.000000,94.000000,38.000000,729.32120478,0.000000,0.00000000,26.00421920,0.000000,364.53168323,329.71886589,5.98629912,0.00000000,2.91905611,0.14124339,0.00996036,0.00987749,6.88339803,0.00151291,0.00246340,0.00267210,0.00048885,2.97822959,3.52312637,0.37490481,0.00012608,0.00123170,0.00106884,0.00097769,7.49809623,1.76156318,3.72278698
8.100,2,1,1,-529.762,192.058,47.806,13.995494,-2.467781,-2.467781,-16.463275,-4.941761,nan,0.626637,0.143261,-0.128916,0.130918,0.229457,1.237703,-1.231859,1.240912,0.728867,66.000000,-28.000000,94.000000,38.000000,726.38893204,0.000000,0.00000000,25.31218732,0.000000,363.51691986,328.67365165,5.80760949,0.00000000,2.91758582,0.14118513,0.01010554,0.00968723,6.90349745,0.00152043,0.00255687,0.00267337,0.00051199,2.98484435,3.53133809,0.38005236,0.00012670,0.00127844,0.00106935,0.00102399,7.60104713,1.76566904,3.73105544
8.349,2,1,1,-529.762,192.058,47.806,13.995494,-2.467781,-2.467781,-16.463275,-4.941761,nan,0.626637,0.143261,-0.128916,0.130918,0.227308,1.237703,-1.231859,1.240912,0.749546,66.000000,-28.000000,94.000000,38.000000,726.38893204,0.000000,0.00000000,25.31218732,0.000000,363.51691986,328.67365165,5.80760949,0.00000000,2.91758582,0.14118513,0.01010554,0.00968723,6.95346586,0.00153911,0.00278923,0.00267652,0.00056954,3.00128906,3.55175293,0.39284947,0.00012826,0.00139462,0.00107061,0.00113907,7.85698948,1.77587647,3.75161132
8.400,2,1,1,-529.590,192.140,47.638,12.559334,-2.574504,-2.574504,-15.133838,-4.526367,nan,0.496480,0.145755,-0.558634,0.138447,0.226891,1.153291,-0.186211,1.226107,0.752729,66.000000,-16.000000,82.000000,50.000000,718.95511507,0.000000,0.00000000,23.03688875,0.000000,361.45821940,326.66478130,4.78507213,0.00000000,2.86163372,0.13840657,0.00508292,0.00503026,6.96226466,0.00154307,0.00283058,0.00268864,0.00056981,3.00413719,3.55529244,0.39520293,0.00012859,0.00141529,0.00107546,0.00113961,7.90405857,1.77764622,3.75517148
8.500,2,1,1,-529.533,192.166,47.582,12.088270,-2.608969,-2.608969,-14.697239,-4.397451,nan,0.555111,0.143708,-0.644578,0.142025,0.226069,1.108964,-0.988352,1.200895,0.758033,66.000000,-16.000000,82.000000,50.000000,715.54829140,0.000000,0.00000000,22.38982618,0.000000,360.27025534,325.42528306,4.45990218,0.00000000,2.85599630,0.13812323,0.00405027,0.00485483,6.97886084,0.00155064,0.00290572,0.00272037,0.00058473,3.00941620,3.56185510,0.39982808,0.00012922,0.00145286,0.00108815,0.00116945,7.99656157,1.78092755,3.76177025
8.600,2,1,1,-529.475,192.191,47.526,11.635985,-2.642680,-2.642680,-14.278665,-3.924761,nan,0.565616,0.141700,0.186211,0.143631,0.225253,1.057661,-0.873761,1.163924,0.762276,66.000000,-16.000000,82.000000,50.000000,712.29076461,0.000000,0.00000000,21.45242185,0.000000,359.26027012,324.37597104,4.22401764,0.00000000,2.83132237,0.13807232,0.00407694,0.00461232,6.99464907,0.00155795,0.00297361,0.00272301,0.00059631,3.01436569,3.56801001,0.40442249,0.00012983,0.00148681,0.00108920,0.00119262,8.08844980,1.78400501,3.76795711
8.700,2,1,1,-529.418,192.216,47.469,11.234956,-2.675639,-2.675639,-13.910595,-4.469071,nan,0.576148,0.140032,-0.171887,0.143707,0.224439,1.004928,-1.375099,1.120782,0.765579,66.000000,-16.000000,82.000000,50.000000,708.88719239,0.000000,0.00000000,20.54003620,0.000000,358.22371675,323.30100996,3.87201457,0.00000000,2.80355706,0.13800831,0.00422697,0.00462257,7.00994553,0.00156512,0.00303515,0.00272526,0.00062512,3.01908237,3.57387696,0.40903556,0.00013043,0.00151758,0.00109010,0.00125023,8.18071110,1.78693848,3.77385296
8.800,2,1,1,-529.360,192.240,47.413,10.813430,-2.707907,-2.707907,-13.521337,-3.939085,nan,0.583235,0.136788,-0.673225,0.142254,0.223618,0.942294,-1.002676,1.069930,0.767867,66.000000,-16.000000,82.000000,50.000000,705.77162527,0.000000,0.00000000,19.71315289,0.000000,357.20857106,322.25105395,3.68285452,0.00000000,2.76941893,0.13794584,0.00424592,0.00438216,7.02466023,0.00157196,0.00308922,0.00275976,0.00064042,3.02353567,3.57941780,0.41364541,0.00013100,0.00154461,0.00110390,0.00128084,8.27290819,1.78970890,3.77941959
9.007,2,1,1,-529.360,192.240,47.413,10.813430,-2.707907,-2.707907,-13.521337,-3.939085,nan,0.583235,0.136788,-0.673225,0.142254,0.221967,0.942294,-1.002676,1.069930,0.772418,66.000000,-16.000000,82.000000,50.000000,705.77162527,0.000000,0.00000000,19.71315289,0.000000,357.20857106,322.25105395,3.68285452,0.00000000,2.76941893,0.13794584,0.00424592,0.00438216,7.05513199,0.00158611,0.00320119,0.00283120,0.00067212,3.03275773,3.59089197,0.42319167,0.00013218,0.00160060,0.00113248,0.00134423,8.46383338,1.79544599,3.79094716
9.100,2,1,1,-529.215,192.297,47.271,9.744215,-2.785128,-2.785128,-12.529343,-3.165592,nan,0.542539,0.119335,0.214859,0.135144,0.221140,0.754265,-1.675902,0.955899,0.772231,66.000000,-16.000000,82.000000,50.000000,699.37531464,0.000000,0.00000000,18.02410718,0.000000,355.16220351,320.21789302,3.15432674,0.00000000,2.67026458,0.13834220,0.00425260,0.00392481,7.06750755,0.00159096,0.00323348,0.00283447,0.00071196,3.03632098,3.59532832,0.42748738,0.00013258,0.00161674,0.00113379,0.00142392,8.54974755,1.79766416,3.79540123
9.200,2,1,1,-529.157,192.319,47.214,9.363643,-2.815129,-2.815129,-12.178772,-2.936409,nan,0.565910,0.112539,-0.472690,0.129291,0.220228,0.679688,-0.716197,0.875824,0.771264,66.000000,-16.000000,82.000000,50.000000,696.08520648,0.000000,0.00000000,17.21479142,0.000000,354.05940211,319.06867993,2.97649034,0.00000000,2.61954607,0.13818888,0.00432699,0.00378075,7.08029005,0.00159559,0.00326161,0.00285148,0.00071977,3.03993472,3.59982850,0.43209836,0.00013297,0.00163081,0.00114059,0.00143954,8.64196727,1.79991425,3.79991840
9.300,2,1,1,-529.098,192.340,47.156,8.991210,-2.844502,-2.844502,-11.835712,-2.535338,nan,0.582653,0.105226,-0.931056,0.122207,0.219292,0.604359,-1.690225,0.789644,0.769627,66.000000,-16.000000,82.000000,50.000000,692.91315389,0.000000,0.00000000,16.49526446,0.000000,352.95754370,317.92481574,2.82512856,0.00000000,2.56439069,0.13802832,0.00437813,0.00360429,7.09269495,0.00159964,0.00328385,0.00291745,0.00076325,3.04334608,3.60407756,0.43670712,0.00013330,0.00164193,0.00116698,0.00152651,8.73414231,1.80203878,3.80418260
9.400,2,1,1,-529.039,192.361,47.099,8.625929,-2.873292,-2.873292,-11.499221,-2.836141,nan,0.590117,0.096270,0.529986,0.113904,0.218328,0.529261,-0.873761,0.699870,0.767419,66.000000,-16.000000,82.000000,50.000000,689.75530035,0.000000,0.00000000,15.76232133,0.000000,351.88967661,316.82211435,2.63051631,0.00000000,2.50463379,0.13793127,0.00451783,0.00358887,7.10460005,0.00160302,0.00330092,0.00293885,0.00077488,3.04656922,3.60809299,0.44132016,0.00013359,0.00165046,0.00117554,0.00154977,8.82640323,1.80404649,3.80821153
9.606,2,1,1,-529.039,192.361,47.099,8.625929,-2.873292,-2.873292,-11.499221,-2.836141,nan,0.590117,0.096270,0.529986,0.113904,0.216396,0.529261,-0.873761,0.699870,0.763005,66.000000,-16.000000,82.000000,50.000000,689.75530035,0.000000,0.00000000,15.76232133,0.000000,351.88967661,316.82211435,2.63051631,0.00000000,2.50463379,0.13793127,0.00451783,0.00358887,7.12908755,0.00160999,0.00333603,0.00298286,0.00079881,3.05319888,3.61635228,0.45080869,0.00013417,0.00166802,0.00119314,0.00159762,9.01617389,1.80817614,3.81649861
9.700,2,1,1,-528.861,192.420,46.924,7.564922,-2.956255,-2.956255,-10.521178,-3.495043,nan,0.501836,0.063152,0.916732,0.094959,0.215411,0.315481,-0.959704,0.541809,0.759860,66.000000,-14.000000,80.000000,52.000000,682.83629238,0.000000,0.00000000,13.96280576,0.000000,349.60426147,314.60377294,2.15676121,0.00000000,2.36335845,0.13829490,0.00398221,0.00305544,7.13917334,0.00161137,0.00334175,0.00304320,0.00081203,3.05574217,3.61952247,0.45510035,0.00013428,0.00167087,0.00121728,0.00162407,9.10200694,1.80976124,3.81967772
9.800,2,1,1,-528.802,192.439,46.865,7.222002,-2.982777,-2.982777,-10.204780,-3.752874,nan,0.559121,0.051823,-0.315127,0.082909,0.214351,0.251358,-0.845113,0.452768,0.756326,66.000000,-14.000000,80.000000,52.000000,679.42546589,0.000000,0.00000000,13.40245592,0.000000,348.30208882,313.23784877,2.02337672,0.00000000,2.31459773,0.13791889,0.00413151,0.00304752,7.14945302,0.00161235,0.00334560,0.00305076,0.00082291,3.05828063,3.62268717,0.45965359,0.00013436,0.00167280,0.00122030,0.00164583,9.19307179,1.81134358,3.82285079
9.900,2,1,1,-528.741,192.457,46.806,6.885546,-3.008720,-3.008720,-9.894266,-2.277507,nan,0.584275,0.039255,-0.501338,0.069370,0.213281,0.192249,-0.085944,0.362590,0.752672,66.000000,-14.000000,80.000000,52.000000,676.31289516,0.000000,0.00000000,12.82314181,0.000000,347.12200231,312.01090613,1.95343447,0.00000000,2.25904108,0.13764155,0.00405513,0.00267268,7.15938396,0.00161291,0.00334785,0.00306990,0.00082303,3.06066547,3.62566082,0.46420399,0.00013441,0.00167392,0.00122796,0.00164605,9.28407974,1.81283041,3.82583184
10.000,2,1,1,-528.681,192.474,46.747,6.555705,-3.034105,-3.034105,-9.589810,-3.423423,nan,0.600433,0.025818,-0.701873,0.055474,0.212206,0.138885,-0.487014,0.279280,0.748953,66.000000,-14.000000,80.000000,52.000000,673.16852147,0.000000,0.00000000,12.22187528,0.000000,345.96483017,310.81448094,1.81587135,0.00000000,2.20681455,0.13747815,0.00431510,0.00285593,7.16901607,0.00161316,0.00334902,0.00310742,0.00082664,3.06290696,3.62845614,0.46875673,0.00013443,0.00167451,0.00124297,0.00165328,9.37513462,1.81422807,3.82863370
10.208,2,1,1,-528.681,192.474,46.747,6.555705,-3.034105,-3.034105,-9.589810,-3.423423,nan,0.600433,0.025818,-0.701873,0.055474,0.210023,0.138885,-0.487014,0.279280,0.741401,66.000000,-14.000000,80.000000,52.000000,673.16852147,0.000000,0.00000000,12.22187528,0.000000,345.96483017,310.81448094,1.81587135,0.00000000,2.20681455,0.13747815,0.00431510,0.00285593,7.18904304,0.00161366,0.00335147,0.00318543,0.00083415,3.06756743,3.63426814,0.47822275,0.00013447,0.00167573,0.00127417,0.00166831,9.56445504,1.81713407,3.83445929
10.300,2,1,1,-528.498,192.524,46.567,5.620542,-3.106937,-3.106937,-8.727479,-3.108296,nan,0.533536,-0.015441,0.028648,0.035394,0.209068,0.021942,-0.658901,0.175389,0.738014,66.000000,-14.000000,80.000000,52.000000,666.67180487,0.000000,0.00000000,10.92586197,0.000000,343.49417442,308.41613394,1.57705291,0.00000000,2.11354874,0.13805443,0.00434023,0.00263823,7.19708757,0.00161374,0.00335150,0.00318549,0.00084025,3.06927773,3.63640189,0.48241698,0.00013448,0.00167575,0.00127420,0.00168049,9.64833962,1.81820094,3.83659716
10.400,2,1,1,-528.437,192.539,46.506,5.308432,-3.130130,-3.130130,-8.438562,-2.005352,nan,0.580962,-0.029923,-0.229183,0.026721,0.208062,-0.003249,0.071620,0.122187,0.734388,66.000000,-14.000000,80.000000,52.000000,663.34150994,0.000000,0.00000000,10.35878639,0.000000,342.20762425,307.07062617,1.47291710,0.00000000,2.08720735,0.13767302,0.00432289,0.00235277,7.20554453,0.00161407,0.00335150,0.00318949,0.00084032,3.07101305,3.63856712,0.48696897,0.00013451,0.00167575,0.00127580,0.00168065,9.73937943,1.81928356,3.83876632
10.500,2,1,1,-528.375,192.554,46.445,4.999504,-3.152789,-3.152789,-8.152292,-3.781521,nan,0.608412,-0.044402,-0.358099,0.025138,0.207096,-0.020395,-0.916732,0.073945,0.730818,66.000000,-14.000000,80.000000,52.000000,660.36478985,0.000000,0.00000000,9.85078882,0.000000,340.98263558,305.80065562,1.52396808,0.00000000,2.06181792,0.13748864,0.00471815,0.00271703,7.21375783,0.00161479,0.00335152,0.00319925,0.00085312,3.07263211,3.64058754,0.49151949,0.00013457,0.00167576,0.00127970,0.00170624,9.83038982,1.82029377,3.84079014
10.600,2,1,1,-528.313,192.569,46.384,4.693894,-3.174923,-3.174923,-7.868816,-1.933733,nan,0.626885,-0.059077,0.028648,0.032834,0.206179,-0.029394,-1.160240,0.031264,0.727303,66.000000,-14.000000,80.000000,52.000000,657.19990661,0.000000,0.00000000,9.32984276,0.000000,339.78221706,304.56020852,1.34468915,0.00000000,2.03896173,0.13717603,0.00455836,0.00225301,7.22172004,0.00161607,0.00335157,0.00319931,0.00087361,3.07414031,3.64246982,0.49606934,0.00013467,0.00167579,0.00127973,0.00174723,9.92138683,1.82123491,3.84267539
10.797,2,1,1,-528.313,192.569,46.384,4.693894,-3.174923,-3.174923,-7.868816,-1.933733,nan,0.626885,-0.059077,0.028648,0.032834,0.204410,-0.029394,-1.160240,0.031264,0.720512,66.000000,-14.000000,80.000000,52.000000,657.19990661,0.000000,0.00000000,9.32984276,0.000000,339.78221706,304.56020852,1.34468915,0.00000000,2.03896173,0.13717603,0.00455836,0.00225301,7.23743825,0.00161858,0.00335168,0.00319944,0.00091407,3.07711764,3.64618564,0.50505119,0.00013488,0.00167584,0.00127978,0.00182814,10.10102387,1.82309282,3.84639705
10.812,2,1,1,-528.280,192.576,46.352,4.306392,-3.186231,-3.186231,-7.492623,-3.294507,nan,0.505947,-0.077732,0.114592,0.034813,0.204290,-0.028992,-0.802141,0.029772,0.720017,66.000000,-14.000000,80.000000,52.000000,656.92776593,0.000000,0.00000000,8.55048550,0.000000,339.97008298,304.83928423,1.41317670,0.00000000,2.00940780,0.13814470,0.00466663,0.00251737,7.23855310,0.00161891,0.00335169,0.00319958,0.00091550,3.07731726,3.64643480,0.50571536,0.00013491,0.00167584,0.00127983,0.00183100,10.11430727,1.82321740,3.84664657
10.900,2,1,1,-528.124,192.610,46.198,3.791593,-3.238121,-3.238121,-7.029713,-2.005352,nan,0.552875,-0.100899,-0.759169,0.065230,0.203653,-0.007778,0.272155,0.019519,0.717047,66.000000,-14.000000,80.000000,52.000000,651.15007702,0.000000,0.00000000,8.31132634,0.000000,337.28556094,302.15881047,1.23816862,0.00000000,2.01160346,0.13779938,0.00464392,0.00216388,7.24499185,0.00162219,0.00335169,0.00323825,0.00091649,3.07837821,3.64775933,0.50972569,0.00013518,0.00167584,0.00129530,0.00183299,10.19451378,1.82387967,3.84797277
11.000,2,1,1,-528.061,192.622,46.136,3.495085,-3.258136,-3.258136,-6.753220,-2.220211,nan,0.594629,-0.113949,-0.458366,0.081698,0.203004,0.014956,0.401070,0.019621,0.713723,66.000000,-14.000000,80.000000,52.000000,648.06808968,0.000000,0.00000000,7.81245490,0.000000,336.01017197,300.83360969,1.24554384,0.00000000,2.02179754,0.13750765,0.00482019,0.00218390,7.25206266,0.00162693,0.00335170,0.00325424,0.00091894,3.07948907,3.64914629,0.51427549,0.00013558,0.00167585,0.00130170,0.00183788,10.28550972,1.82457315,3.84936133
11.100,2,1,1,-527.998,192.634,46.073,3.200212,-3.277618,-3.277618,-6.477829,-3.265859,nan,0.619048,-0.126012,-0.286479,0.097481,0.202431,0.044816,1.131592,0.023110,0.710455,66.000000,-2.000000,68.000000,64.000000,645.18201006,0.000000,0.00000000,7.42988679,0.000000,334.79203213,299.57612458,1.19540885,0.00000000,2.04805043,0.13590904,0.00393413,0.00066412,7.25875219,0.00163273,0.00335182,0.00326049,0.00093844,3.08051141,3.65042286,0.51863442,0.00013606,0.00167591,0.00130420,0.00187688,10.37268845,1.82521143,3.85063926
11.200,2,1,1,-527.934,192.646,46.010,2.913575,-3.296524,-3.296524,-6.210099,-2.922085,nan,0.633846,-0.138072,-0.028648,0.111939,0.201938,0.081291,1.145916,0.036042,0.707259,66.000000,-2.000000,68.000000,64.000000,642.28165338,0.000000,0.00000000,6.97492380,0.000000,333.60318299,298.35669460,1.12654919,0.00000000,2.08117152,0.13569822,0.00282573,0.00060733,7.26525680,0.00163970,0.00335223,0.00326055,0.00095845,3.08145177,3.65159716,0.52299694,0.00013664,0.00167611,0.00130422,0.00191690,10.45993872,1.82579858,3.85181471
11.300,2,1,1,-527.870,192.657,45.947,2.646612,-3.314659,-3.314659,-5.961271,-2.578310,nan,0.639749,-0.148400,-0.415394,0.124130,0.201520,0.123833,0.873761,0.060126,0.704165,66.000000,-2.000000,68.000000,64.000000,639.49492296,0.000000,0.00000000,6.51874893,0.000000,332.46010787,297.19116188,1.06902260,0.00000000,2.11692163,0.13554631,0.00285727,0.00055648,7.27159593,0.00164775,0.00335316,0.00327369,0.00097008,3.08231748,3.65267832,0.52735544,0.00013731,0.00167658,0.00130948,0.00194015,10.54710887,1.82633916,3.85289685
11.506,2,1,1,-527.870,192.657,45.947,2.646612,-3.314659,-3.314659,-5.961271,-2.578310,nan,0.639749,-0.148400,-0.415394,0.124130,0.200677,0.123833,0.873761,0.060126,0.697917,66.000000,-2.000000,68.000000,64.000000,639.49492296,0.000000,0.00000000,6.51874893,0.000000,332.46010787,297.19116188,1.06902260,0.00000000,2.11692163,0.13554631,0.00285727,0.00055648,7.28466679,0.00166435,0.00335509,0.00330078,0.00099404,3.08410252,3.65490761,0.53634240,0.00013870,0.00167754,0.00132031,0.00198809,10.72684802,1.82745381,3.85512815
11.600,2,1,1,-527.676,192.685,45.755,1.943019,-3.364547,-3.364547,-5.307566,-1.661578,nan,0.550087,-0.169601,-0.444042,0.146919,0.200441,0.281005,0.458366,0.159814,0.695504,66.000000,-2.000000,68.000000,64.000000,633.87185749,0.000000,0.00000000,5.66815156,0.000000,330.03521360,294.89761146,0.92719004,0.00000000,2.20429898,0.13627566,0.00268124,0.00043496,7.29024219,0.00167422,0.00335960,0.00331488,0.00099705,3.08474714,3.65571282,0.54043648,0.00013952,0.00167980,0.00132595,0.00199410,10.80872960,1.82785641,3.85593393
11.700,2,1,1,-527.611,192.694,45.691,1.734765,-3.379798,-3.379798,-5.114563,-3.036676,nan,0.593619,-0.174718,0.028648,0.157379,0.200232,0.340662,0.515662,0.216809,0.693203,66.000000,-2.000000,68.000000,64.000000,630.41228079,0.000000,0.00000000,5.06300531,0.000000,328.75020289,293.56596136,0.63640569,0.00000000,2.25758339,0.13594842,0.00272533,0.00044840,7.29605641,0.00168537,0.00336667,0.00331494,0.00100110,3.08538441,3.65650887,0.54479505,0.00014045,0.00168334,0.00132598,0.00200219,10.89590106,1.82825443,3.85673051
11.800,2,1,1,-527.546,192.701,45.626,1.560651,-3.394350,-3.394350,-4.955002,-2.005352,nan,0.618427,-0.177143,0.128916,0.165223,0.200044,0.395038,1.174563,0.271023,0.691181,66.000000,-2.000000,68.000000,64.000000,627.67627004,0.000000,0.00000000,4.66180783,0.000000,327.53425500,292.31747239,0.71862164,0.00000000,2.30521221,0.13572448,0.00278534,0.00039116,7.30180910,0.00169685,0.00337619,0.00331621,0.00102212,3.08598311,3.65725678,0.54915785,0.00014140,0.00168809,0.00132648,0.00204425,10.98315693,1.82862839,3.85747889
11.900,2,1,1,-527.481,192.709,45.562,1.371799,-3.408218,-3.408218,-4.780018,-1.418071,nan,0.621961,-0.177239,-0.974028,0.171558,0.199860,0.458184,1.890761,0.333154,0.689524,66.000000,-2.000000,68.000000,64.000000,625.11002952,0.000000,0.00000000,4.25410814,0.000000,326.42642671,291.19683533,0.73935476,0.00000000,2.35450874,0.13562806,0.00281174,0.00035604,7.30757120,0.00170833,0.00338897,0.00338844,0.00107656,3.08653979,3.65795223,0.55351688,0.00014236,0.00169449,0.00135538,0.00215312,11.07033755,1.82897611,3.85817474
12.096,2,1,1,-527.481,192.709,45.562,1.371799,-3.408218,-3.408218,-4.780018,-1.418071,nan,0.621961,-0.177239,-0.974028,0.171558,0.199508,0.458184,1.890761,0.333154,0.686342,66.000000,-2.000000,68.000000,64.000000,625.11002952,0.000000,0.00000000,4.25410814,0.000000,326.42642671,291.19683533,0.73935476,0.00000000,2.35450874,0.13562806,0.00281174,0.00035604,7.31887368,0.00173085,0.00341405,0.00353013,0.00118334,3.08763173,3.65931636,0.56206720,0.00014424,0.00170703,0.00141205,0.00236668,11.24134408,1.82965818,3.85953967
12.113,2,1,1,-527.447,192.712,45.528,1.156250,-3.415155,-3.415155,-4.571405,-1.733197,nan,0.504559,-0.174229,-0.931056,0.171878,0.199474,0.534678,0.257831,0.341301,0.686152,66.000000,-2.000000,68.000000,64.000000,625.07115285,0.000000,0.00000000,3.82852692,0.000000,326.61537135,291.50240392,0.60984401,0.00000000,2.37556348,0.13650836,0.00260072,0.00033408,7.31981674,0.00173272,0.00341699,0.00354124,0.00118351,3.08771748,3.65942349,0.56280131,0.00014439,0.00170849,0.00141650,0.00236703,11.25602617,1.82971175,3.85964685
12.200,2,1,1,-527.317,192.724,45.399,0.866007,-3.440293,-3.440293,-4.306300,-1.045648,nan,0.750196,-0.166425,0.358099,0.173677,0.199254,0.642831,0.071620,0.475495,0.685847,66.000000,-2.000000,68.000000,64.000000,618.06780601,0.000000,0.00000000,3.88896185,0.000000,323.10857133,287.79390407,0.61243300,0.00000000,2.52593444,0.13468239,0.00302804,0.00029089,7.32453780,0.00174154,0.00343891,0.00354975,0.00118358,3.08811099,3.65991515,0.56659789,0.00014513,0.00171945,0.00141990,0.00236716,11.33195774,1.82995758,3.86013874
12.300,2,1,1,-527.252,192.730,45.334,0.705576,-3.451941,-3.451941,-4.157517,-2.048324,nan,0.746889,-0.158912,1.403747,0.171350,0.198954,0.703416,0.401070,0.551447,0.685994,66.000000,-2.000000,68.000000,64.000000,615.03771380,0.000000,0.00000000,3.43278135,0.000000,321.89729067,286.55451037,0.43566120,0.00000000,2.57965614,0.13444451,0.00307312,0.00029643,7.33003945,0.00175077,0.00346907,0.00369987,0.00118603,3.08853239,3.66044166,0.57095966,0.00014590,0.00173453,0.00147995,0.00237206,11.41919328,1.83022083,3.86066549
12.400,2,1,1,-527.186,192.734,45.269,0.550795,-3.462967,-3.462967,-4.013762,-1.059972,nan,0.742039,-0.148785,0.085944,0.166352,0.198595,0.761358,0.343775,0.625256,0.686645,66.000000,-2.000000,68.000000,64.000000,612.54791177,0.000000,0.00000000,3.12019277,0.000000,320.75619857,285.39895749,0.50603905,0.00000000,2.62885211,0.13430111,0.00311443,0.00025624,7.33532559,0.00175886,0.00350436,0.00370043,0.00118783,3.08892478,3.66093195,0.57531737,0.00014657,0.00175218,0.00148017,0.00237566,11.50634741,1.83046598,3.86115598
12.500,2,1,1,-527.121,192.739,45.204,0.400836,-3.473392,-3.473392,-3.874228,-1.088620,nan,0.737118,-0.136000,-0.888085,0.158917,0.198165,0.815939,1.561310,0.693139,0.687795,66.000000,-2.000000,68.000000,64.000000,610.00079185,0.000000,0.00000000,2.78739014,0.000000,319.65458664,284.29114887,0.45645667,0.00000000,2.67363648,0.13419392,0.00313798,0.00024115,7.34065392,0.00176562,0.00354493,0.00376051,0.00122497,3.08929063,3.66138908,0.57967819,0.00014714,0.00177247,0.00150420,0.00244993,11.59356371,1.83069454,3.86161328
12.695,2,1,1,-527.121,192.739,45.204,0.400836,-3.473392,-3.473392,-3.874228,-1.088620,nan,0.737118,-0.136000,-0.888085,0.158917,0.197347,0.815939,1.561310,0.693139,0.689975,66.000000,-2.000000,68.000000,64.000000,610.00079185,0.000000,0.00000000,2.78739014,0.000000,319.65458664,284.29114887,0.45645667,0.00000000,2.67363648,0.13419392,0.00313798,0.00024115,7.35103286,0.00177879,0.00362395,0.00387752,0.00129730,3.09000325,3.66227952,0.58817252,0.00014823,0.00181198,0.00155101,0.00259460,11.76345050,1.83113976,3.86250406
12.712,2,1,1,-527.090,192.741,45.173,0.226534,-3.478186,-3.478186,-3.704721,-0.759169,nan,0.583297,-0.118763,-0.243507,0.157813,0.197260,0.876085,-0.429718,0.700465,0.690267,66.000000,-2.000000,68.000000,64.000000,610.72525774,0.000000,0.00000000,2.52463502,0.000000,320.08025385,284.87134088,0.44173225,0.00000000,2.66890950,0.13530263,0.00286577,0.00021783,7.35192641,0.00177968,0.00363203,0.00387830,0.00129779,3.09006103,3.66235173,0.58892584,0.00014831,0.00181602,0.00155132,0.00259557,11.77851688,1.83117587,3.86257629
12.800,2,1,1,-526.925,192.749,45.009,-0.008267,-3.501276,-3.501276,-3.493009,-0.673225,nan,0.753709,-0.091476,0.716197,0.136301,0.196719,0.948681,1.188887,0.811611,0.692404,66.000000,-2.000000,68.000000,64.000000,603.49870121,0.000000,0.00000000,2.42160524,0.000000,316.54696180,281.22663044,0.38822799,0.00000000,2.77785586,0.13405452,0.00316961,0.00019574,7.35645075,0.00178237,0.00368022,0.00391264,0.00131671,3.09032238,3.66267831,0.59275812,0.00014853,0.00184011,0.00156505,0.00263342,11.85516239,1.83133916,3.86290297
12.900,2,1,1,-526.860,192.751,44.944,-0.159694,-3.509488,-3.509488,-3.349795,-0.558634,nan,0.734166,-0.070124,-0.916732,0.117652,0.196040,0.988553,0.544310,0.878934,0.695235,66.000000,-2.000000,68.000000,64.000000,601.20371474,0.000000,0.00000000,2.09835347,0.000000,315.55544653,280.24686854,0.35914408,0.00000000,2.80648714,0.13407087,0.00316386,0.00018026,7.36156698,0.00178417,0.00373989,0.00397678,0.00132123,3.09059643,3.66302078,0.59712770,0.00014868,0.00186995,0.00159071,0.00264246,11.94255393,1.83151039,3.86324554
13.000,2,1,1,-526.795,192.753,44.880,-0.292215,-3.517170,-3.517170,-3.224955,-1.819141,nan,0.719427,-0.049644,-0.572958,0.097948,0.195324,1.017900,0.601606,0.933362,0.698326,66.000000,-2.000000,68.000000,64.000000,598.83126065,0.000000,0.00000000,1.76861609,0.000000,314.58410944,279.29250302,0.22236150,0.00000000,2.82621229,0.13410118,0.00315534,0.00020180,7.36657848,0.00178507,0.00380285,0.00400171,0.00132673,3.09084922,3.66333667,0.60147623,0.00014876,0.00190143,0.00160068,0.00265346,12.02952457,1.83166834,3.86356152
13.100,2,1,1,-526.730,192.755,44.815,-0.421690,-3.524359,-3.524359,-3.102670,-1.274831,nan,0.713777,-0.028230,-0.128916,0.077246,0.194582,1.041074,0.529986,0.977690,0.701625,66.000000,-2.000000,68.000000,64.000000,596.67896981,0.000000,0.00000000,1.54107283,0.000000,313.60023316,278.32479826,0.23272533,0.00000000,2.84270244,0.13411508,0.00314953,0.00017319,7.37153500,0.00178536,0.00386884,0.00400298,0.00133100,3.09108366,3.66362966,0.60583349,0.00014878,0.00193442,0.00160119,0.00266201,12.11666988,1.83181483,3.86385458
