t,controller_id,state_code,wp_idx,x,y,dist,yaw_deg,yaw_to_wp_deg,yaw_ref_deg,yaw_err_deg,yaw_rate_deg_s,speed_ref,speed_meas,roll_deg,roll_rate_deg_s,roll_rms_window_deg,roll_rms_total_deg,pitch_deg,pitch_rate_deg_s,pitch_rms_window_deg,pitch_rms_total_deg,base_cmd,diff_cmd,T_left,T_right,J_inst,J_goal,J_wave_roll,J_progress,J_smooth,J_mpc_distance,J_mpc_final,J_mpc_heading,J_mpc_wrong_way,J_mpc_pitch,J_mpc_control,J_mpc_slew,J_mpc_turn,J_total,J_roll,J_pitch,J_roll_rate,J_pitch_rate,J_goal_heading,J_no_progress,J_control,I_roll,I_pitch,I_roll_rate,I_pitch_rate,I_control,I_no_progress,I_goal_heading
0.300,2,1,1,-531.997,190.001,49.997,57.296482,-0.000794,-0.000794,-57.297276,-0.157563,nan,0.000000,0.140484,0.716197,0.098397,0.000000,0.679131,1.303479,0.626950,0.000000,2.500000,-9.500000,12.000000,-7.000000,1052.75992737,0.000000,0.00000000,63.71693543,0.000000,420.50532252,388.32260165,178.17052239,0.00001700,1.82781791,0.14229701,0.02593309,0.04848038,0.00000000,0.00000000,0.00000000,0.00000000,0.00000000,0.00000000,0.00000000,0.00000000,0.00000000,0.00000000,0.00000000,0.00000000,0.00000000,0.00000000,0.00000000
0.618,2,1,1,-531.997,190.001,49.997,57.296482,-0.000794,-0.000794,-57.297276,-0.157563,nan,0.000000,0.140484,0.716197,0.098397,0.140484,0.679131,1.303479,0.626950,0.679131,2.500000,-21.500000,24.000000,-19.000000,1003.71312019,0.000000,0.00000000,51.32606434,0.000000,419.96850013,387.63083491,142.73678084,0.00000426,1.83300961,0.14310595,0.02597539,0.04884477,0.54795061,0.00002291,0.00008925,0.00012407,0.00008219,0.25411045,0.29203368,0.00148806,0.00000191,0.00004462,0.00004963,0.00016439,0.02976113,0.14601684,0.31763806
0.700,2,1,1,-531.991,190.004,49.991,57.203905,-0.005149,-0.005149,-57.209055,-1.217535,nan,0.002932,0.339219,0.128916,0.218928,0.198408,0.937626,0.214859,0.770359,0.739778,8.000000,-28.000000,36.000000,-20.000000,979.44117600,0.000000,0.00000000,45.22564459,0.000000,418.62841609,385.92940162,127.44622624,0.00002774,2.00157505,0.14247824,0.01874201,0.04866443,0.68992632,0.00005756,0.00013336,0.00012511,0.00008277,0.31979753,0.36754354,0.00218645,0.00000480,0.00006668,0.00005005,0.00016555,0.04372905,0.18377177,0.39974692
0.800,2,1,1,-531.990,190.005,49.990,57.127364,-0.006043,-0.006043,-57.133407,-1.317803,nan,0.005388,0.374268,0.615930,0.256965,0.244031,0.937673,0.515662,0.811011,0.783458,14.000000,-34.000000,48.000000,-20.000000,962.52765449,0.000000,0.00000000,42.05622513,0.000000,417.33047747,384.27924657,116.61463374,0.00005716,2.03945591,0.14353007,0.01468205,0.04934640,0.86288176,0.00010890,0.00018707,0.00015408,0.00008683,0.39955478,0.45924807,0.00354202,0.00000907,0.00009353,0.00006163,0.00017367,0.07084044,0.22962404,0.49944348
0.900,2,1,1,-531.990,190.006,49.990,57.021666,-0.006778,-0.006778,-57.028444,-1.045648,nan,0.007122,0.402550,0.000000,0.308957,0.276769,0.932130,-0.272155,0.871797,0.810083,20.000000,-40.000000,60.000000,-20.000000,947.71880461,0.000000,0.00000000,39.36220329,0.000000,416.04025204,382.64925071,107.38093225,0.00007188,2.07655978,0.14602782,0.01294888,0.05055798,1.03509363,0.00016802,0.00023991,0.00015408,0.00008796,0.47866661,0.55023865,0.00553840,0.00001400,0.00011995,0.00006163,0.00017592,0.11076808,0.27511932,0.59833326
1.107,2,1,1,-531.990,190.006,49.990,57.021666,-0.006778,-0.006778,-57.028444,-1.045648,nan,0.007122,0.402550,0.000000,0.308957,0.313895,0.932130,-0.272155,0.871797,0.843092,26.000000,-46.000000,72.000000,-20.000000,933.50938456,0.000000,0.00000000,36.35524428,0.000000,414.73093820,380.98816475,99.10027473,0.00006682,2.11878252,0.14986629,0.01348804,0.05255894,1.39414689,0.00029074,0.00034957,0.00015408,0.00009030,0.64285712,0.73908258,0.01132250,0.00002423,0.00017478,0.00006163,0.00018059,0.22645006,0.36954129,0.80357140
1.200,2,1,1,-531.988,190.017,49.988,56.411284,-0.019939,-0.019939,-56.431223,-3.008028,nan,0.029684,0.480565,0.243507,0.402737,0.334936,1.022482,1.188887,0.955634,0.863313,32.000000,-52.000000,84.000000,-20.000000,916.63606245,0.000000,0.00000000,34.95366156,0.000000,413.38579415,379.41846929,86.43653537,0.00000197,2.21643142,0.15408215,0.01601462,0.05507193,1.55274913,0.00036907,0.00040867,0.00015827,0.00011027,0.71486893,0.82205205,0.01478186,0.00003076,0.00020434,0.00006331,0.00022055,0.29563729,0.41102602,0.89358616
1.300,2,1,1,-531.986,190.024,49.986,56.152955,-0.027973,-0.027973,-56.180928,-3.495043,nan,0.051283,0.482651,0.071620,0.433597,0.352513,1.042137,0.300803,0.977425,0.882838,38.000000,-58.000000,96.000000,-20.000000,908.44039720,0.000000,0.00000000,35.85357610,0.000000,412.48884200,378.47607444,79.12325819,0.00000000,2.26175827,0.15953736,0.01667609,0.06067474,1.72342460,0.00045428,0.00047488,0.00015866,0.00011165,0.79183637,0.91079573,0.01959302,0.00003786,0.00023744,0.00006346,0.00022331,0.39186031,0.45539786,0.98979547
1.400,2,1,1,-531.985,190.033,49.985,55.810270,-0.037885,-0.037885,-55.848154,-3.924761,nan,0.071876,0.476110,-0.587282,0.458631,0.365478,1.039317,-0.057296,1.000380,0.898187,40.000000,-60.000000,100.000000,-20.000000,907.85297630,0.000000,0.00000000,38.68777969,0.000000,412.19155713,378.28137013,76.17404346,0.00000000,2.27603694,0.16185054,0.01686685,0.06347157,1.89250996,0.00053713,0.00054068,0.00018492,0.00011170,0.86783567,0.99850746,0.02479238,0.00004476,0.00027034,0.00007397,0.00022341,0.49584767,0.49925373,1.08479459
1.500,2,1,1,-531.983,190.044,49.983,55.413771,-0.050001,-0.050001,-55.463773,-4.655282,nan,0.091923,0.466212,0.787817,0.474042,0.374909,1.019298,-0.401070,1.020377,0.908898,40.000000,-60.000000,100.000000,-20.000000,909.15778526,0.000000,0.00000000,41.89536763,0.000000,412.14839641,378.39395251,74.20608330,0.00000000,2.27148776,0.16165090,0.01705438,0.06379238,2.05952025,0.00061660,0.00060399,0.00023220,0.00011415,0.94281833,1.08514142,0.02999355,0.00005138,0.00030200,0.00009288,0.00022831,0.59987098,0.54257071,1.17852292
1.708,2,1,1,-531.983,190.044,49.983,55.413771,-0.050001,-0.050001,-55.463773,-4.655282,nan,0.091923,0.466212,0.787817,0.474042,0.389715,1.019298,-0.401070,1.020377,0.926001,40.000000,-60.000000,100.000000,-20.000000,909.15778526,0.000000,0.00000000,41.89536763,0.000000,412.14839641,378.39395251,74.20608330,0.00000000,2.27148776,0.16165090,0.01705438,0.06379238,2.40600098,0.00078147,0.00073534,0.00033028,0.00011924,1.09837788,1.26487285,0.04078392,0.00006512,0.00036767,0.00013211,0.00023848,0.81567845,0.63243643,1.37297235
1.800,2,1,1,-531.972,190.088,49.973,53.950114,-0.101419,-0.101419,-54.051533,-5.657958,nan,0.127332,0.396890,0.200535,0.457725,0.390161,0.953727,0.572958,1.012151,0.927733,40.000000,-60.000000,100.000000,-20.000000,906.30078231,0.000000,0.00000000,44.70155001,0.000000,411.87376807,378.30581312,68.90045931,0.00000000,2.27650333,0.16141565,0.01775049,0.06352233,2.55308553,0.00083470,0.00078657,0.00033311,0.00012386,1.16419518,1.34122109,0.04559102,0.00006956,0.00039328,0.00013324,0.00024772,0.91182034,0.67061055,1.45524398
1.900,2,1,1,-531.968,190.107,49.968,53.389278,-0.123248,-0.123248,-53.512527,-6.717930,nan,0.164388,0.354344,-0.744845,0.434509,0.388019,0.924125,0.071620,0.990228,0.927508,40.500000,-59.500000,100.000000,-19.000000,908.51960659,0.000000,0.00000000,49.34075495,0.000000,411.65956926,378.30087910,66.69858286,0.00000000,2.27819053,0.16067855,0.01757316,0.06337817,2.70930394,0.00088061,0.00083861,0.00037537,0.00012394,1.23399840,1.42231406,0.05077295,0.00007338,0.00041931,0.00015015,0.00024788,1.01545893,0.71115703,1.54249800
2.000,2,1,1,-531.962,190.128,49.962,52.799830,-0.147087,-0.147087,-52.946918,-6.116324,nan,0.189739,0.308774,-1.432394,0.402619,0.383812,0.888735,-0.644578,0.959938,0.925273,43.500000,-56.500000,100.000000,-13.000000,911.12344032,0.000000,0.00000000,53.17943345,0.000000,411.09807980,377.80490853,66.52437737,0.00000000,2.28620849,0.15795915,0.01447389,0.05799964,2.86241761,0.00091546,0.00088673,0.00053160,0.00013027,1.30230515,1.50179169,0.05585672,0.00007629,0.00044336,0.00021264,0.00026053,1.11713430,0.75089585,1.62788144
2.100,2,1,1,-531.956,190.151,49.956,52.187422,-0.172855,-0.172855,-52.360277,-6.474423,nan,0.213907,0.261525,-0.214859,0.363160,0.378057,0.849558,-1.489690,0.926197,0.921229,43.500000,-56.500000,100.000000,-13.000000,912.08624320,0.000000,0.00000000,56.45541066,0.000000,410.90419718,377.78480636,64.43528526,0.00000000,2.27659129,0.15760027,0.01451387,0.05783832,3.01229437,0.00094046,0.00093070,0.00053512,0.00016407,1.36912237,1.57965997,0.06094168,0.00007837,0.00046535,0.00021405,0.00032814,1.21883363,0.78982998,1.71140297
2.200,2,1,1,-531.948,190.175,49.949,51.558357,-0.200530,-0.200530,-51.758887,-7.333860,nan,0.233360,0.212158,-0.415394,0.321360,0.371179,0.804178,-0.730521,0.893173,0.915442,43.500000,-56.500000,100.000000,-13.000000,911.84327423,0.000000,0.00000000,58.92785851,0.000000,410.67869331,377.70624070,62.03375745,0.00000000,2.26636189,0.15734809,0.01485708,0.05815719,3.15894049,0.00095691,0.00097010,0.00054826,0.00017220,1.43440477,1.65586229,0.06602596,0.00007974,0.00048505,0.00021930,0.00034439,1.32051929,0.82793115,1.79300596
2.410,2,1,1,-531.948,190.175,49.949,51.558357,-0.200530,-0.200530,-51.758887,-7.333860,nan,0.233360,0.212158,-0.415394,0.321360,0.358511,0.804178,-0.730521,0.893173,0.904969,43.500000,-56.500000,100.000000,-13.000000,911.84327423,0.000000,0.00000000,58.92785851,0.000000,410.67869331,377.70624070,62.03375745,0.00000000,2.26636189,0.15734809,0.01485708,0.05815719,3.46734781,0.00099151,0.00105296,0.00057589,0.00018929,1.57169833,1.81612126,0.07671858,0.00008263,0.00052648,0.00023036,0.00037858,1.53437154,0.90806063,1.96462291
2.500,2,1,1,-531.921,190.256,49.922,49.592416,-0.293612,-0.293612,-49.886028,-7.276564,nan,0.248609,0.040895,-0.171887,0.227943,0.351224,0.608704,0.114592,0.794268,0.894811,47.750000,-52.250000,100.000000,-4.500000,905.48976020,0.000000,0.00000000,58.91877938,0.000000,409.47848544,376.43123458,58.20852106,0.00000000,2.23540492,0.15448261,0.01202338,0.05082883,3.59006256,0.00099206,0.00107320,0.00057791,0.00018947,1.62609226,1.87992547,0.08121220,0.00008267,0.00053660,0.00023116,0.00037894,1.62424396,0.93996273,2.03261532
2.600,2,1,1,-531.910,190.285,49.911,48.918237,-0.327730,-0.327730,-49.245967,-7.161972,nan,0.284071,-0.018188,-0.458366,0.171098,0.343527,0.537355,0.186211,0.723705,0.882290,47.750000,-52.250000,100.000000,-4.500000,906.54492619,0.000000,0.00000000,62.24655448,0.000000,409.15397240,376.28125830,56.44206147,0.00000000,2.20505508,0.15399110,0.01179983,0.05023352,3.72360381,0.00099218,0.00109079,0.00059390,0.00019000,1.68517423,1.94934190,0.08622081,0.00008268,0.00054539,0.00023756,0.00037999,1.72441623,0.97467095,2.10646779
2.700,2,1,1,-531.898,190.317,49.899,48.242138,-0.363459,-0.363459,-48.605597,-6.846846,nan,0.310709,-0.072329,-0.229183,0.115140,0.336617,0.471857,-0.401070,0.644457,0.869064,47.750000,-52.250000,100.000000,-4.500000,906.87408527,0.000000,0.00000000,64.76696924,0.000000,408.79795585,376.05894479,54.86785020,0.00000000,2.16750864,0.15353985,0.01183986,0.04947685,3.85398939,0.00099410,0.00110436,0.00059790,0.00019245,1.74275959,2.01710897,0.09123203,0.00008284,0.00055218,0.00023916,0.00038489,1.82464060,1.00855448,2.17844949
2.800,2,1,1,-531.885,190.349,49.886,47.564524,-0.400708,-0.400708,-47.965232,-7.749254,nan,0.335236,-0.122127,-0.186211,0.073500,0.330719,0.412342,-1.045648,0.561623,0.855491,47.750000,-52.250000,100.000000,-4.500000,905.55902001,0.000000,0.00000000,66.55835562,0.000000,408.38751469,375.76421563,52.50678609,0.00000000,2.12698807,0.15322662,0.01214605,0.04978725,3.98117908,0.00099955,0.00111471,0.00060054,0.00020910,1.79882315,2.08319007,0.09624196,0.00008330,0.00055736,0.00024022,0.00041820,1.92483914,1.04159503,2.24852893
2.900,2,1,1,-531.871,190.382,49.872,46.885546,-0.439359,-0.439359,-47.324906,-8.393832,nan,0.355695,-0.171509,-1.317803,0.091017,0.326035,0.354426,-0.959704,0.495514,0.841748,49.875000,-50.125000,100.000000,-0.250000,903.96930591,0.000000,0.00000000,67.87788647,0.000000,407.67705913,375.06895515,51.02882173,0.00000000,2.10662357,0.15182051,0.01102162,0.04711773,4.10539928,0.00101030,0.00112237,0.00073284,0.00022313,1.85342162,2.14764523,0.10124379,0.00008419,0.00056118,0.00029314,0.00044627,2.02487575,1.07382261,2.31677702
3.148,2,1,1,-531.871,190.382,49.872,46.885546,-0.439359,-0.439359,-47.324906,-8.393832,nan,0.355695,-0.171509,-1.317803,0.091017,0.315625,0.354426,-0.959704,0.495514,0.811107,49.875000,-50.125000,100.000000,-0.250000,903.96923366,0.000000,0.00000000,67.87788647,0.000000,407.67705913,375.06895515,51.02882173,0.00000000,2.10662357,0.15182051,0.01094937,0.04711773,4.41259887,0.00103690,0.00114130,0.00106002,0.00025784,1.98844497,2.30704440,0.11361344,0.00008641,0.00057065,0.00042401,0.00051567,2.27226873,1.15352220,2.48555621
3.200,2,1,1,-531.821,190.489,49.824,44.853595,-0.562562,-0.562562,-45.416156,-7.706282,nan,0.281607,-0.303977,-0.085944,0.176690,0.315418,0.174764,-0.415394,0.395226,0.804066,50.937500,-49.062500,100.000000,1.875000,891.50935423,0.000000,0.00000000,61.96249361,0.000000,406.67354683,373.82865369,46.80311391,0.00000000,2.03522487,0.15181814,0.01066763,0.04383554,4.47301061,0.00105466,0.00114228,0.00106031,0.00025922,2.01486965,2.33838159,0.11624290,0.00008789,0.00057114,0.00042413,0.00051844,2.32485796,1.16919080,2.51858706
3.300,2,1,1,-531.802,190.527,49.805,44.180099,-0.605791,-0.605791,-44.785890,-7.090353,nan,0.352815,-0.334715,0.315127,0.231942,0.316080,0.124998,0.630254,0.319966,0.790890,51.469000,-48.531000,100.000000,2.938000,892.14362774,0.000000,0.00000000,64.88626912,0.000000,405.99856364,373.26889686,45.77930726,0.00000000,2.00708782,0.15090019,0.01034647,0.04225637,4.58491936,0.00109558,0.00114323,0.00106787,0.00026526,2.06371350,2.39639035,0.12124356,0.00009130,0.00057162,0.00042715,0.00053053,2.42487120,1.19819518,2.57964187
3.400,2,1,1,-531.782,190.565,49.786,43.509638,-0.650110,-0.650110,-44.159747,-5.686606,nan,0.394217,-0.361837,0.888085,0.281441,0.317659,0.083807,-0.071620,0.244124,0.778173,51.469000,-48.531000,100.000000,2.938000,892.52573616,0.000000,0.00000000,67.01594344,0.000000,405.42504710,372.78526348,45.12643925,0.00000000,1.97182094,0.15028928,0.01020909,0.04072358,4.69409209,0.00114345,0.00114366,0.00112794,0.00026534,2.11124354,2.45291946,0.12624869,0.00009529,0.00057183,0.00045118,0.00053069,2.52497373,1.22645973,2.63905443
3.500,2,1,1,-531.761,190.604,49.765,42.842312,-0.695409,-0.695409,-43.537721,-7.033057,nan,0.422921,-0.383732,0.644578,0.325588,0.319931,0.050274,0.257831,0.162507,0.765967,51.734500,-48.265500,100.000000,3.469000,889.93283735,0.000000,0.00000000,68.00222853,0.000000,404.77257682,372.19742766,42.82740946,0.00000000,1.93185347,0.14987674,0.01040813,0.04105655,4.80041107,0.00119729,0.00114381,0.00115959,0.00026636,2.15744416,2.50794434,0.13125553,0.00009977,0.00057191,0.00046384,0.00053271,2.62511059,1.25397217,2.69680520
3.600,2,1,1,-531.739,190.644,49.743,42.177767,-0.741582,-0.741582,-42.919349,-6.975761,nan,0.443555,-0.399606,-0.071620,0.354445,0.322634,0.024366,0.272155,0.110249,0.754283,51.867000,-48.133000,100.000000,3.734000,888.22520075,0.000000,0.00000000,68.89579549,0.000000,404.15473307,371.62596057,41.43990005,0.00000000,1.90845003,0.14946196,0.01044814,0.04045144,4.90391612,0.00125566,0.00114385,0.00115998,0.00026748,2.20233890,2.56148723,0.13626301,0.00010464,0.00057193,0.00046399,0.00053497,2.72526028,1.28074361,2.75292363
3.811,2,1,1,-531.739,190.644,49.743,42.177767,-0.741582,-0.741582,-42.919349,-6.975761,nan,0.443555,-0.399606,-0.071620,0.354445,0.327758,0.024366,0.272155,0.110249,0.731349,51.933500,-48.066500,100.000000,3.867000,888.21346740,0.000000,0.00000000,68.89070418,0.000000,404.14570562,371.61443720,41.45363217,0.00000000,1.90877103,0.14943383,0.01041250,0.04037087,5.12171396,0.00137850,0.00114393,0.00116080,0.00026986,2.29680705,2.67415293,0.14680090,0.00011488,0.00057196,0.00046432,0.00053972,2.93601794,1.33707647,2.87100881
3.900,2,1,1,-531.665,190.767,49.671,40.198854,-0.884659,-0.884659,-41.083514,-6.431451,nan,0.426220,-0.409141,-0.472690,0.390662,0.330025,0.002204,1.102944,0.051445,0.722200,51.966500,-48.033500,100.000000,3.933000,878.56614283,0.000000,0.00000000,66.00074286,0.000000,402.72218242,370.11033918,37.66379649,0.00000000,1.87012030,0.14948466,0.01072605,0.03875087,5.20717844,0.00143327,0.00114393,0.00117603,0.00028644,2.33362214,2.71823357,0.15128306,0.00011944,0.00057196,0.00047041,0.00057288,3.02566114,1.35911678,2.91702768
4.000,2,1,1,-531.639,190.809,49.645,39.595470,-0.933651,-0.933651,-40.529121,-7.734930,nan,0.454903,-0.402453,0.143239,0.400091,0.332191,0.011170,0.415394,0.031126,0.712374,57.966500,-42.033500,100.000000,15.933000,875.08826363,0.000000,0.00000000,66.12541035,0.000000,401.20265940,368.40872109,37.26591782,0.00000000,1.89587465,0.14750847,0.00915180,0.03302005,5.30041022,0.00149249,0.00114393,0.00117759,0.00028907,2.37366323,2.76623242,0.15641148,0.00012437,0.00057197,0.00047104,0.00057814,3.12822967,1.38311621,2.96707904
4.100,2,1,1,-531.611,190.851,49.619,38.944056,-0.983219,-0.983219,-39.927274,-7.563043,nan,0.472508,-0.393080,-0.444042,0.404121,0.333935,0.026135,0.515662,0.016997,0.702952,56.483000,-43.517000,100.000000,12.966000,872.60674223,0.000000,0.00000000,66.41849777,0.000000,400.70901084,367.98425367,35.41076256,0.00000000,1.89380933,0.14738166,0.00928547,0.03374093,5.39103150,0.00154896,0.00114398,0.00119261,0.00029312,2.41250583,2.81285234,0.16149466,0.00012908,0.00057199,0.00047704,0.00058624,3.22989311,1.40642617,3.01563229
4.200,2,1,1,-531.582,190.894,49.590,38.378634,-1.033352,-1.033352,-39.411986,-5.915789,nan,0.483710,-0.377769,0.128916,0.401935,0.335132,0.043071,0.859437,0.018625,0.693908,56.483000,-43.517000,100.000000,12.966000,871.46453461,0.000000,0.00000000,66.77594372,0.000000,400.04752659,367.32283312,35.21734327,0.00000000,1.91248900,0.14700496,0.00914251,0.03225144,5.47958538,0.00160117,0.00114409,0.00119387,0.00030438,2.45038976,2.85836924,0.16658286,0.00013343,0.00057204,0.00047755,0.00060876,3.33165713,1.42918462,3.06298720
4.412,2,1,1,-531.582,190.894,49.590,38.378634,-1.033352,-1.033352,-39.411986,-5.915789,nan,0.483710,-0.377769,0.128916,0.401935,0.337463,0.043071,0.859437,0.018625,0.675848,56.483000,-43.517000,100.000000,12.966000,871.46453461,0.000000,0.00000000,66.77594372,0.000000,400.04752659,367.32283312,35.21734327,0.00000000,1.91248900,0.14700496,0.00914251,0.03225144,5.66723758,0.00171181,0.00114433,0.00119656,0.00032824,2.53066861,2.95482291,0.17736513,0.00014265,0.00057216,0.00047862,0.00065648,3.54730258,1.47741145,3.16333576
4.500,2,1,1,-531.489,191.025,49.499,36.486673,-1.186929,-1.186929,-37.673602,-7.033057,nan,0.438071,-0.297401,0.415394,0.369160,0.336673,0.164122,0.286479,0.079360,0.669160,60.500000,-39.500000,100.000000,21.000000,858.96980740,0.000000,0.00000000,61.93607551,0.000000,397.86055505,364.84963042,32.13370246,0.00000000,2.00579374,0.14700712,0.00835147,0.02869164,5.73892709,0.00174023,0.00114577,0.00120811,0.00032934,2.56107202,2.99147752,0.18195410,0.00014502,0.00057289,0.00048324,0.00065867,3.63908203,1.49573876,3.20134003
4.600,2,1,1,-531.455,191.070,49.467,35.867274,-1.239146,-1.239146,-37.106420,-6.059029,nan,0.492034,-0.270081,-0.085944,0.342748,0.335274,0.224119,0.974028,0.122516,0.662214,57.750000,-42.250000,100.000000,15.500000,857.52386340,0.000000,0.00000000,62.97680145,0.000000,397.34750971,364.45969286,30.50781618,0.00000000,2.04644350,0.14660355,0.00930867,0.02968748,5.81816163,0.00176690,0.00114883,0.00120867,0.00034379,2.59463399,3.03198400,0.18707546,0.00014724,0.00057442,0.00048347,0.00068758,3.74150918,1.51599200,3.24329248
4.700,2,1,1,-531.421,191.114,49.434,35.256144,-1.291676,-1.291676,-36.547820,-7.219268,nan,0.523926,-0.235818,-0.515662,0.310827,0.333344,0.287070,0.343775,0.172922,0.656076,60.500000,-39.500000,100.000000,21.000000,854.18376219,0.000000,0.00000000,63.09862020,0.000000,396.10226138,363.13417572,29.54954516,0.00000000,2.11657170,0.14600294,0.00877281,0.02781228,5.89529560,0.00178722,0.00115385,0.00122892,0.00034559,2.62717969,3.07130527,0.19229507,0.00014894,0.00057693,0.00049157,0.00069118,3.84590138,1.53565263,3.28397461
4.800,2,1,1,-531.386,191.159,49.399,34.650552,-1.344427,-1.344427,-35.994979,-6.187944,nan,0.546417,-0.196392,-1.518338,0.274594,0.330917,0.352865,0.802141,0.229556,0.650875,60.500000,-39.500000,100.000000,21.000000,852.34978364,0.000000,0.00000000,63.45794511,0.000000,395.26255420,362.29638952,28.97888177,0.00000000,2.17291637,0.14560594,0.00863460,0.02685614,5.97047902,0.00180132,0.00116144,0.00140447,0.00035539,2.65875178,3.10948935,0.19751527,0.00015011,0.00058072,0.00056179,0.00071078,3.95030533,1.55474468,3.32343973
4.900,2,1,1,-531.349,191.204,49.364,34.052566,-1.397472,-1.397472,-35.450038,-6.674958,nan,0.561090,-0.156453,0.701873,0.242761,0.328113,0.420479,1.102944,0.289289,0.646740,60.500000,-39.500000,100.000000,21.000000,849.05767462,0.000000,0.00000000,63.23221782,0.000000,394.40863730,361.43472953,27.57212486,0.00000000,2.22904206,0.14527502,0.00901076,0.02663727,6.04345988,0.00181026,0.00117221,0.00144198,0.00037391,2.68937012,3.14655679,0.20273461,0.00015086,0.00058610,0.00057679,0.00074783,4.05469212,1.57327840,3.36171265
5.113,2,1,1,-531.349,191.204,49.364,34.052566,-1.397472,-1.397472,-35.450038,-6.674958,nan,0.561090,-0.156453,0.701873,0.242761,0.322458,0.420479,1.102944,0.289289,0.638430,60.500000,-39.500000,100.000000,21.000000,849.05767462,0.000000,0.00000000,63.23221782,0.000000,394.40863730,361.43472953,27.57212486,0.00000000,2.22904206,0.14527502,0.00901076,0.02663727,6.19884093,0.00182931,0.00119513,0.00152183,0.00041335,2.75455856,3.22547581,0.21384692,0.00015244,0.00059757,0.00060873,0.00082670,4.27693845,1.61273791,3.44319821
5.200,2,1,1,-531.234,191.339,49.252,32.294949,-1.558191,-1.558191,-33.853140,-6.102001,nan,0.490611,-0.046333,0.028648,0.177466,0.319638,0.639795,1.819141,0.439113,0.638455,60.500000,-39.500000,100.000000,21.000000,837.83259877,0.000000,0.00000000,58.49419875,0.000000,392.57258337,359.44171007,24.78115859,0.00000000,2.36271208,0.14572980,0.00923540,0.02527071,6.25732684,0.00182999,0.00121686,0.00152189,0.00045726,2.77889009,3.25501563,0.21839511,0.00015250,0.00060843,0.00060875,0.00091453,4.36790227,1.62750782,3.47361261
5.300,2,1,1,-531.194,191.384,49.213,31.718430,-1.612018,-1.612018,-33.330448,-6.531719,nan,0.539259,-0.007414,0.329451,0.133978,0.316427,0.715887,-0.415394,0.529798,0.640095,63.250000,-36.750000,100.000000,26.500000,835.09420356,0.000000,0.00000000,58.83793416,0.000000,391.23238373,358.02048783,24.37776087,0.00000000,2.44814417,0.14541038,0.00860420,0.02347821,6.32269594,0.00183001,0.00124809,0.00153015,0.00045989,2.80596520,3.28791582,0.22374677,0.00015250,0.00062404,0.00061206,0.00091978,4.47493546,1.64395791,3.50745651
5.400,2,1,1,-531.153,191.430,49.174,31.146871,-1.665924,-1.665924,-32.812795,-5.944437,nan,0.571694,0.029908,-0.787817,0.090529,0.313337,0.790099,0.243507,0.619720,0.643373,63.250000,-36.750000,100.000000,26.500000,833.01015121,0.000000,0.00000000,59.24733852,0.000000,390.29204565,357.08688216,23.69365392,0.00000000,2.51382037,0.14500281,0.00858734,0.02282043,6.38629470,0.00183034,0.00128613,0.00157743,0.00046080,2.83220826,3.31983282,0.22909892,0.00015253,0.00064306,0.00063097,0.00092159,4.58197848,1.65991641,3.54026033
5.500,2,1,1,-531.111,191.475,49.134,30.582471,-1.719921,-1.719921,-32.302393,-5.729578,nan,0.588245,0.064200,-0.515662,0.050988,0.310438,0.859667,1.031324,0.706922,0.648212,63.250000,-36.750000,100.000000,26.500000,830.37872177,0.000000,0.00000000,59.21939080,0.000000,389.38634952,356.17577777,22.84830396,0.00000000,2.57309098,0.14469746,0.00876979,0.02234149,6.44808516,0.00183185,0.00133113,0.00159767,0.00047699,2.85762657,3.35077297,0.23444798,0.00015265,0.00066557,0.00063907,0.00095398,4.68895969,1.67538649,3.57203321
5.600,2,1,1,-531.069,191.520,49.093,30.024334,-1.773967,-1.773967,-31.798301,-5.557691,nan,0.600061,0.095565,0.401070,0.051238,0.307775,0.924122,1.303479,0.778640,0.654497,63.250000,-36.750000,100.000000,26.500000,827.67685404,0.000000,0.00000000,59.09156874,0.000000,388.49315666,355.27535930,22.01379532,0.00000000,2.62768880,0.14443356,0.00895854,0.02189313,6.50820036,0.00183519,0.00138317,0.00160992,0.00050287,2.88227198,3.38079709,0.23980014,0.00015293,0.00069159,0.00064397,0.00100574,4.79600279,1.69039854,3.60283998
5.814,2,1,1,-531.069,191.520,49.093,30.024334,-1.773967,-1.773967,-31.798301,-5.557691,nan,0.600061,0.095565,0.401070,0.051238,0.302338,0.924122,1.303479,0.778640,0.666981,63.250000,-36.750000,100.000000,26.500000,827.67685404,0.000000,0.00000000,59.09156874,0.000000,388.49315666,355.27535930,22.01379532,0.00000000,2.62768880,0.14443356,0.00895854,0.02189313,6.63665138,0.00184232,0.00149436,0.00163610,0.00055818,2.93493302,3.44495105,0.25123635,0.00015353,0.00074718,0.00065444,0.00111636,5.02472691,1.72247553,3.66866627
5.900,2,1,1,-530.938,191.654,48.966,28.379374,-1.935941,-1.935941,-30.315315,-5.572015,nan,0.507208,0.177653,0.143239,0.107693,0.300809,1.085804,0.759169,0.922093,0.675404,64.625000,-35.375000,100.000000,29.250000,816.07361909,0.000000,0.00000000,54.02223934,0.000000,386.38768879,352.97468006,19.79317444,0.00000000,2.72155550,0.14523089,0.00887830,0.02017176,6.68432114,0.00185227,0.00155632,0.00163745,0.00056575,2.95425090,3.46854030,0.25591815,0.00015436,0.00077816,0.00065498,0.00113150,5.11836292,1.73427015,3.69281363
6.000,2,1,1,-530.893,191.699,48.923,27.839379,-1.989812,-1.989812,-29.829191,-5.156620,nan,0.559566,0.198701,-0.085944,0.139600,0.299318,1.127792,0.444042,0.995668,0.685919,65.312500,-34.687500,100.000000,30.625000,814.03391619,0.000000,0.00000000,54.60132498,0.000000,385.28411495,351.86340903,19.33926946,0.00000000,2.77279775,0.14490831,0.00875060,0.01934110,6.73807547,0.00186671,0.00163382,0.00163801,0.00056875,2.97593791,3.49504226,0.26138800,0.00015556,0.00081691,0.00065521,0.00113751,5.22775998,1.74752113,3.71992239
6.100,2,1,1,-530.848,191.743,48.879,27.304725,-2.043599,-2.043599,-29.348324,-6.202268,nan,0.602223,0.215969,0.143239,0.168660,0.298078,1.161485,1.145916,1.061060,0.696873,65.656000,-34.344000,100.000000,31.312000,811.29987519,0.000000,0.00000000,55.10696365,0.000000,384.19501045,350.78647448,18.22146838,0.00000000,2.81694419,0.14455172,0.00914820,0.01931412,6.79034356,0.00188376,0.00171601,0.00163958,0.00058875,2.99692720,3.52071022,0.26687805,0.00015698,0.00085800,0.00065583,0.00117751,5.33756094,1.76035511,3.74615900
6.200,2,1,1,-530.802,191.787,48.834,26.775633,-2.097261,-2.097261,-28.872894,-6.832522,nan,0.611102,0.230547,0.128916,0.193628,0.297062,1.185838,0.816465,1.114908,0.707981,65.828000,-34.172000,100.000000,31.656000,808.16187008,0.000000,0.00000000,54.77631830,0.000000,383.24603724,349.82277286,17.29992115,0.00000000,2.84374751,0.14439398,0.00947141,0.01920764,6.84114239,0.00190319,0.00180169,0.00164084,0.00059891,3.01724439,3.54557379,0.27237958,0.00015860,0.00090084,0.00065634,0.00119781,5.44759166,1.77278690,3.77155549
6.300,2,1,1,-530.755,191.831,48.789,26.251820,-2.150771,-2.150771,-28.402591,-5.213916,nan,0.618351,0.242650,0.572958,0.211544,0.296237,1.200620,0.701873,1.148837,0.718962,65.914000,-34.086000,100.000000,31.828000,806.21131094,0.000000,0.00000000,54.74834508,0.000000,382.34420342,348.90881381,17.17593807,0.00000000,2.86243827,0.14418399,0.00924176,0.01814653,6.89052092,0.00192471,0.00188950,0.00166584,0.00060641,3.03690201,3.56964674,0.27788572,0.00016039,0.00094475,0.00066634,0.00121282,5.55771435,1.78482337,3.79612751
6.520,2,1,1,-530.755,191.831,48.789,26.251820,-2.150771,-2.150771,-28.402591,-5.213916,nan,0.618351,0.242650,0.572958,0.211544,0.294506,1.200620,0.701873,1.148837,0.741380,65.957000,-34.043000,100.000000,31.914000,806.20824036,0.000000,0.00000000,54.74819108,0.000000,382.33854104,348.90180483,17.18538644,0.00000000,2.86277203,0.14419123,0.00922689,0.01812683,6.99929123,0.00197211,0.00208293,0.00172090,0.00062294,3.08020112,3.62267131,0.29001991,0.00016434,0.00104146,0.00068836,0.00124587,5.80039825,1.81133566,3.85025141
6.600,2,1,1,-530.612,191.961,48.652,24.706969,-2.310379,-2.310379,-27.017347,-5.242564,nan,0.542393,0.257303,-0.272155,0.236430,0.294064,1.192806,0.644578,1.183737,0.748797,65.978500,-34.021500,100.000000,31.957000,795.78845340,0.000000,0.00000000,50.67295639,0.000000,380.24932652,346.70743929,15.15735941,0.00000000,2.82969422,0.14476690,0.00964942,0.01726125,7.03537381,0.00199141,0.00215205,0.00172540,0.00062798,3.09438616,3.64007648,0.29441433,0.00016595,0.00107603,0.00069016,0.00125596,5.88828656,1.82003824,3.86798270
6.700,2,1,1,-530.564,192.004,48.605,24.199147,-2.363220,-2.363220,-26.562367,-5.686606,nan,0.582266,0.255570,0.458366,0.246347,0.293502,1.174110,0.229183,1.190795,0.757281,65.989000,-34.011000,100.000000,31.978000,793.10625809,0.000000,0.00000000,50.72690841,0.000000,379.23840040,345.69560973,14.43290398,0.00000000,2.84072985,0.14449856,0.01001635,0.01719081,7.07931369,0.00201529,0.00223604,0.00174140,0.00062878,3.11158001,3.66118661,0.29992556,0.00016794,0.00111802,0.00069656,0.00125756,5.99851120,1.83059331,3.88947502
6.800,2,1,1,-530.515,192.047,48.558,23.694173,-2.415831,-2.415831,-26.110003,-5.643634,nan,0.614364,0.251608,-0.415394,0.252274,0.292903,1.147059,-1.790493,1.186739,0.764783,65.994500,-34.005500,100.000000,31.989000,790.78414121,0.000000,0.00000000,50.97673530,0.000000,378.22544941,344.68840338,13.87116601,0.00000000,2.85101466,0.14420074,0.01025948,0.01691225,7.12200919,0.00203842,0.00231619,0.00175454,0.00067760,3.12819160,3.68159423,0.30543661,0.00016987,0.00115809,0.00070182,0.00135521,6.10873211,1.84079711,3.91023950
6.900,2,1,1,-530.466,192.089,48.511,23.191672,-2.468199,-2.468199,-25.659871,-4.741226,nan,0.628702,0.245114,0.358099,0.254065,0.292237,1.111457,-0.229183,1.171668,0.771199,65.997500,-34.002500,100.000000,31.995000,788.52072168,0.000000,0.00000000,50.97122962,0.000000,377.27427501,343.73259030,13.52318149,0.00000000,2.84898917,0.14396525,0.01024064,0.01625020,7.16339291,0.00206038,0.00239144,0.00176430,0.00067840,3.14423505,3.70131559,0.31094774,0.00017170,0.00119572,0.00070572,0.00135681,6.21895476,1.85065780,3.93029382
7.000,2,1,1,-530.416,192.131,48.463,22.691314,-2.520325,-2.520325,-25.211639,-5.887141,nan,0.637328,0.235600,-0.845113,0.250524,0.291473,1.067639,-0.128916,1.146391,0.776456,65.999000,-34.001000,100.000000,31.998000,785.67639135,0.000000,0.00000000,50.69426357,0.000000,376.32863746,342.78248125,12.86199198,0.00000000,2.83785132,0.14392143,0.01052932,0.01671502,7.20359372,0.00208068,0.00246089,0.00181870,0.00067866,3.15972596,3.72036879,0.31646005,0.00017339,0.00123044,0.00072748,0.00135731,6.32920107,1.86018440,3.94965745
7.217,2,1,1,-530.416,192.131,48.463,22.691314,-2.520325,-2.520325,-25.211639,-5.887141,nan,0.637328,0.235600,-0.845113,0.250524,0.289882,1.067639,-0.128916,1.146391,0.787238,65.999000,-34.001000,100.000000,31.998000,785.67639135,0.000000,0.00000000,50.69426357,0.000000,376.32863746,342.78248125,12.86199198,0.00000000,2.83785132,0.14392143,0.01052932,0.01671502,7.29089358,0.00212474,0.00261170,0.00193682,0.00067921,3.19336592,3.76174462,0.32843057,0.00017706,0.00130585,0.00077473,0.00135841,6.56861133,1.88087231,3.99170740
7.300,2,1,1,-530.292,192.234,48.343,21.299410,-2.648498,-2.648498,-23.947907,-5.070676,nan,0.509534,0.196320,0.759169,0.233886,0.288952,0.909967,-0.257831,1.067063,0.788802,65.999000,-34.001000,100.000000,31.998000,777.11377564,0.000000,0.00000000,46.46411581,0.000000,374.81298489,341.16938637,11.75568492,0.00000000,2.74049124,0.14487083,0.01038598,0.01585561,7.32139378,0.00213641,0.00265350,0.00197318,0.00068005,3.20494479,3.77600872,0.33299714,0.00017803,0.00132675,0.00078927,0.00136009,6.65994278,1.88800436,4.00618098
7.400,2,1,1,-530.241,192.275,48.295,20.844394,-2.699703,-2.699703,-23.544097,-5.614986,nan,0.568746,0.180919,1.031324,0.221196,0.287712,0.850042,-1.317803,1.011982,0.789698,65.999000,-34.001000,100.000000,31.998000,774.80057006,0.000000,0.00000000,46.57436163,0.000000,373.77526622,340.12838104,11.43765816,0.00000000,2.71357436,0.14468471,0.01054456,0.01609939,7.35724476,0.00214838,0.00269754,0.00205422,0.00070651,3.21845998,3.79266633,0.33851179,0.00017903,0.00134877,0.00082169,0.00141302,6.77023574,1.89633317,4.02307498
7.500,2,1,1,-530.190,192.315,48.245,20.410012,-2.750632,-2.750632,-23.160644,-5.572015,nan,0.612649,0.164975,-0.415394,0.206166,0.286367,0.790131,0.186211,0.949955,0.789704,66.000000,-28.000000,94.000000,38.000000,772.59504465,0.000000,0.00000000,46.93890767,0.000000,372.72345940,339.06729691,11.02057660,0.00000000,2.68279789,0.14164996,0.00772088,0.01263534,7.39164367,0.00215833,0.00273558,0.00206737,0.00070704,3.23153449,3.80878813,0.34365273,0.00017986,0.00136779,0.00082695,0.00141407,6.87305453,1.90439407,4.03941812
7.600,2,1,1,-530.138,192.355,48.196,19.919716,-2.801281,-2.801281,-22.720997,-4.569338,nan,0.607416,0.144676,-0.329451,0.186714,0.284902,0.719661,0.501338,0.873376,0.788786,66.000000,-28.000000,94.000000,38.000000,769.74606843,0.000000,0.00000000,46.20120203,0.000000,371.84000281,338.15395570,10.76112261,0.00000000,2.62878652,0.14159764,0.00736326,0.01203787,7.42494019,0.00216599,0.00276714,0.00207563,0.00071087,3.24411655,3.82431068,0.34879334,0.00018050,0.00138357,0.00083025,0.00142173,6.97586688,1.91215534,4.05514569
7.799,2,1,1,-530.138,192.355,48.196,19.919716,-2.801281,-2.801281,-22.720997,-4.569338,nan,0.607416,0.144676,-0.329451,0.186714,0.282083,0.719661,0.501338,0.873376,0.787031,66.000000,-28.000000,94.000000,38.000000,769.74606843,0.000000,0.00000000,46.20120203,0.000000,371.84000281,338.15395570,10.76112261,0.00000000,2.62878652,0.14159764,0.00736326,0.01203787,7.49118311,0.00218121,0.00282992,0.00209208,0.00071848,3.26914836,3.85519254,0.35902052,0.00018177,0.00141496,0.00083683,0.00143697,7.18041047,1.92759627,4.08643545
7.815,2,1,1,-530.111,192.376,48.170,19.287237,-2.827474,-2.827474,-22.114711,-5.142296,nan,0.490452,0.117127,-0.587282,0.184211,0.281842,0.624037,-0.902409,0.863776,0.786729,66.000000,-28.000000,94.000000,38.000000,764.96129570,0.000000,0.00000000,42.34583984,0.000000,371.86058648,338.06520046,9.94123078,0.00000000,2.58650547,0.14246963,0.00751671,0.01194633,7.49612303,0.00218199,0.00283360,0.00209616,0.00072041,3.27099748,3.85747539,0.35981801,0.00018183,0.00141680,0.00083846,0.00144081,7.19636016,1.92873770,4.08874686
7.900,2,1,1,-529.981,192.473,48.045,18.503287,-2.950861,-2.950861,-21.454148,-3.265859,nan,0.559073,0.082453,0.071620,0.148326,0.280389,0.501102,-1.317803,0.728991,0.784094,66.000000,-28.000000,94.000000,38.000000,760.88756512,0.000000,0.00000000,43.29947335,0.000000,369.51290429,335.76477974,9.64197114,0.00000000,2.50810385,0.14197888,0.00740937,0.01094451,7.52200047,0.00218411,0.00284668,0.00209649,0.00074303,3.28058995,3.86932652,0.36421369,0.00018201,0.00142334,0.00083860,0.00148605,7.28427374,1.93466326,4.10073743
8.000,2,1,1,-529.928,192.512,47.994,18.045962,-2.999947,-2.999947,-21.045908,-4.984733,nan,0.599684,0.060527,-0.558634,0.123809,0.278648,0.429132,-1.131592,0.639502,0.780520,66.000000,-28.000000,94.000000,38.000000,757.51720029,0.000000,0.00000000,42.99866428,0.000000,368.39092225,334.62051846,8.88942061,0.00000000,2.45653217,0.14172798,0.00802083,0.01139370,7.55132736,0.00218545,0.00285790,0.00212025,0.00076253,3.29138231,3.88266598,0.36935294,0.00018212,0.00142895,0.00084810,0.00152505,7.38705872,1.94133299,4.11422789
8.100,2,1,1,-529.874,192.550,47.942,17.594514,-3.048671,-3.048671,-20.643185,-4.784198,nan,0.622731,0.037715,-0.229183,0.097280,0.276889,0.359480,-1.246183,0.546054,0.776568,66.000000,-28.000000,94.000000,38.000000,754.65667159,0.000000,0.00000000,42.70199246,0.000000,367.32402290,333.52838942,8.54246173,0.00000000,2.39900912,0.14148202,0.00817522,0.01113872,7.57972805,0.00218597,0.00286577,0.00212425,0.00078618,3.30176662,3.89550656,0.37449269,0.00018216,0.00143289,0.00084970,0.00157236,7.48985389,1.94775328,4.12720828
8.200,2,1,1,-529.820,192.587,47.890,17.148200,-3.097019,-3.097019,-20.245220,-4.583662,nan,0.633666,0.015235,0.300803,0.070165,0.275136,0.293303,-0.429718,0.453871,0.772342,66.000000,-28.000000,94.000000,38.000000,751.68395067,0.000000,0.00000000,42.20984147,0.000000,366.29389866,332.46882840,8.21142114,0.00000000,2.33945118,0.14130439,0.00831552,0.01088992,7.60723152,0.00218606,0.00287101,0.00213114,0.00078899,3.31175642,3.90786441,0.37963348,0.00018217,0.00143551,0.00085246,0.00157798,7.59266967,1.95393221,4.13969552
8.446,2,1,1,-529.820,192.587,47.890,17.148200,-3.097019,-3.097019,-20.245220,-4.583662,nan,0.633666,0.015235,0.300803,0.070165,0.270960,0.293303,-0.429718,0.453871,0.762290,66.000000,-28.000000,94.000000,38.000000,751.68395067,0.000000,0.00000000,42.20984147,0.000000,366.29389866,332.46882840,8.21142114,0.00000000,2.33945118,0.14130439,0.00831552,0.01088992,7.67492722,0.00218627,0.00288392,0.00214811,0.00079592,3.33634480,3.93828144,0.39228677,0.00018219,0.00144196,0.00085924,0.00159183,7.84573547,1.96914072,4.17043100
8.500,2,1,1,-529.656,192.698,47.732,15.834010,-3.239765,-3.239765,-19.073775,-4.812845,nan,0.504892,-0.046805,-0.257831,0.047952,0.270095,0.124691,-0.071620,0.342949,0.759849,66.000000,-28.000000,94.000000,38.000000,742.75934380,0.000000,0.00000000,38.53633314,0.000000,364.22493328,330.35620651,7.25374759,0.00000000,2.22670165,0.14227480,0.00864073,0.01050609,7.68838995,0.00218670,0.00288443,0.00215083,0.00079596,3.34112046,3.94419609,0.39505549,0.00018222,0.00144221,0.00086033,0.00159192,7.90110978,1.97209804,4.17640058
8.600,2,1,1,-529.600,192.733,47.678,15.402567,-3.286614,-3.286614,-18.689181,-4.669606,nan,0.573515,-0.066973,0.644578,0.043378,0.268564,0.080539,-0.959704,0.266659,0.755312,66.000000,-28.000000,94.000000,38.000000,739.65103768,0.000000,0.00000000,38.22120067,0.000000,363.00476927,329.09073218,6.98724037,0.00000000,2.18605757,0.14188941,0.00884421,0.01030399,7.71262099,0.00218834,0.00288482,0.00218245,0.00080998,3.34962729,3.95473567,0.40019244,0.00018236,0.00144241,0.00087298,0.00161996,8.00384882,1.97736784,4.18703411
8.700,2,1,1,-529.543,192.769,47.624,14.973770,-3.333089,-3.333089,-18.306859,-4.426099,nan,0.611386,-0.086233,0.071620,0.051666,0.267127,0.043248,0.372423,0.191882,0.750818,66.000000,-28.000000,94.000000,38.000000,736.53531221,0.000000,0.00000000,37.75998474,0.000000,361.84623492,327.88902007,6.73659809,0.00000000,2.14281271,0.14159309,0.00900313,0.01006546,7.73605449,0.00219105,0.00288494,0.00218285,0.00081209,3.35779397,3.96485747,0.40533212,0.00018259,0.00144247,0.00087314,0.00162418,8.10664249,1.98242874,4.19724246
8.800,2,1,1,-529.487,192.804,47.569,14.547292,-3.379174,-3.379174,-17.926467,-4.268536,nan,0.637600,-0.103832,-0.186211,0.067513,0.265790,0.013323,-0.300803,0.113536,0.746391,66.000000,-28.000000,94.000000,38.000000,733.45800302,0.000000,0.00000000,37.29518609,0.000000,360.70407251,326.70695983,6.49572100,0.00000000,2.09568472,0.14133114,0.00918100,0.00986673,7.75873805,0.00219499,0.00288495,0.00218549,0.00081347,3.36562346,3.97456476,0.41047093,0.00018292,0.00144247,0.00087419,0.00162694,8.20941870,1.98728238,4.20702933
8.900,2,1,1,-529.429,192.838,47.514,14.122854,-3.424866,-3.424866,-17.547719,-5.099324,nan,0.658833,-0.119800,-0.444042,0.084961,0.264555,-0.008775,-0.229183,0.072139,0.742035,66.000000,-28.000000,94.000000,38.000000,730.45549446,0.000000,0.00000000,36.81839180,0.000000,359.57159671,325.53787227,6.29262243,0.00000000,2.07412823,0.14116182,0.00963296,0.01008822,7.78073060,0.00220024,0.00288495,0.00220051,0.00081427,3.37313446,3.98388035,0.41561581,0.00018335,0.00144248,0.00088021,0.00162854,8.31231618,1.99194018,4.21641808
9.103,2,1,1,-529.429,192.838,47.514,14.122854,-3.424866,-3.424866,-17.547719,-5.099324,nan,0.658833,-0.119800,-0.444042,0.084961,0.262115,-0.008775,-0.229183,0.072139,0.733419,66.000000,-28.000000,94.000000,38.000000,730.45549446,0.000000,0.00000000,36.81839180,0.000000,359.57159671,325.53787227,6.29262243,0.00000000,2.07412823,0.14116182,0.00963296,0.01008822,7.82539396,0.00221091,0.00288496,0.00223104,0.00081589,3.38838810,4.00279883,0.42606423,0.00018424,0.00144248,0.00089242,0.00163179,8.52128454,2.00139941,4.23548513
9.200,2,1,1,-529.255,192.940,47.346,12.859489,-3.559633,-3.559633,-16.419122,-4.139620,nan,0.584315,-0.161453,0.472690,0.122541,0.261231,-0.025721,0.787817,0.030443,0.729435,66.000000,-28.000000,94.000000,38.000000,722.00086908,0.000000,0.00000000,33.92445546,0.000000,357.13538173,323.06058003,5.69433111,0.00000000,2.02532714,0.14172629,0.00974311,0.00932422,7.84461234,0.00222011,0.00288500,0.00224747,0.00082502,3.39473219,4.01067482,0.43102772,0.00018501,0.00144250,0.00089899,0.00165005,8.62055450,2.00533741,4.24341524
9.300,2,1,1,-529.196,192.972,47.289,12.441055,-3.603757,-3.603757,-16.044812,-4.555014,nan,0.631640,-0.172287,-0.257831,0.140390,0.260409,-0.014992,0.845113,0.021899,0.725370,66.000000,-28.000000,94.000000,38.000000,718.88881234,0.000000,0.00000000,33.45134653,0.000000,355.89741834,321.77213234,5.57660810,0.00000000,2.03035892,0.14143859,0.01011531,0.00939421,7.86385739,0.00223097,0.00288501,0.00225254,0.00083591,3.40101027,4.01847127,0.43617143,0.00018591,0.00144251,0.00090101,0.00167182,8.72342855,2.00923563,4.25126284
9.400,2,1,1,-529.136,193.005,47.232,12.023705,-3.647460,-3.647460,-15.671166,-4.984733,nan,0.659736,-0.181120,-0.257831,0.156246,0.259670,0.003544,0.845113,0.020283,0.721375,66.000000,-16.000000,82.000000,50.000000,715.56910822,0.000000,0.00000000,33.00026222,0.000000,354.70825463,320.52879223,5.14553345,0.00000000,2.03824545,0.13742518,0.00526137,0.00533368,7.88190728,0.00224295,0.00288501,0.00225760,0.00084678,3.40699197,4.02590190,0.44078106,0.00018691,0.00144251,0.00090304,0.00169356,8.81562129,2.01295095,4.25873997
9.500,2,1,1,-529.077,193.037,47.174,11.613975,-3.690720,-3.690720,-15.304695,-3.752874,nan,0.670946,-0.189753,-1.045648,0.169451,0.259012,0.029525,0.386747,0.021045,0.717451,66.000000,-28.000000,94.000000,38.000000,712.61114659,0.000000,0.00000000,32.22417582,0.000000,353.56801992,319.35110675,5.25540530,0.00000000,2.05119716,0.14095946,0.01139820,0.00888398,7.89994701,0.00225612,0.00288507,0.00234086,0.00084906,3.41270010,4.03299474,0.44592106,0.00018801,0.00144253,0.00093634,0.00169812,8.91842127,2.01649737,4.26587513
9.600,2,1,1,-529.016,193.068,47.116,11.216522,-3.733361,-3.733361,-14.949883,-3.996381,nan,0.677408,-0.194530,-0.100268,0.178902,0.258404,0.062519,0.315127,0.028074,0.713611,66.000000,-16.000000,82.000000,50.000000,709.14859096,0.000000,0.00000000,31.52989911,0.000000,352.45574523,318.18743281,4.74811593,0.00000000,2.08012840,0.13705808,0.00534968,0.00486171,7.91679798,0.00226995,0.00288531,0.00234163,0.00085057,3.41814873,4.03976696,0.45053483,0.00018916,0.00144265,0.00093665,0.00170115,9.01069662,2.01988348,4.27268591
9.800,2,1,1,-529.016,193.068,47.116,11.216522,-3.733361,-3.733361,-14.949883,-3.996381,nan,0.677408,-0.194530,-0.100268,0.178902,0.257224,0.062519,0.315127,0.028074,0.706129,66.000000,-16.000000,82.000000,50.000000,709.14743896,0.000000,0.00000000,31.52989911,0.000000,352.45574523,318.18743281,4.74811593,0.00000000,2.08012840,0.13705808,0.00419768,0.00486171,7.95043250,0.00229757,0.00288578,0.00234316,0.00085359,3.42902417,4.05328432,0.45974391,0.00019146,0.00144289,0.00093726,0.00170719,9.19487810,2.02664216,4.28628021
9.817,2,1,1,-528.985,193.084,47.086,10.748963,-3.755353,-3.755353,-14.504316,-4.325831,nan,0.544813,-0.199793,0.057296,0.179856,0.257132,0.110630,-0.071620,0.032295,0.705509,66.000000,-16.000000,82.000000,50.000000,706.17194793,0.000000,0.00000000,28.77190021,0.000000,352.57237410,318.27627355,4.32155335,0.00000000,2.08296923,0.13800078,0.00409609,0.00478062,7.95319595,0.00230007,0.00288591,0.00234320,0.00085361,3.42990257,4.05437647,0.46053412,0.00019167,0.00144295,0.00093728,0.00170721,9.21068234,2.02718823,4.28737822
9.900,2,1,1,-528.833,193.158,46.939,10.090940,-3.857977,-3.857977,-13.948917,-4.941761,nan,0.602911,-0.203099,-0.615930,0.193036,0.256713,0.198206,0.974028,0.102766,0.702690,66.000000,-16.000000,82.000000,50.000000,700.34309237,0.000000,0.00000000,28.67950992,0.000000,349.90916597,315.62060309,3.82917957,0.00000000,2.15787967,0.13764335,0.00435743,0.00475336,7.96592619,0.00231261,0.00288790,0.00236722,0.00086562,3.43384464,4.05927977,0.46436843,0.00019272,0.00144395,0.00094689,0.00173124,9.28736869,2.02963988,4.29230581
10.000,2,1,1,-528.771,193.187,46.879,9.744359,-3.898243,-3.898243,-13.642603,-3.982057,nan,0.641269,-0.201789,-0.000000,0.197941,0.256207,0.253557,-0.085944,0.149156,0.699532,66.000000,-16.000000,82.000000,50.000000,696.94957671,0.000000,0.00000000,27.86145961,0.000000,348.66659819,314.31291917,3.75501826,0.00000000,2.20744536,0.13734439,0.00435791,0.00443383,7.98073491,0.00232749,0.00289182,0.00236722,0.00086573,3.43838009,4.06492233,0.46898023,0.00019396,0.00144591,0.00094689,0.00173146,9.37960453,2.03246117,4.29797511
10.100,2,1,1,-528.708,193.215,46.819,9.409277,-3.937896,-3.937896,-13.347173,-3.709902,nan,0.661159,-0.198891,0.529986,0.200494,0.255687,0.312665,1.546986,0.200934,0.696670,66.000000,-16.000000,82.000000,50.000000,693.50506721,0.000000,0.00000000,26.97697931,0.000000,347.47038122,313.05874348,3.59539616,0.00000000,2.25772653,0.13712661,0.00442946,0.00428445,7.99517143,0.00234196,0.00289777,0.00238861,0.00090219,3.44272225,4.07032554,0.47359311,0.00019516,0.00144889,0.00095544,0.00180438,9.47186214,2.03516277,4.30340281
10.200,2,1,1,-528.646,193.243,46.758,9.084311,-3.976953,-3.976953,-13.061264,-2.420747,nan,0.671471,-0.194725,-0.171887,0.200733,0.255144,0.374631,0.515662,0.256629,0.694165,66.000000,-16.000000,82.000000,50.000000,690.39460674,0.000000,0.00000000,26.16806075,0.000000,346.31934626,311.85698424,3.59644601,0.00000000,2.30853985,0.13694429,0.00436059,0.00392474,8.00913961,0.00235581,0.00290632,0.00239086,0.00090624,3.44687838,4.07549824,0.47820376,0.00019632,0.00145316,0.00095634,0.00181248,9.56407528,2.03774912,4.30859797
10.300,2,1,1,-528.583,193.270,46.698,8.768255,-4.015417,-4.015417,-12.783672,-3.179916,nan,0.677127,-0.188937,0.773493,0.198415,0.254567,0.438532,0.830789,0.313465,0.692076,66.000000,-16.000000,82.000000,50.000000,686.88368004,0.000000,0.00000000,25.22314408,0.000000,345.18058104,310.67152961,3.30331881,0.00000000,2.35973486,0.13682691,0.00454020,0.00400453,8.02277349,0.00236886,0.00291804,0.00243643,0.00091675,3.45086118,4.08045612,0.48281611,0.00019741,0.00145902,0.00097457,0.00183350,9.65632222,2.04022806,4.31357647
10.501,2,1,1,-528.583,193.270,46.698,8.768255,-4.015417,-4.015417,-12.783672,-3.179916,nan,0.677127,-0.188937,0.773493,0.198415,0.253439,0.438532,0.830789,0.313465,0.687986,66.000000,-16.000000,82.000000,50.000000,686.88368004,0.000000,0.00000000,25.22314408,0.000000,345.18058104,310.67152961,3.30331881,0.00000000,2.35973486,0.13682691,0.00454020,0.00400453,8.05015821,0.00239507,0.00294157,0.00252795,0.00093787,3.45886095,4.09041442,0.49208037,0.00019959,0.00147079,0.00101118,0.00187574,9.84160749,2.04520721,4.32357619
10.600,2,1,1,-528.393,193.348,46.514,7.887029,-4.127252,-4.127252,-12.014281,-2.306155,nan,0.566262,-0.160119,0.988352,0.185862,0.252705,0.627826,0.658901,0.457594,0.687432,66.000000,-16.000000,82.000000,50.000000,679.27423491,0.000000,0.00000000,22.55040179,0.000000,342.82788750,308.34573950,2.94303715,0.00000000,2.46148711,0.13770206,0.00437531,0.00360449,8.06267571,0.00240437,0.00296538,0.00260171,0.00094442,3.46234861,4.09475804,0.49665318,0.00020036,0.00148269,0.00104068,0.00188885,9.93306364,2.04737902,4.32793576
10.700,2,1,1,-528.329,193.372,46.452,7.596880,-4.163385,-4.163385,-11.760265,-3.337479,nan,0.612254,-0.147218,-0.501338,0.175892,0.251901,0.690836,0.716197,0.534984,0.687465,66.000000,-16.000000,82.000000,50.000000,675.66300206,0.000000,0.00000000,21.69669666,0.000000,341.56280973,307.02010364,2.71974838,0.00000000,2.51778488,0.13745206,0.00463621,0.00377049,8.07491684,0.00241229,0.00299445,0.00262084,0.00095223,3.46571805,4.09895508,0.50126390,0.00020102,0.00149722,0.00104834,0.00190447,10.02527792,2.04947754,4.33214756
10.800,2,1,1,-528.265,193.397,46.390,7.345570,-4.198962,-4.198962,-11.544532,-2.707226,nan,0.637596,-0.134830,-0.458366,0.165027,0.251043,0.744424,1.833465,0.603158,0.688030,66.000000,-16.000000,82.000000,50.000000,672.45324807,0.000000,0.00000000,20.95644030,0.000000,340.36192320,305.76972602,2.65474869,0.00000000,2.56496722,0.13722692,0.00464233,0.00357337,8.08694146,0.00241894,0.00302824,0.00263686,0.00100348,3.46896890,4.10300491,0.50588014,0.00020158,0.00151412,0.00105474,0.00200696,10.11760278,2.05150245,4.33621112
10.900,2,1,1,-528.201,193.420,46.328,7.064058,-4.233982,-4.233982,-11.298040,-2.721550,nan,0.637440,-0.119296,0.071620,0.151239,0.250125,0.802499,-0.372423,0.674654,0.689198,66.000000,-16.000000,82.000000,50.000000,669.28539879,0.000000,0.00000000,20.05637845,0.000000,339.28380563,304.65595851,2.53496080,0.00000000,2.60888437,0.13718253,0.00471078,0.00351773,8.09858215,0.00242414,0.00306746,0.00263725,0.00100559,3.47207831,4.10687910,0.51049031,0.00020201,0.00153373,0.00105490,0.00201119,10.20980614,2.05343955,4.34009789
11.106,2,1,1,-528.201,193.420,46.328,7.064058,-4.233982,-4.233982,-11.298040,-2.721550,nan,0.637440,-0.119296,0.071620,0.151239,0.248279,0.802499,-0.372423,0.674654,0.691529,66.000000,-16.000000,82.000000,50.000000,669.28539879,0.000000,0.00000000,20.05637845,0.000000,339.28380563,304.65595851,2.53496080,0.00000000,2.60888437,0.13718253,0.00471078,0.00351773,8.12254402,0.00243484,0.00314819,0.00263805,0.00100994,3.47847890,4.11485394,0.51998014,0.00020290,0.00157410,0.00105522,0.00201988,10.39960280,2.05742697,4.34809863
11.200,2,1,1,-528.009,193.488,46.141,6.240977,-4.335775,-4.335775,-10.576753,-3.380451,nan,0.746725,-0.064483,-0.042972,0.119313,0.247276,0.951808,0.444042,0.807380,0.694198,66.000000,-14.000000,80.000000,52.000000,661.16841342,0.000000,0.00000000,19.68318553,0.000000,335.55146869,300.85324449,2.17919269,0.00000000,2.75790231,0.13586692,0.00450560,0.00304718,8.13266259,0.00243628,0.00320021,0.00263819,0.00101277,3.48104826,4.11805654,0.52427035,0.00020302,0.00160011,0.00105527,0.00202554,10.48540692,2.05902827,4.35131033
11.300,2,1,1,-527.944,193.510,46.078,5.973604,-4.368656,-4.368656,-10.342259,-2.263183,nan,0.720654,-0.044964,0.802141,0.099171,0.246186,0.991276,0.658901,0.872745,0.697470,66.000000,-14.000000,80.000000,52.000000,658.22652428,0.000000,0.00000000,18.85724758,0.000000,334.50885015,299.78189233,2.14812026,0.00000000,2.78743076,0.13582891,0.00438417,0.00277013,8.14318948,0.00243701,0.00326009,0.00268720,0.00101938,3.48365553,4.12130678,0.52882349,0.00020308,0.00163005,0.00107488,0.00203877,10.57646979,2.06065339,4.35456941
11.400,2,1,1,-527.880,193.531,46.016,5.711670,-4.400986,-4.400986,-10.112656,-2.592634,nan,0.696264,-0.024628,-0.128916,0.077011,0.245087,1.024813,-0.487014,0.931787,0.701099,66.000000,-14.000000,80.000000,52.000000,655.23186018,0.000000,0.00000000,17.94501283,0.000000,333.52936506,298.78303953,2.02252180,0.00000000,2.80877683,0.13590801,0.00445171,0.00278441,8.15340361,0.00243724,0.00332404,0.00268846,0.00102300,3.48614616,4.12441200,0.53337271,0.00020310,0.00166202,0.00107539,0.00204599,10.66745429,2.06220600,4.35768270
11.500,2,1,1,-527.816,193.552,45.953,5.454602,-4.432774,-4.432774,-9.887376,-3.380451,nan,0.677265,-0.003422,-0.171887,0.054648,0.243990,1.052093,0.959704,0.980507,0.705005,66.000000,-14.000000,80.000000,52.000000,652.32610012,0.000000,0.00000000,17.07051304,0.000000,332.57074599,297.81076799,1.90603815,0.00000000,2.82452782,0.13602535,0.00457772,0.00290406,8.16338970,0.00243724,0.00339146,0.00269071,0.00103702,3.48852791,4.12738180,0.53792356,0.00020310,0.00169573,0.00107628,0.00207404,10.75847115,2.06369090,4.36065989
11.600,2,1,1,-527.751,193.572,45.891,5.201844,-4.464045,-4.464045,-9.665888,-3.337479,nan,0.679125,0.018033,-0.000000,0.038619,0.242914,1.072877,0.358099,1.014525,0.709101,66.000000,-14.000000,80.000000,52.000000,649.50897641,0.000000,0.00000000,16.42296567,0.000000,331.52434069,296.74621037,1.83065870,0.00000000,2.84132720,0.13599422,0.00462740,0.00285215,8.17313553,0.00243736,0.00346162,0.00269071,0.00103897,3.49080602,4.13022270,0.54247814,0.00020311,0.00173081,0.00107628,0.00207795,10.84956285,2.06511135,4.36350753
11.800,2,1,1,-527.751,193.572,45.891,5.201844,-4.464045,-4.464045,-9.665888,-3.337479,nan,0.679125,0.018033,-0.000000,0.038619,0.240809,1.072877,0.358099,1.014525,0.716988,66.000000,-14.000000,80.000000,52.000000,649.50897641,0.000000,0.00000000,16.42296567,0.000000,331.52434069,296.74621037,1.83065870,0.00000000,2.84132720,0.13599422,0.00462740,0.00285215,8.19257061,0.00243760,0.00360155,0.00269071,0.00104287,3.49534902,4.13588799,0.55156087,0.00020313,0.00180077,0.00107628,0.00208574,11.03121750,2.06794399,4.36918628
11.815,2,1,1,-527.718,193.582,45.858,4.903540,-4.480110,-4.480110,-9.383650,-2.864789,nan,0.549628,0.043183,0.472690,0.037642,0.240653,1.089033,-0.128916,1.017944,0.717616,66.000000,-14.000000,80.000000,52.000000,648.49708818,0.000000,0.00000000,15.02569545,0.000000,331.74583764,297.03086617,1.74300141,0.00000000,2.80763047,0.13697132,0.00438983,0.00269590,8.19403133,0.00243770,0.00361270,0.00269334,0.00104291,3.49568020,4.13630104,0.55226343,0.00020314,0.00180635,0.00107734,0.00208582,11.04526865,2.06815052,4.36960026
11.900,2,1,1,-527.559,193.630,45.703,4.464839,-4.554955,-4.554955,-9.019794,-2.793169,nan,0.572726,0.079400,-0.272155,0.042717,0.239866,1.095145,0.157563,1.063753,0.721101,66.000000,-14.000000,80.000000,52.000000,643.15860173,0.000000,0.00000000,14.70804479,0.000000,329.26922596,294.59031629,1.63264055,0.00000000,2.81436150,0.13692546,0.00447111,0.00261606,8.20175708,0.00243966,0.00367481,0.00269813,0.00104323,3.49736542,4.13840321,0.55613262,0.00020331,0.00183740,0.00107925,0.00208646,11.12265233,2.06920161,4.37170677
12.000,2,1,1,-527.494,193.648,45.640,4.224997,-4.584324,-4.584324,-8.809322,-3.165592,nan,0.613539,0.098903,-0.315127,0.058911,0.239013,1.089274,0.959704,1.079552,0.725042,66.000000,-14.000000,80.000000,52.000000,640.20812726,0.000000,0.00000000,14.13711843,0.000000,328.11617779,293.40528942,1.58729761,0.00000000,2.81819815,0.13676858,0.00461315,0.00266413,8.21066043,0.00244324,0.00374712,0.00270570,0.00105727,3.49925731,4.14076343,0.56068637,0.00020360,0.00187356,0.00108228,0.00211453,11.21372740,2.07038171,4.37407164
12.100,2,1,1,-527.430,193.666,45.578,3.987546,-4.613253,-4.613253,-8.600799,-2.707226,nan,0.636172,0.117508,0.315127,0.078230,0.238244,1.077024,0.916732,1.087098,0.728739,66.000000,-14.000000,80.000000,52.000000,637.37242144,0.000000,0.00000000,13.60777559,0.000000,327.00544798,292.27089128,1.52190404,0.00000000,2.82262382,0.13662473,0.00462550,0.00252850,8.21935852,0.00244828,0.00381778,0.00271326,0.00107006,3.50105963,4.14301209,0.56523741,0.00020402,0.00190889,0.00108530,0.00214012,11.30474825,2.07150605,4.37632454
12.200,2,1,1,-527.366,193.683,45.515,3.752226,-4.641764,-4.641764,-8.393990,-2.936409,nan,0.649981,0.134618,0.300803,0.097734,0.237561,1.058692,0.501338,1.085541,0.732132,66.000000,-14.000000,80.000000,52.000000,634.66506863,0.000000,0.00000000,13.12669471,0.000000,325.91680416,291.16450137,1.48666884,0.00000000,2.82658777,0.13653010,0.00473354,0.00254813,8.22785831,0.00245491,0.00388609,0.00272015,0.00107389,3.50277721,4.14515523,0.56979083,0.00020458,0.00194304,0.00108806,0.00214778,11.39581662,2.07257762,4.37847151
12.401,2,1,1,-527.366,193.683,45.515,3.752226,-4.641764,-4.641764,-8.393990,-2.936409,nan,0.649981,0.134618,0.300803,0.097734,0.236221,1.058692,0.501338,1.085541,0.738724,66.000000,-14.000000,80.000000,52.000000,634.66506863,0.000000,0.00000000,13.12669471,0.000000,325.91680416,291.16450137,1.48666884,0.00000000,2.82658777,0.13653010,0.00473354,0.00254813,8.24490353,0.00246820,0.00402306,0.00273397,0.00108157,3.50622159,4.14945301,0.57892212,0.00020568,0.00201153,0.00109359,0.00216314,11.57844238,2.07472651,4.38277699
12.500,2,1,1,-527.174,193.734,45.328,3.056904,-4.724928,-4.724928,-7.781832,-2.248859,nan,0.655863,0.175449,-0.401070,0.137568,0.235789,0.971242,0.343775,1.046799,0.740912,66.000000,-14.000000,80.000000,52.000000,627.72619001,0.000000,0.00000000,12.18876674,0.000000,322.99335923,288.26704584,1.33637914,0.00000000,2.79700865,0.13655295,0.00476930,0.00230816,8.25280607,0.00247938,0.00408017,0.00274615,0.00108336,3.50768809,4.15128331,0.58344561,0.00020662,0.00204009,0.00109846,0.00216672,11.66891224,2.07564166,4.38461011
12.600,2,1,1,-527.110,193.750,45.265,2.828082,-4.751894,-4.751894,-7.579976,-2.807493,nan,0.656292,0.185430,0.315127,0.155174,0.235423,0.932900,0.329451,1.016215,0.742673,66.000000,-14.000000,80.000000,52.000000,625.16496202,0.000000,0.00000000,11.70905360,0.000000,321.95896998,287.22272520,1.35309609,0.00000000,2.77725671,0.13653367,0.00491812,0.00240866,8.26057876,0.00249195,0.00413318,0.00275371,0.00108501,3.50908790,4.15303054,0.58799647,0.00020766,0.00206659,0.00110148,0.00217002,11.75992943,2.07651527,4.38635988
12.700,2,1,1,-527.046,193.766,45.203,2.600491,-4.778509,-4.778509,-7.379000,-3.423423,nan,0.660210,0.193043,0.000000,0.170471,0.235112,0.890894,0.272155,0.979110,0.743986,66.000000,-14.000000,80.000000,52.000000,622.70430519,0.000000,0.00000000,11.30131487,0.000000,320.92223933,286.17851157,1.40489934,0.00000000,2.75320963,0.13651189,0.00508442,0.00253414,8.26817645,0.00250557,0.00418153,0.00275371,0.00108614,3.51041469,4.15468673,0.59254807,0.00020880,0.00209077,0.00110148,0.00217228,11.85096148,2.07734337,4.38801837
12.800,2,1,1,-526.982,193.781,45.140,2.392089,-4.804788,-4.804788,-7.196876,-2.248859,nan,0.660120,0.197738,0.042972,0.181294,0.234837,0.849541,-0.587282,0.942543,0.744889,66.000000,-14.000000,80.000000,52.000000,620.06753167,0.000000,0.00000000,10.86680869,0.000000,319.90704466,285.15998495,1.26190230,0.00000000,2.72818244,0.13642263,0.00495072,0.00223529,8.27562430,0.00251985,0.00422547,0.00275385,0.00109139,3.51167594,4.15626122,0.59709659,0.00020999,0.00211273,0.00110154,0.00218278,11.94193176,2.07813061,4.38959492
12.900,2,1,1,-526.948,193.789,45.108,2.166531,-4.818322,-4.818322,-6.984853,-3.380451,nan,0.648570,0.200380,0.272155,0.189200,0.234583,0.802250,0.014324,0.902374,0.745363,66.000000,-14.000000,80.000000,52.000000,619.04478121,0.000000,0.00000000,10.64300224,0.000000,319.45536792,284.71713996,1.38920985,0.00000000,2.69583657,0.13656696,0.00517426,0.00248345,8.28292098,0.00253455,0.00426474,0.00275950,0.00109139,3.51286682,4.15774797,0.60165601,0.00021121,0.00213237,0.00110380,0.00218279,12.03312022,2.07887399,4.39108352
13.100,2,1,1,-526.948,193.789,45.108,2.166531,-4.818322,-4.818322,-6.984853,-3.380451,nan,0.648570,0.200380,0.272155,0.189200,0.234087,0.802250,0.014324,0.902374,0.746285,66.000000,-14.000000,80.000000,52.000000,619.04478121,0.000000,0.00000000,10.64300224,0.000000,319.45536792,284.71713996,1.38920985,0.00000000,2.69583657,0.13656696,0.00517426,0.00248345,8.29748432,0.00256389,0.00434313,0.00277078,0.00109140,3.51524367,4.16071536,0.61075609,0.00021366,0.00217157,0.00110831,0.00218280,12.21512186,2.08035768,4.39405459
13.200,2,1,1,-526.756,193.833,44.920,1.495025,-4.894702,-4.894702,-6.389727,-2.478042,nan,0.616361,0.193511,-0.000000,0.196396,0.233799,0.652310,-1.045648,0.800915,0.745601,66.000000,-14.000000,80.000000,52.000000,612.94956588,0.000000,0.00000000,9.90215153,0.000000,316.84389911,282.19082700,1.26208261,0.00000000,2.60638252,0.13691770,0.00509690,0.00220851,8.30433440,0.00257759,0.00436907,0.00277078,0.00110806,3.51623928,4.16195859,0.61531103,0.00021480,0.00218454,0.00110831,0.00221613,12.30622068,2.08097929,4.39529910
