t,controller_id,state_code,wp_idx,x,y,dist,yaw_deg,yaw_to_wp_deg,yaw_ref_deg,yaw_err_deg,yaw_rate_deg_s,speed_ref,speed_meas,roll_deg,roll_rate_deg_s,roll_rms_window_deg,roll_rms_total_deg,pitch_deg,pitch_rate_deg_s,pitch_rms_window_deg,pitch_rms_total_deg,base_cmd,diff_cmd,T_left,T_right,J_inst,J_goal,J_wave_roll,J_progress,J_smooth,J_mpc_distance,J_mpc_final,J_mpc_heading,J_mpc_wrong_way,J_mpc_pitch,J_mpc_control,J_mpc_slew,J_mpc_turn,J_total,J_roll,J_pitch,J_roll_rate,J_pitch_rate,J_goal_heading,J_no_progress,J_control,I_roll,I_pitch,I_roll_rate,I_pitch_rate,I_control,I_no_progress,I_goal_heading
0.500,2,1,1,-531.984,190.005,49.984,57.364393,-0.006274,-0.006274,-57.370666,0.243507,nan,0.000000,-0.913182,3.179916,1.201212,0.000000,-0.623452,3.996381,0.878242,0.000000,2.500000,-9.500000,12.000000,-7.000000,1055.11406393,0.000000,0.00000000,64.39107435,0.000000,420.30422129,388.13372221,180.13629956,0.00001846,1.93173682,0.14240094,0.02586299,0.04872731,0.00000000,0.00000000,0.00000000,0.00000000,0.00000000,0.00000000,0.00000000,0.00000000,0.00000000,0.00000000,0.00000000,0.00000000,0.00000000,0.00000000,0.00000000
0.815,2,1,1,-531.984,190.005,49.984,57.364393,-0.006274,-0.006274,-57.370666,0.243507,nan,0.000000,-0.913182,3.179916,1.201212,0.913182,-0.623452,3.996381,0.878242,0.623452,2.500000,-21.500000,24.000000,-19.000000,1005.27953510,0.000000,0.00000000,51.81262763,0.000000,419.74842368,387.41609378,144.14619998,0.00000472,1.93768745,0.14329406,0.02614932,0.04905448,0.54807350,0.00095916,0.00007451,0.00242308,0.00076542,0.25238706,0.28999007,0.00147419,0.00007993,0.00003726,0.00096923,0.00153084,0.02948371,0.14499504,0.31548382
0.900,2,1,1,-531.957,190.011,49.957,57.269047,-0.013169,-0.013169,-57.282216,-0.114592,nan,0.045864,0.749125,3.036676,0.921882,0.880707,0.882351,4.569338,0.758183,0.687002,8.000000,-28.000000,36.000000,-20.000000,963.84871248,0.000000,0.00000000,29.70772902,0.000000,417.39350081,384.22758629,130.33226631,0.00005926,1.97715478,0.14260895,0.01893479,0.04887228,0.69678767,0.00113451,0.00011506,0.00302334,0.00103724,0.32073584,0.36854266,0.00219903,0.00009454,0.00005753,0.00120934,0.00207448,0.04398052,0.18427133,0.40091980
1.000,2,1,1,-531.949,190.014,49.949,57.193854,-0.016400,-0.016400,-57.210254,-1.231859,nan,0.064368,1.170062,4.125296,0.936710,0.945644,1.308468,4.497719,0.855111,0.848424,14.000000,-34.000000,48.000000,-20.000000,941.93853353,0.000000,0.00000000,25.05264346,0.000000,415.51853584,381.69648966,117.21171077,0.00010869,2.25177134,0.14317284,0.01462595,0.04947499,0.87170660,0.00163469,0.00021931,0.00431866,0.00134519,0.40045538,0.46018305,0.00355032,0.00013622,0.00010965,0.00172747,0.00269038,0.07100634,0.23009153,0.50056922
1.100,2,1,1,-531.941,190.018,49.941,57.069459,-0.020884,-0.020884,-57.090343,-1.575634,nan,0.077351,1.624922,4.583662,0.990850,1.088562,1.798674,4.669606,1.055515,1.067066,20.000000,-40.000000,60.000000,-20.000000,925.07556990,0.000000,0.00000000,22.48217558,0.000000,413.72748525,379.34447573,106.73688181,0.00012345,2.57543870,0.14535906,0.01287800,0.05075232,1.04738024,0.00259884,0.00041620,0.00591698,0.00167695,0.47979922,0.55142384,0.00554821,0.00021657,0.00020810,0.00236679,0.00335391,0.11096429,0.27571192,0.59974902
1.200,2,1,1,-531.933,190.023,49.933,56.923633,-0.026713,-0.026713,-56.950347,-0.988352,nan,0.086949,2.001131,3.466395,1.210540,1.260209,2.212482,5.013381,1.357934,1.294508,26.000000,-46.000000,72.000000,-20.000000,912.65486469,0.000000,0.00000000,21.46107536,0.000000,412.03255101,377.17916638,98.89579177,0.00011201,2.87115461,0.14911027,0.01346047,0.05244281,1.22337727,0.00406415,0.00071473,0.00683298,0.00206016,0.55891839,0.64244378,0.00834307,0.00033868,0.00035737,0.00273319,0.00412032,0.16686145,0.32122189,0.69864799
1.416,2,1,1,-531.933,190.023,49.933,56.923633,-0.026713,-0.026713,-56.950347,-0.988352,nan,0.086949,2.001131,3.466395,1.210540,1.468534,2.212482,5.013381,1.357934,1.559843,32.000000,-52.000000,84.000000,-20.000000,901.71118139,0.000000,0.00000000,20.44878880,0.000000,410.83461927,375.67858552,91.59954130,0.00006485,2.92546700,0.15380612,0.01526143,0.05504710,1.60403471,0.00721665,0.00135699,0.00880367,0.00288459,0.72913614,0.83826494,0.01637174,0.00060139,0.00067850,0.00352147,0.00576918,0.32743472,0.41913247,0.91142017
1.500,2,1,1,-531.912,190.044,49.912,56.262597,-0.050767,-0.050767,-56.313364,-2.592634,nan,0.077513,2.898030,2.492366,2.011502,1.638573,3.128830,2.936409,2.205117,1.748076,38.000000,-58.000000,96.000000,-20.000000,888.19725154,0.000000,0.02235869,19.48133125,0.000000,409.70928918,374.55624775,80.68673049,0.00000000,3.50586115,0.15901105,0.01633949,0.06008249,1.75253366,0.00981540,0.00186185,0.00920411,0.00299576,0.79455304,0.91366183,0.02044166,0.00081795,0.00093093,0.00368165,0.00599151,0.40883329,0.45683092,0.99319130
1.600,2,1,1,-531.909,190.049,49.909,55.951114,-0.056244,-0.056244,-56.007358,-3.165592,nan,0.081074,3.131037,2.721550,2.380226,1.825434,3.359443,3.136944,2.590140,1.950420,40.000000,-60.000000,100.000000,-20.000000,884.97947598,0.000000,0.03550008,19.80917306,0.000000,409.41986432,374.31599917,77.49661592,0.00000000,3.66134993,0.16147356,0.01655130,0.06294864,1.92740591,0.01340021,0.00254967,0.00976838,0.00314569,0.87102265,1.00187581,0.02564351,0.00111668,0.00127484,0.00390735,0.00629137,0.51287017,0.50093791,1.08877831
1.700,2,1,1,-531.904,190.060,49.904,55.560343,-0.068755,-0.068755,-55.629098,-3.065324,nan,0.104011,3.339466,1.962380,2.747085,1.995837,3.599960,2.836141,2.974136,2.136941,40.000000,-60.000000,100.000000,-20.000000,887.48580843,0.000000,0.05015790,23.07983844,0.000000,409.43023615,374.58051682,76.28848956,0.00000000,3.81637970,0.16117151,0.01650539,0.06251295,2.10026728,0.01747380,0.00333865,0.01006143,0.00326811,0.94638188,1.08890363,0.03083977,0.00145615,0.00166933,0.00402457,0.00653622,0.61679541,0.54445182,1.18297735
1.800,2,1,1,-531.900,190.073,49.900,55.174880,-0.084096,-0.084096,-55.258976,-3.222888,nan,0.123653,3.475017,1.461042,3.034498,2.146139,3.802089,2.721550,3.282822,2.308097,40.000000,-60.000000,100.000000,-20.000000,890.99552755,0.000000,0.06058074,27.38591107,0.000000,409.51277652,374.97242328,74.87521274,0.00000000,3.94880322,0.16090952,0.01659404,0.06231641,2.27150313,0.02188865,0.00421949,0.01022402,0.00338094,1.02080642,1.17494306,0.03604056,0.00182405,0.00210974,0.00408961,0.00676188,0.72081116,0.58747153,1.27600803
1.900,2,1,1,-531.896,190.089,49.896,54.694878,-0.101962,-0.101962,-54.796840,-5.342831,nan,0.136499,3.566152,0.931056,3.244408,2.277050,3.996579,1.790493,3.527797,2.467231,40.000000,-60.000000,100.000000,-20.000000,894.76435495,0.000000,0.06634870,33.76734941,0.000000,409.65677337,375.46756981,71.48950252,0.00000000,4.07475911,0.16091125,0.01727817,0.06386261,2.44021616,0.02653458,0.00519201,0.01028999,0.00342974,1.09393603,1.25959639,0.04123742,0.00221122,0.00259601,0.00411600,0.00685948,0.82474832,0.62979819,1.36742003
2.113,2,1,1,-531.896,190.089,49.896,54.694878,-0.101962,-0.101962,-54.796840,-5.342831,nan,0.136499,3.566152,0.931056,3.244408,2.485922,3.996579,1.790493,3.527797,2.718978,40.000000,-60.000000,100.000000,-20.000000,894.76435495,0.000000,0.06634870,33.76734941,0.000000,409.65677337,375.46756981,71.48950252,0.00000000,4.07475911,0.16091125,0.01727817,0.06386261,2.79986630,0.03643845,0.00726516,0.01043064,0.00353377,1.24982839,1.44005420,0.05231570,0.00303654,0.00363258,0.00417225,0.00706753,1.04631396,0.72002710,1.56228549
2.200,2,1,1,-531.893,190.144,49.893,53.036297,-0.165365,-0.165365,-53.201662,-6.431451,nan,0.149649,3.474182,-1.059972,3.459514,2.545788,4.151238,-1.690225,3.896117,2.809995,40.500000,-59.500000,100.000000,-19.000000,899.20050335,0.000000,0.05485327,42.48692314,0.000000,409.96636754,376.28361707,65.99090168,0.00000000,4.17678859,0.16061394,0.01759686,0.06284125,2.93892400,0.04027428,0.00817793,0.01050502,0.00357159,1.30979564,1.50977991,0.05681962,0.00335619,0.00408896,0.00420201,0.00714319,1.13639236,0.75488996,1.63724455
2.300,2,1,1,-531.895,190.165,49.895,52.425654,-0.189240,-0.189240,-52.614894,-6.517395,nan,0.176669,3.333127,-0.329451,3.487540,2.595794,4.063819,-0.773493,4.022937,2.893926,43.500000,-56.500000,100.000000,-13.000000,911.99005935,0.000000,0.05530179,55.21449764,0.000000,410.15298887,377.01920149,65.15468570,0.00000000,4.16244817,0.15815864,0.01469704,0.05808000,3.09509704,0.04433471,0.00918390,0.01051329,0.00358071,1.37724745,1.58833367,0.06190332,0.00369456,0.00459195,0.00420531,0.00716141,1.23806633,0.79416683,1.72155932
2.400,2,1,1,-531.897,190.187,49.898,51.794552,-0.214649,-0.214649,-52.009201,-6.417127,nan,0.198319,3.134217,-1.647254,3.441844,2.626924,3.914908,-2.048324,4.073390,2.956544,43.500000,-56.500000,100.000000,-13.000000,923.88242692,0.000000,0.05069744,67.01569264,0.000000,410.75395777,378.25235640,63.40300911,0.00000000,4.17654720,0.15799503,0.01467884,0.05749250,3.24798995,0.04793029,0.01011888,0.01072020,0.00364469,1.44325288,1.66532847,0.06699455,0.00399419,0.00505944,0.00428808,0.00728939,1.33989095,0.83266424,1.80406610
2.500,2,1,1,-531.901,190.210,49.901,51.200692,-0.241597,-0.241597,-51.442289,-5.715254,nan,0.215601,2.906560,-2.463719,3.338480,2.641601,3.722534,-2.535338,4.045156,2.999469,43.500000,-56.500000,100.000000,-13.000000,935.39382940,0.000000,0.04276451,77.93382098,0.000000,411.34437529,379.42659121,62.25109384,0.00000000,4.16634140,0.15779819,0.01464961,0.05639436,3.39731796,0.05101681,0.01096267,0.01118221,0.00374255,1.50770840,1.74062891,0.07207641,0.00425140,0.00548134,0.00447288,0.00748509,1.44152825,0.87031445,1.88463551
2.715,2,1,1,-531.901,190.210,49.901,51.200692,-0.241597,-0.241597,-51.442289,-5.715254,nan,0.215601,2.906560,-2.463719,3.338480,2.668474,3.722534,-2.535338,4.045156,3.077112,43.500000,-56.500000,100.000000,-13.000000,935.39382940,0.000000,0.04276451,77.93382098,0.000000,411.34437529,379.42659121,62.25109384,0.00000000,4.16634140,0.15779819,0.01464961,0.05639436,3.71856544,0.05765680,0.01277792,0.01217613,0.00395305,1.64637078,1.90262180,0.08300897,0.00480473,0.00638896,0.00487045,0.00790611,1.66017931,0.95131090,2.05796347
2.800,2,1,1,-531.915,190.289,49.915,49.194726,-0.331159,-0.331159,-49.525885,-7.333860,nan,0.213432,1.941500,-3.380451,2.883711,2.645185,2.786619,-3.795845,3.658434,3.066875,47.750000,-52.250000,100.000000,-4.500000,932.76082605,0.000000,0.01647216,80.74839698,0.000000,411.25688356,379.49051447,57.06168009,0.00000000,3.96866095,0.15540927,0.01222733,0.05058125,3.83568583,0.05882703,0.01317970,0.01291523,0.00413943,1.69713602,1.96222439,0.08726403,0.00490225,0.00658985,0.00516609,0.00827887,1.74528054,0.98111219,2.12142003
2.900,2,1,1,-531.919,190.317,49.920,48.509779,-0.363953,-0.363953,-48.873732,-7.161972,nan,0.246737,1.558239,-4.053676,2.538076,2.608955,2.387952,-3.480719,3.336011,3.041615,47.750000,-52.250000,100.000000,-4.500000,944.17477790,0.000000,0.00538679,92.21410371,0.000000,411.87718533,380.75646661,55.32410133,0.00000000,3.78037772,0.15519483,0.01202923,0.04993235,3.97002359,0.05971454,0.01352709,0.01416653,0.00432395,1.75534192,2.03067573,0.09227382,0.00497621,0.00676354,0.00566661,0.00864790,1.84547641,1.01533787,2.19417740
3.000,2,1,1,-531.924,190.347,49.925,47.824163,-0.398076,-0.398076,-48.222239,-6.904141,nan,0.267955,1.158943,-3.394775,2.135720,2.566731,1.941658,-4.211240,2.942437,3.005357,49.875000,-50.125000,100.000000,-0.250000,952.40336579,0.000000,0.00012587,100.55743533,0.000000,412.07946421,381.38652426,54.60470260,0.00000000,3.56384383,0.15393714,0.01077846,0.04655409,4.10030939,0.06020551,0.01375677,0.01504416,0.00459406,1.81200916,2.09742598,0.09727377,0.00501713,0.00687838,0.00601766,0.00918812,1.94547532,1.04871299,2.26501145
3.100,2,1,1,-531.928,190.378,49.929,47.139412,-0.433376,-0.433376,-47.572787,-6.503071,nan,0.288491,0.750386,-4.769874,1.699154,2.521182,1.449876,-4.254212,2.495466,2.960677,49.875000,-50.125000,100.000000,-0.250000,959.48732215,0.000000,0.00000000,108.20696558,0.000000,412.48243287,382.24122193,53.05150091,0.00000000,3.29501470,0.15370857,0.01074148,0.04573611,4.22788385,0.06041135,0.01388485,0.01677695,0.00486973,1.86716590,2.16250086,0.10227422,0.00503428,0.00694242,0.00671078,0.00973947,2.04548439,1.08125043,2.33395737
3.200,2,1,1,-531.931,190.410,49.932,46.457862,-0.469904,-0.469904,-46.927766,-6.016057,nan,0.301448,0.340185,-4.426099,1.339305,2.474920,0.924361,-5.486071,2.087981,2.910775,50.500000,-49.500000,100.000000,1.000000,963.90009310,0.000000,0.00000000,113.34674137,0.000000,412.66436330,382.72191148,51.90608739,0.00000000,3.05322842,0.15321974,0.01042150,0.04411990,4.35200861,0.06045365,0.01393690,0.01826880,0.00532813,1.92083121,2.22591531,0.10727460,0.00503780,0.00696845,0.00730752,0.01065625,2.14549190,1.11295766,2.40103902
3.435,2,1,1,-531.931,190.410,49.932,46.457862,-0.469904,-0.469904,-46.927766,-6.016057,nan,0.301448,0.340185,-4.426099,1.339305,2.375857,0.924361,-5.486071,2.087981,2.804184,50.500000,-49.500000,100.000000,1.000000,963.90008685,0.000000,0.00000000,113.34674137,0.000000,412.66436330,382.72191148,51.90608739,0.00000000,3.05322842,0.15321974,0.01041525,0.04411990,4.64328778,0.06055292,0.01405905,0.02176968,0.00640382,2.04676572,2.37472778,0.11900880,0.00504608,0.00702953,0.00870787,0.01280764,2.38017601,1.18736389,2.55845715
3.500,2,1,1,-531.932,190.513,49.935,44.434159,-0.588064,-0.588064,-45.022223,-7.276564,nan,0.378265,-0.854962,-4.640958,0.889395,2.353229,-0.678445,-5.099324,1.421314,2.775287,51.250000,-48.750000,100.000000,2.500000,965.23009015,0.000000,0.00000000,120.32437771,0.000000,412.67398169,383.23309542,46.13044901,0.00000000,2.66241215,0.15242030,0.01052510,0.04282878,4.71866195,0.06072750,0.01407738,0.02284134,0.00666258,2.07903931,2.41303623,0.12227761,0.00506062,0.00703869,0.00913654,0.01332516,2.44555227,1.20651811,2.59879914
3.600,2,1,1,-531.929,190.549,49.932,43.766431,-0.630161,-0.630161,-44.396592,-6.417127,nan,0.369598,-1.216112,-4.669606,0.797073,2.325244,-1.189995,-4.870141,1.093711,2.738511,51.625000,-48.375000,100.000000,3.250000,963.69006021,0.000000,0.00000000,120.28558664,0.000000,412.43859007,383.00478954,45.23091601,0.00000000,2.52666317,0.15197089,0.01028052,0.04126338,4.83144526,0.06126810,0.01416365,0.02450189,0.00702383,2.12707224,2.47013272,0.12728284,0.00510567,0.00708182,0.00980076,0.01404765,2.54565676,1.23506636,2.65884030
3.700,2,1,1,-531.925,190.587,49.928,43.102683,-0.673409,-0.673409,-43.776092,-6.316860,nan,0.371754,-1.550439,-3.051000,0.934512,2.304976,-1.685320,-4.053676,1.020981,2.711796,51.812500,-48.187500,100.000000,3.625000,961.50753481,0.000000,0.00000000,119.79585579,0.000000,412.15039219,382.71202032,43.79615448,0.00000000,2.85066322,0.15164016,0.01026922,0.04053943,4.94075974,0.06214686,0.01433670,0.02521082,0.00727412,2.17377525,2.52572628,0.13228971,0.00517891,0.00716835,0.01008433,0.01454824,2.64579420,1.26286314,2.71721907
3.800,2,1,1,-531.918,190.625,49.922,42.442937,-0.717746,-0.717746,-43.160683,-6.503071,nan,0.382672,-1.854587,-2.707226,1.210417,2.292614,-2.157395,-4.239888,1.255680,2.696654,51.906000,-48.094000,100.000000,3.812000,959.02524704,0.000000,0.00000000,119.26275259,0.000000,411.81463778,382.37308604,42.20966516,0.00000000,3.16324070,0.15133885,0.01035924,0.04016668,5.04777388,0.06340561,0.01462059,0.02576962,0.00754824,2.21922488,2.57990209,0.13730285,0.00528380,0.00731030,0.01030785,0.01509648,2.74605695,1.28995105,2.77403110
4.008,2,1,1,-531.918,190.625,49.922,42.442937,-0.717746,-0.717746,-43.160683,-6.503071,nan,0.382672,-1.854587,-2.707226,1.210417,2.269061,-2.157395,-4.239888,1.255680,2.667795,51.953000,-48.047000,100.000000,3.906000,959.01129478,0.000000,0.00000000,119.25072545,0.000000,411.80823468,382.36493118,42.22203408,0.00000000,3.16360542,0.15131934,0.01033385,0.04011077,5.26951272,0.06601380,0.01520883,0.02692747,0.00811623,2.31339854,2.69215681,0.14769105,0.00550115,0.00760441,0.01077099,0.01623246,2.95382092,1.34607841,2.89174818
4.100,2,1,1,-531.889,190.746,49.894,40.561640,-0.857172,-0.857172,-41.418812,-6.087677,nan,0.336634,-2.528307,-2.406423,1.853195,2.276093,-3.288762,-2.535338,2.223938,2.685550,57.953000,-42.047000,100.000000,15.906000,942.17157796,0.000000,0.00397686,107.61174147,0.000000,409.95722532,379.75975183,40.71208554,0.00000000,3.93528542,0.15010662,0.00830976,0.03309515,5.36247854,0.06817553,0.01581845,0.02733545,0.00820680,2.35207507,2.73843345,0.15243378,0.00568129,0.00790922,0.01093418,0.01641361,3.04867554,1.36921672,2.94009384
4.200,2,1,1,-531.875,190.788,49.881,39.915767,-0.905731,-0.905731,-40.821498,-7.319536,nan,0.383526,-2.685127,-1.203211,2.162508,2.288111,-3.576732,-2.506690,2.710405,2.713489,56.476500,-43.523500,100.000000,12.953000,936.99327635,0.000000,0.00662990,106.36683304,0.000000,409.47279508,379.27112603,37.54848576,0.00000000,4.13462727,0.14959392,0.00907060,0.03411476,5.46045213,0.07081131,0.01659792,0.02744571,0.00830252,2.39268815,2.78708834,0.15751817,0.00590094,0.00829896,0.01097829,0.01660503,3.15036349,1.39354417,2.99086019
4.300,2,1,1,-531.859,190.831,49.866,39.279979,-0.955347,-0.955347,-40.235325,-5.872817,nan,0.417020,-2.797537,-1.661578,2.425005,2.302959,-3.803565,-2.148592,3.140213,2.747719,56.477000,-43.523000,100.000000,12.954000,934.12601873,0.000000,0.00912026,105.18980232,0.000000,408.80078900,378.51416379,37.11188665,0.00000000,4.30952643,0.14902887,0.00896598,0.03273543,5.55632392,0.07367192,0.01747925,0.02765595,0.00837283,2.43213666,2.83440558,0.16260174,0.00613933,0.00873962,0.01106238,0.01674565,3.25203472,1.41720279,3.04017083
4.400,2,1,1,-531.841,190.875,49.848,38.651420,-1.005966,-1.005966,-39.657386,-6.431451,nan,0.440349,-2.865025,-2.062648,2.628850,2.319079,-3.960774,-0.902409,3.492698,2.785443,56.477000,-43.523000,100.000000,12.954000,928.66391991,0.000000,0.01040726,102.92529359,0.000000,408.04698909,377.63928675,35.41329718,0.00000000,4.43813753,0.14864496,0.00910143,0.03276213,5.65008792,0.07667358,0.01843537,0.02798007,0.00838523,2.47047749,2.88044856,0.16768761,0.00638947,0.00921768,0.01119203,0.01677047,3.35375227,1.44022428,3.08809687
4.603,2,1,1,-531.841,190.875,49.848,38.651420,-1.005966,-1.005966,-39.657386,-6.431451,nan,0.440349,-2.865025,-2.062648,2.628850,2.349056,-3.960774,-0.902409,3.492698,2.854947,56.477000,-43.523000,100.000000,12.954000,928.66391991,0.000000,0.01040726,102.92529359,0.000000,408.04698909,377.63928675,35.41329718,0.00000000,4.43813753,0.14864496,0.00910143,0.03276213,5.84022373,0.08276039,0.02037421,0.02863734,0.00841039,2.54822550,2.97381509,0.17800082,0.00689670,0.01018710,0.01145494,0.01682079,3.56001635,1.48690755,3.18528187
4.700,2,1,1,-531.773,191.011,49.783,36.797890,-1.163833,-1.163833,-37.961723,-5.758226,nan,0.399535,-2.830767,0.845113,2.802835,2.361295,-3.977196,1.604282,3.851848,2.885806,56.477000,-43.523000,100.000000,12.954000,912.02086850,0.000000,0.00867515,93.43658828,0.000000,406.37806614,375.47590296,32.09053613,0.00000000,4.44180488,0.14876611,0.00925553,0.03127331,5.92417075,0.08560295,0.02130941,0.02869012,0.00844844,2.58230576,3.01487965,0.18293441,0.00713358,0.01065470,0.01147605,0.01689687,3.65868829,1.50743983,3.22788220
4.800,2,1,1,-531.746,191.058,49.757,36.187700,-1.218084,-1.218084,-37.405783,-5.872817,nan,0.459796,-2.741259,1.059972,2.828617,2.370827,-3.838232,2.778845,3.929829,2.911506,60.500000,-39.500000,100.000000,21.000000,906.47295068,0.000000,0.00859180,91.11051449,0.000000,404.79126884,373.61550729,32.26571693,0.00000000,4.49759107,0.14775382,0.00807953,0.02792691,6.00849744,0.08835085,0.02220727,0.02877572,0.00856609,2.61641611,3.05602452,0.18815688,0.00736257,0.01110364,0.01151029,0.01713218,3.76313770,1.52801226,3.27052014
4.900,2,1,1,-531.717,191.105,49.729,35.582434,-1.273002,-1.273002,-36.855436,-5.056353,nan,0.497897,-2.616295,0.429718,2.805243,2.376683,-3.634018,2.392099,3.920510,2.929894,57.750000,-42.250000,100.000000,15.500000,901.31485550,0.000000,0.00769552,89.15914141,0.000000,404.11439450,372.87459608,30.47872114,0.00000000,4.49502827,0.14723980,0.00917965,0.02885912,6.09004593,0.09085142,0.02301133,0.02878977,0.00865319,2.64949703,3.09596937,0.19327382,0.00757095,0.01150567,0.01151591,0.01730638,3.86547649,1.54798468,3.31187128
5.000,2,1,1,-531.685,191.152,49.699,34.983902,-1.328574,-1.328574,-36.312476,-6.016057,nan,0.529864,-2.457648,0.444042,2.733552,2.378512,-3.366057,3.724226,3.819742,2.940289,60.500000,-39.500000,100.000000,21.000000,894.84150897,0.000000,0.00610834,86.56526471,0.000000,402.66918014,371.18389731,29.74130448,0.00000000,4.49366430,0.14656441,0.00847870,0.02704659,6.16935498,0.09305903,0.02370153,0.02880479,0.00886442,2.68162660,3.13480490,0.19849371,0.00775492,0.01185077,0.01152191,0.01772883,3.96987412,1.56740245,3.35203325
5.100,2,1,1,-531.652,191.200,49.666,34.389906,-1.384814,-1.384814,-35.774720,-5.815522,nan,0.555525,-2.272901,1.217535,2.620469,2.376266,-3.033683,3.967733,3.635521,2.942351,60.500000,-39.500000,100.000000,21.000000,889.18811382,0.000000,0.00408687,84.34794521,0.000000,401.59126299,369.94997129,28.71380176,0.00000000,4.39994673,0.14603521,0.00856172,0.02650203,6.24630505,0.09494753,0.02426225,0.02891768,0.00910420,2.71281670,3.17254223,0.20371444,0.00791229,0.01213113,0.01156707,0.01820841,4.07428883,1.58627112,3.39102088
5.310,2,1,1,-531.652,191.200,49.666,34.389906,-1.384814,-1.384814,-35.774720,-5.815522,nan,0.555525,-2.272901,1.217535,2.620469,2.371844,-3.033683,3.967733,3.635521,2.946400,60.500000,-39.500000,100.000000,21.000000,889.18811382,0.000000,0.00408687,84.34794521,0.000000,401.59126299,369.94997129,28.71380176,0.00000000,4.39994673,0.14603521,0.00856172,0.02650203,6.40800799,0.09891602,0.02544055,0.02915492,0.00960810,2.77835961,3.25184349,0.21468530,0.00824300,0.01272027,0.01166197,0.01921619,4.29370597,1.62592175,3.47294951
5.400,2,1,1,-531.538,191.347,49.556,32.689721,-1.557007,-1.557007,-34.246727,-5.070676,nan,0.499249,-1.608344,2.850465,2.270650,2.360057,-1.738939,6.488747,3.025159,2.928726,60.500000,-39.500000,100.000000,21.000000,872.99684477,0.000000,0.00051717,76.26010894,0.000000,399.33069647,367.27774004,25.97934439,0.00000000,3.96843589,0.14616107,0.00894651,0.02489428,6.47174292,0.09976643,0.02560623,0.02971141,0.01018483,2.80406442,3.28302921,0.21938039,0.00831387,0.01280312,0.01188456,0.02036967,4.38760771,1.64151461,3.50508052
5.500,2,1,1,-531.495,191.396,49.515,32.116507,-1.615184,-1.615184,-33.731691,-5.915789,nan,0.564536,-1.347521,2.191564,2.019355,2.344104,-1.208257,4.870141,2.570408,2.904333,60.500000,-39.500000,100.000000,21.000000,865.85542329,0.000000,0.00000000,73.75768143,0.000000,397.91320894,365.67271173,24.63493501,0.00000000,3.69703193,0.14551241,0.00925064,0.02509119,6.53981348,0.10042991,0.02569514,0.03007702,0.01054593,2.83178101,3.31668576,0.22459871,0.00836916,0.01284757,0.01203081,0.02109187,4.49197418,1.65834288,3.53972626
5.600,2,1,1,-531.451,191.445,49.472,31.546824,-1.673603,-1.673603,-33.220427,-5.242564,nan,0.606822,-1.078572,2.435071,1.736136,2.325912,-0.647809,6.703606,2.043148,2.877140,60.500000,-39.500000,100.000000,21.000000,859.88182910,0.000000,0.00000000,71.60495259,0.000000,396.56813488,364.15033442,24.01536453,0.00000000,3.36443155,0.14489186,0.00931413,0.02440514,6.60622054,0.10085527,0.02572071,0.03052872,0.01123059,2.85868292,3.34938158,0.22982075,0.00840461,0.01286035,0.01221149,0.02246117,4.59641496,1.67469079,3.57335365
5.700,2,1,1,-531.405,191.494,49.428,30.980105,-1.732160,-1.732160,-32.712265,-5.357155,nan,0.636054,-0.806015,2.320479,1.435756,2.306142,-0.067372,6.073353,1.470982,2.849347,63.250000,-36.750000,100.000000,26.500000,853.48085549,0.000000,0.00000000,69.37320873,0.000000,394.89085330,362.21933678,23.80897248,0.00000000,3.01282050,0.14449121,0.00867754,0.02249495,6.67060340,0.10109284,0.02572099,0.03093893,0.01179259,2.88477000,3.38111421,0.23517384,0.00842440,0.01286049,0.01237557,0.02358518,4.70347677,1.69055711,3.60596250
5.923,2,1,1,-531.405,191.494,49.428,30.980105,-1.732160,-1.732160,-32.712265,-5.357155,nan,0.636054,-0.806015,2.320479,1.435756,2.264193,-0.067372,6.073353,1.470982,2.790261,63.250000,-36.750000,100.000000,26.500000,853.48073449,0.000000,0.00000000,69.37320873,0.000000,394.89085330,362.21933678,23.80897248,0.00000000,3.01282050,0.14449121,0.00855654,0.02249495,6.81392680,0.10162168,0.02572160,0.03185211,0.01304368,2.94284274,3.45175457,0.24709041,0.00846847,0.01286080,0.01274085,0.02608736,4.94180826,1.72587728,3.67855342
6.000,2,1,1,-531.259,191.641,49.286,29.309120,-1.907612,-1.907612,-31.216733,-4.526367,nan,0.542951,0.005656,2.406423,0.980192,2.248251,1.693197,6.001733,1.102064,2.777865,63.250000,-36.750000,100.000000,26.500000,838.82003055,0.000000,0.00000000,62.18200832,0.000000,392.43662843,359.44876254,21.43666155,0.00000000,3.14118017,0.14496017,0.00882189,0.02100748,6.85963275,0.10162169,0.02585641,0.03219247,0.01346711,2.96117098,3.47410372,0.25122038,0.00846847,0.01292820,0.01287699,0.02693422,5.02440754,1.73705186,3.70146373
6.100,2,1,1,-531.208,191.689,49.237,28.762239,-1.965795,-1.965795,-30.728034,-5.572015,nan,0.610278,0.262378,2.277507,0.709372,2.228339,2.260787,5.657958,1.291697,2.769469,64.625000,-35.375000,100.000000,29.250000,833.17833366,0.000000,0.00000000,60.52643779,0.000000,390.77730730,357.60712535,20.50780148,0.00000000,3.58584965,0.14447786,0.00886353,0.02047070,6.91743777,0.10164688,0.02616817,0.03258796,0.01395527,2.98420823,3.50221665,0.25665462,0.00847057,0.01308408,0.01303518,0.02791053,5.13309232,1.75110832,3.73026029
6.200,2,1,1,-531.156,191.737,49.187,28.219837,-2.023771,-2.023771,-30.243609,-5.099324,nan,0.652473,0.503980,2.893437,0.479866,2.209676,2.806749,5.629310,1.720747,2.770129,64.625000,-35.375000,100.000000,29.250000,829.03809501,0.000000,0.00000000,59.41737521,0.000000,389.41567231,356.13548643,19.89117748,0.00000000,4.00553774,0.14391402,0.00900157,0.01993025,6.97418909,0.10173993,0.02664912,0.03322686,0.01443893,3.00654508,3.52949540,0.26209378,0.00847833,0.01332456,0.01329074,0.02887786,5.24187561,1.76474770,3.75818135
6.300,2,1,1,-531.104,191.785,49.136,27.682683,-2.081434,-2.081434,-29.764116,-4.383127,nan,0.676335,0.730015,1.561310,0.381645,2.192685,3.321726,5.486071,2.246535,2.780539,64.625000,-35.375000,100.000000,29.250000,825.35338375,0.000000,0.00000000,58.43807522,0.000000,388.15888529,354.78838701,19.39488608,0.00000000,4.40129450,0.14347375,0.00908504,0.01929685,7.02895885,0.10193422,0.02731959,0.03341202,0.01489614,3.02807789,3.55581153,0.26750746,0.00849452,0.01365980,0.01336481,0.02979229,5.35014915,1.77790577,3.78509736
6.400,2,1,1,-531.052,191.832,49.086,27.150068,-2.138658,-2.138658,-29.288726,-5.887141,nan,0.686707,0.940421,1.991028,0.538350,2.177463,3.796708,3.853141,2.758581,2.800842,65.312500,-34.687500,100.000000,30.625000,820.56129108,0.000000,0.00000000,57.14895002,0.000000,386.87445593,353.40869441,18.18390093,0.00000000,4.77321516,0.14329253,0.00947476,0.01930736,7.08264798,0.10225762,0.02819811,0.03371401,0.01512235,3.04899007,3.58138747,0.27297834,0.00852147,0.01409906,0.01348561,0.03024470,5.45956677,1.79069374,3.81123759
6.613,2,1,1,-531.052,191.832,49.086,27.150068,-2.138658,-2.138658,-29.288726,-5.887141,nan,0.686707,0.940421,1.991028,0.538350,2.146469,3.796708,3.853141,2.758581,2.841304,65.656000,-34.344000,100.000000,31.312000,820.54284995,0.000000,0.00000000,57.14892008,0.000000,386.82930089,353.35269395,18.26239604,0.00000000,4.77769602,0.14334702,0.00935045,0.01914551,7.19668169,0.10294423,0.03006332,0.03435519,0.01560262,3.09338917,3.63568829,0.28463887,0.00857869,0.01503166,0.01374208,0.03120524,5.69277737,1.81784415,3.86673646
6.700,2,1,1,-530.897,191.970,48.936,25.577179,-2.307299,-2.307299,-27.884478,-5.342831,nan,0.575968,1.452092,1.804817,0.975330,2.138229,4.906848,1.847789,3.792051,2.880821,65.828000,-34.172000,100.000000,31.656000,809.92607719,0.000000,0.00000000,52.28119959,0.000000,384.62063984,351.00607372,16.33670638,0.00000000,5.50989626,0.14413350,0.00951767,0.01791023,7.24066408,0.10361942,0.03134829,0.03457249,0.01564817,3.10998775,3.65603021,0.28945776,0.00863495,0.01567414,0.01382900,0.03129635,5.78915512,1.82801510,3.88748468
6.800,2,1,1,-530.872,191.992,48.913,25.122302,-2.333846,-2.333846,-27.456147,-5.185268,nan,0.608291,1.563203,0.615930,1.171716,2.130315,5.129628,2.177240,4.248918,2.930029,65.914000,-34.086000,100.000000,31.828000,808.73372786,0.000000,0.00000000,52.57662624,0.000000,384.05795048,350.45267714,15.78611454,0.00000000,5.68923986,0.14392037,0.00966175,0.01753749,7.28966698,0.10451268,0.03295141,0.03460138,0.01572038,3.12835880,3.67855794,0.29496440,0.00870939,0.01647571,0.01384055,0.03144075,5.89928792,1.83927897,3.91044850
6.900,2,1,1,-530.822,192.037,48.865,24.608666,-2.388737,-2.388737,-26.997404,-4.569338,nan,0.720970,1.668745,0.902409,1.365480,2.123869,5.321579,1.733197,4.686930,2.982223,65.957000,-34.043000,100.000000,31.914000,808.91135053,0.000000,0.00000000,55.45977359,0.000000,382.76540625,349.26806867,15.34405943,0.00000000,5.90412935,0.14308507,0.00984947,0.01697871,7.33762173,0.10553141,0.03467809,0.03466345,0.01576617,3.14613477,3.70036982,0.30047802,0.00879428,0.01733904,0.01386538,0.03153233,6.00956044,1.85018491,3.93266847
7.000,2,1,1,-530.773,192.081,48.818,24.098160,-2.443057,-2.443057,-26.541217,-4.855817,nan,0.770607,1.752363,0.615930,1.529975,2.118650,5.446332,1.475366,5.040861,3.035288,65.978500,-34.021500,100.000000,31.957000,808.27786930,0.000000,0.00000000,57.46704615,0.000000,381.67906519,348.27940461,14.63755818,0.00000000,6.04516762,0.14257709,0.01022501,0.01682545,7.38433911,0.10665321,0.03648411,0.03469232,0.01579930,3.16329081,3.72143413,0.30598523,0.00888777,0.01824205,0.01387693,0.03159860,6.11970460,1.86071706,3.95411352
7.213,2,1,1,-530.773,192.081,48.818,24.098160,-2.443057,-2.443057,-26.541217,-4.855817,nan,0.770607,1.752363,0.615930,1.529975,2.108034,5.446332,1.475366,5.040861,3.140086,65.989000,-34.011000,100.000000,31.978000,808.27614882,0.000000,0.00000000,57.46676552,0.000000,381.67765848,348.27766753,14.63909452,0.00000000,6.04534222,0.14257876,0.01022121,0.01682057,7.48364468,0.10903774,0.04032306,0.03475370,0.01586973,3.19975831,3.76620917,0.31769298,0.00908648,0.02016153,0.01390148,0.03173945,6.35385955,1.88310458,3.99969789
7.300,2,1,1,-530.633,192.211,48.683,22.581409,-2.602811,-2.602811,-25.184219,-5.357155,nan,0.607695,1.864451,0.401070,1.709655,2.105077,5.404229,-1.733197,5.317293,3.179503,65.994500,-34.005500,100.000000,31.989000,797.82031042,0.000000,0.00000000,52.43556116,0.000000,379.96710602,346.44928292,12.88770638,0.00000000,5.91003736,0.14370138,0.01053086,0.01638434,7.52137114,0.11015034,0.04188101,0.03476442,0.01590979,3.21329156,3.78285511,0.32251891,0.00917920,0.02094050,0.01390577,0.03181957,6.45037830,1.89142756,4.01661445
7.400,2,1,1,-530.589,192.253,48.641,22.079713,-2.655066,-2.655066,-24.734779,-5.199592,nan,0.668705,1.858123,0.329451,1.783021,2.101705,5.252017,-2.248859,5.377092,3.219082,65.997500,-34.002500,100.000000,31.995000,799.01980556,0.000000,0.00000000,55.39004935,0.000000,379.21397153,345.87475244,12.45241813,0.00000000,5.91840974,0.14342478,0.01062578,0.01615381,7.56316985,0.11141243,0.04356152,0.03477269,0.01598682,3.22820114,3.80120444,0.32803082,0.00928437,0.02178076,0.01390907,0.03197363,6.56061631,1.90060222,4.03525143
7.500,2,1,1,-530.545,192.295,48.600,21.579598,-2.706849,-2.706849,-24.286448,-4.110972,nan,0.692183,1.832563,-0.057296,1.828147,2.098103,5.034135,-3.079648,5.350047,3.252154,65.999000,-34.001000,100.000000,31.998000,799.80382928,0.000000,0.00000000,57.66033397,0.000000,378.57166593,345.38199506,12.10938934,0.00000000,5.91123938,0.14322285,0.01061295,0.01536979,7.60367523,0.11264013,0.04510561,0.03477294,0.01613128,3.24257621,3.81890584,0.33354322,0.00938668,0.02255280,0.01390917,0.03226256,6.67086449,1.90945292,4.05322027
7.600,2,1,1,-530.503,192.337,48.559,21.080861,-2.758206,-2.758206,-23.839067,-4.068000,nan,0.704231,1.788284,-0.658901,1.844430,2.094058,4.754273,-3.036676,5.235365,3.278091,65.999000,-34.001000,100.000000,31.998000,800.20323227,0.000000,0.00000000,59.61817572,0.000000,377.97260618,344.92445652,11.68395144,0.00000000,5.83498102,0.14317795,0.01066621,0.01521723,7.64281663,0.11380904,0.04648258,0.03480600,0.01627172,3.25642452,3.83596794,0.33905482,0.00948409,0.02324129,0.01392240,0.03254344,6.78109650,1.91798397,4.07053065
7.700,2,1,1,-530.462,192.378,48.520,20.583329,-2.809195,-2.809195,-23.392523,-4.870141,nan,0.699070,1.725782,-1.131592,1.823507,2.089388,4.416897,-3.466395,5.037201,3.296601,65.999000,-34.001000,100.000000,31.998000,799.99120501,0.000000,0.00000000,60.91056699,0.000000,377.44155472,344.50793833,11.27435913,0.00000000,5.68708588,0.14334162,0.01077104,0.01558730,7.68065708,0.11489765,0.04767104,0.03490350,0.01645472,3.26975859,3.85240528,0.34456630,0.00957480,0.02383552,0.01396140,0.03290944,6.89132601,1.92620264,4.08719824
7.919,2,1,1,-530.462,192.378,48.520,20.583329,-2.809195,-2.809195,-23.392523,-4.870141,nan,0.699070,1.725782,-1.131592,1.823507,2.079592,4.416897,-3.466395,5.037201,3.334963,65.999000,-34.001000,100.000000,31.998000,799.99120501,0.000000,0.00000000,60.91056699,0.000000,377.44155472,344.50793833,11.27435913,0.00000000,5.68708588,0.14334162,0.01077104,0.01558730,7.76330614,0.11727533,0.05026680,0.03511648,0.01685441,3.29888213,3.88830683,0.35660417,0.00977294,0.02513340,0.01404659,0.03370882,7.13208334,1.94415341,4.12360266
8.000,2,1,1,-530.342,192.500,48.407,19.136314,-2.960329,-2.960329,-22.096642,-3.867465,nan,0.550334,1.456431,-0.615930,1.717653,2.073818,3.151378,-4.841493,4.457960,3.333019,66.000000,-28.000000,94.000000,38.000000,790.44039476,0.000000,0.00000000,55.84822155,0.000000,376.07231649,342.96996544,10.20945724,0.00000000,5.17960863,0.14167401,0.00767630,0.01147509,7.79064719,0.11790826,0.05076068,0.03514006,0.01714583,3.30859471,3.90029782,0.36079983,0.00982569,0.02538034,0.01405602,0.03429167,7.21599659,1.95014891,4.13574339
8.100,2,1,1,-530.303,192.540,48.370,18.703680,-3.010167,-3.010167,-21.713846,-5.185268,nan,0.558276,1.354724,-0.444042,1.631177,2.065979,2.703712,-5.385803,4.033160,3.325510,66.000000,-28.000000,94.000000,38.000000,788.81907628,0.000000,0.00000000,56.02613936,0.000000,375.65290418,342.61816771,9.50126259,0.00000000,4.85911452,0.14193858,0.00776983,0.01177951,7.82305326,0.11857937,0.05120619,0.03515508,0.01758779,3.32008882,3.91449432,0.36594169,0.00988161,0.02560310,0.01406203,0.03517559,7.31883377,1.95724716,4.15011103
8.200,2,1,1,-530.264,192.580,48.333,18.220956,-3.059703,-3.059703,-21.280659,-4.812845,nan,0.534788,1.230402,-1.160240,1.515698,2.057306,2.167802,-5.572015,3.492591,3.313072,66.000000,-28.000000,94.000000,38.000000,786.35443272,0.000000,0.00000000,55.08739936,0.000000,375.28008793,342.24749951,9.12881428,0.00000000,4.44914503,0.14229283,0.00775984,0.01143393,7.85427348,0.11913261,0.05149242,0.03525757,0.01806055,3.33112201,3.92812798,0.37108034,0.00992772,0.02574621,0.01410303,0.03612109,7.42160681,1.96406399,4.16390251
8.300,2,1,1,-530.225,192.619,48.296,17.747029,-3.108931,-3.108931,-20.855961,-4.325831,nan,0.532805,1.098474,-1.604282,1.380584,2.047856,1.610530,-5.758226,2.873774,3.296812,66.000000,-28.000000,94.000000,38.000000,784.28714477,0.000000,0.00000000,54.73756561,0.000000,374.80442308,341.79058291,8.79355764,0.00000000,3.99973196,0.14247054,0.00775750,0.01105553,7.88441938,0.11957371,0.05165045,0.03545358,0.01856558,3.34172252,3.94123295,0.37622059,0.00996448,0.02582523,0.01418143,0.03713117,7.52441189,1.97061647,4.17715314
8.550,2,1,1,-530.225,192.619,48.296,17.747029,-3.108931,-3.108931,-20.855961,-4.325831,nan,0.532805,1.098474,-1.604282,1.380584,2.025117,1.610530,-5.758226,2.873774,3.257667,66.000000,-28.000000,94.000000,38.000000,784.28714477,0.000000,0.00000000,54.73756561,0.000000,374.80442308,341.79058291,8.79355764,0.00000000,3.99973196,0.14247054,0.00775750,0.01105553,7.95965564,0.12067458,0.05204486,0.03594277,0.01982603,3.36817859,3.97393950,0.38904932,0.01005621,0.02602243,0.01437711,0.03965205,7.78098634,1.98696975,4.21022324
8.600,2,1,1,-530.106,192.736,48.184,16.367980,-3.255228,-3.255228,-19.623208,-4.597986,nan,0.424489,0.667013,-1.675902,1.155431,2.019493,-0.105321,-5.815522,2.059492,3.247529,66.000000,-28.000000,94.000000,38.000000,774.63056863,0.000000,0.00000000,49.96504859,0.000000,373.30747108,340.14621038,7.66789245,0.00000000,3.38183801,0.14334684,0.00812935,0.01063192,7.97327675,0.12075653,0.05204520,0.03605054,0.02008558,3.37290705,3.97979253,0.39163931,0.01006304,0.02602260,0.01442022,0.04017117,7.83278617,1.98989627,4.21613382
8.700,2,1,1,-530.065,192.774,48.145,15.919519,-3.303582,-3.303582,-19.223101,-3.452071,nan,0.481425,0.517019,-1.704549,0.981899,2.007951,-0.664336,-4.540691,1.519238,3.228497,66.000000,-28.000000,94.000000,38.000000,772.74030392,0.000000,0.00000000,50.13026288,0.000000,372.56696639,339.41665684,7.45277132,0.00000000,3.01243482,0.14316310,0.00802081,0.01002776,7.99923785,0.12085426,0.05207209,0.03627185,0.02039967,3.38191388,3.99094585,0.39678026,0.01007119,0.02603605,0.01450874,0.04079934,7.93560510,1.99547292,4.22739234
8.800,2,1,1,-530.023,192.812,48.105,15.475376,-3.351743,-3.351743,-18.827119,-4.325831,nan,0.515388,0.366372,-2.907761,0.794564,1.996223,-1.203792,-5.385803,1.082763,3.211708,66.000000,-28.000000,94.000000,38.000000,770.34468988,0.000000,0.00000000,49.88590830,0.000000,371.79112729,338.63424895,7.07356423,0.00000000,2.79810770,0.14309285,0.00842745,0.01021311,8.02494096,0.12090333,0.05216038,0.03691578,0.02084150,3.39055234,4.00164711,0.40192054,0.01007528,0.02608019,0.01476631,0.04168299,8.03841076,2.00082356,4.23819042
8.900,2,1,1,-529.980,192.850,48.064,15.035321,-3.399725,-3.399725,-18.435046,-4.082324,nan,0.538022,0.216204,-1.804817,0.587144,1.984447,-1.716316,-4.540691,0.923999,3.198022,66.000000,-28.000000,94.000000,38.000000,768.42268504,0.000000,0.00000000,49.49993629,0.000000,370.98539453,337.80785001,6.80605691,0.00000000,3.16196965,0.14295777,0.00855039,0.00996949,8.04938270,0.12092041,0.05233983,0.03716382,0.02115549,3.39883351,4.01190959,0.40706005,0.01007670,0.02616991,0.01486553,0.04231099,8.14120105,2.00595479,4.24854189
9.000,2,1,1,-529.936,192.888,48.023,14.598531,-3.447541,-3.447541,-18.046072,-3.767198,nan,0.553818,0.067347,-1.317803,0.440758,1.972751,-2.194859,-5.027705,1.281113,3.188054,66.000000,-28.000000,94.000000,38.000000,766.21413851,0.000000,0.00000000,48.90815905,0.000000,370.14979971,336.93838168,6.55313164,0.00000000,3.50348939,0.14281947,0.00865472,0.00970285,8.07311365,0.12092207,0.05263337,0.03729609,0.02154056,3.40677098,4.02174967,0.41220090,0.01007684,0.02631669,0.01491843,0.04308112,8.24401807,2.01087484,4.25846373
9.198,2,1,1,-529.936,192.888,48.023,14.598531,-3.447541,-3.447541,-18.046072,-3.767198,nan,0.553818,0.067347,-1.317803,0.440758,1.950208,-2.194859,-5.027705,1.281113,3.168921,66.000000,-28.000000,94.000000,38.000000,766.21413851,0.000000,0.00000000,48.90815905,0.000000,370.14979971,336.93838168,6.55313164,0.00000000,3.50348939,0.14281947,0.00865472,0.00970285,8.12006443,0.12092535,0.05321413,0.03755778,0.02230240,3.42247497,4.04121791,0.42237189,0.01007711,0.02660707,0.01502311,0.04460480,8.44743771,2.02060896,4.27809371
9.213,2,1,1,-529.912,192.907,48.001,14.078492,-3.472343,-3.472343,-17.550835,-3.738550,nan,0.447614,-0.107747,-1.518338,0.427535,1.948495,-2.715072,-3.423423,1.343404,3.168179,66.000000,-28.000000,94.000000,38.000000,761.92151515,0.000000,0.00000000,44.79416905,0.000000,370.13123380,336.76436062,6.24657409,0.00000000,3.82335618,0.14359337,0.00871225,0.00951579,8.12355807,0.12092600,0.05328306,0.03758473,0.02232980,3.42362701,4.04264675,0.42316073,0.01007717,0.02664153,0.01503389,0.04465959,8.46321465,2.02132337,4.27953377
9.300,2,1,1,-529.796,192.999,47.890,13.305553,-3.590012,-3.590012,-16.895565,-4.182592,nan,0.487325,-0.358187,-1.976704,0.272575,1.939190,-3.364221,-1.776169,2.312107,3.170171,66.000000,-28.000000,94.000000,38.000000,757.85135800,0.000000,0.00000000,44.60375856,0.000000,368.13407975,334.77124527,5.89351486,0.00000000,4.28667164,0.14343974,0.00916550,0.00948270,8.14248627,0.12096670,0.05388144,0.03784296,0.02237149,3.42966396,4.05013841,0.42762130,0.01008056,0.02694072,0.01513718,0.04474299,8.55242609,2.02506920,4.28707996
9.400,2,1,1,-529.748,193.035,47.844,12.879181,-3.637164,-3.637164,-16.516345,-4.454747,nan,0.546311,-0.489263,-2.191564,0.286903,1.928945,-3.647860,-1.375099,2.797262,3.175948,66.000000,-28.000000,94.000000,38.000000,755.00492571,0.000000,0.00000000,44.02200876,0.000000,367.00337061,333.57690715,5.72933976,0.00000000,4.51124256,0.14308058,0.00949468,0.00948161,8.16385684,0.12105436,0.05469358,0.03820937,0.02240035,3.43632347,4.05840530,0.43277042,0.01008786,0.02734679,0.01528375,0.04480069,8.65540831,2.02920265,4.29540433
9.500,2,1,1,-529.697,193.071,47.796,12.488886,-3.684149,-3.684149,-16.173035,-3.652606,nan,0.581885,-0.604146,-2.649930,0.362653,1.919275,-3.856090,-1.403747,3.183816,3.184286,66.000000,-28.000000,94.000000,38.000000,751.88835446,0.000000,0.00000000,43.24711679,0.000000,365.88863641,332.39211878,5.51818309,0.00000000,4.68107067,0.14269907,0.00948787,0.00904179,8.18484798,0.12118751,0.05559766,0.03874306,0.02243030,3.44268491,4.06630444,0.43790010,0.01009896,0.02779883,0.01549722,0.04486060,8.75800202,2.03315222,4.30335613
9.600,2,1,1,-529.646,193.107,47.747,12.066263,-3.730963,-3.730963,-15.797225,-3.065324,nan,0.607827,-0.722200,-0.730521,0.477231,1.910200,-4.022631,-1.389423,3.539854,3.194696,66.000000,-28.000000,94.000000,38.000000,748.65734688,0.000000,0.00000000,42.39492396,0.000000,364.76803233,331.19994996,5.31242780,0.00000000,4.82140441,0.14236248,0.00955491,0.00869103,8.20487269,0.12137819,0.05658364,0.03878371,0.02245971,3.44876725,4.07385933,0.44304086,0.01011485,0.02829182,0.01551348,0.04491941,8.86081727,2.03692966,4.31095906
9.700,2,1,1,-529.593,193.142,47.696,11.645358,-3.777591,-3.777591,-15.422949,-4.683930,nan,0.619738,-0.832240,-1.117268,0.594403,1.901774,-4.125210,-0.386747,3.771393,3.206258,66.000000,-16.000000,82.000000,50.000000,745.25077407,0.000000,0.00000000,41.48647352,0.000000,363.67931890,330.03286981,4.99117720,0.00000000,4.91224304,0.13848778,0.00502348,0.00518034,8.22386299,0.12163127,0.05761997,0.03887873,0.02246198,3.45456153,4.08105855,0.44765095,0.01013594,0.02880999,0.01555149,0.04492397,8.95301906,2.04052928,4.31820191
9.893,2,1,1,-529.593,193.142,47.696,11.645358,-3.777591,-3.777591,-15.422949,-4.683930,nan,0.619738,-0.832240,-1.117268,0.594403,1.885904,-4.125210,-0.386747,3.771393,3.227783,66.000000,-16.000000,82.000000,50.000000,745.24962207,0.000000,0.00000000,41.48647352,0.000000,363.67931890,330.03286981,4.99117720,0.00000000,4.91224304,0.13848778,0.00387148,0.00518034,8.26054698,0.12212015,0.05962187,0.03906229,0.02246638,3.46575447,4.09496545,0.45655637,0.01017668,0.02981093,0.01562492,0.04493276,9.13112731,2.04748273,4.33219309
9.910,2,1,1,-529.564,193.161,47.669,11.152099,-3.801761,-3.801761,-14.953860,-3.151268,nan,0.500972,-0.954760,-0.429718,0.609641,1.884639,-4.162676,0.401070,3.792070,3.229712,66.000000,-28.000000,94.000000,38.000000,741.52126272,0.000000,0.00000000,37.84870570,0.000000,363.66996864,329.91865751,5.04415265,0.00000000,4.87731992,0.14299615,0.01093293,0.00852923,8.26373087,0.12217667,0.05980096,0.03906468,0.02246680,3.46667894,4.09611449,0.45742834,0.01018139,0.02990048,0.01562587,0.04493359,9.14856677,2.04805725,4.33334867
10.000,2,1,1,-529.425,193.246,47.536,10.427525,-3.915437,-3.915437,-14.342962,-3.394775,nan,0.545033,-1.117157,-1.174563,0.860252,1.878847,-4.034880,2.449395,4.030985,3.238269,66.000000,-16.000000,82.000000,50.000000,735.49862381,0.000000,0.00000000,37.49701967,0.000000,361.22370873,327.45148214,4.36828977,0.00000000,4.80968040,0.13896258,0.00495286,0.00452765,8.27946440,0.12258675,0.06069250,0.03915911,0.02254893,3.47118521,4.10171798,0.46157391,0.01021556,0.03034625,0.01566365,0.04509787,9.23147824,2.05085899,4.33898152
10.100,2,1,1,-529.366,193.279,47.480,10.081298,-3.960669,-3.960669,-14.041967,-3.595310,nan,0.613014,-1.185362,-1.002676,0.968089,1.872945,-3.892518,1.575634,4.055706,3.245767,66.000000,-16.000000,82.000000,50.000000,731.28357116,0.000000,0.00000000,36.47684495,0.000000,359.78789958,325.90858993,4.09755783,0.00000000,4.86580267,0.13840984,0.00399269,0.00447367,8.29641631,0.12310059,0.06161600,0.03923571,0.02258676,3.47599239,4.10769694,0.46618793,0.01025838,0.03080800,0.01569428,0.04517353,9.32375853,2.05384847,4.34499049
10.200,2,1,1,-529.306,193.313,47.422,9.719940,-4.005495,-4.005495,-13.725435,-3.108296,nan,0.646243,-1.251946,-1.145916,1.076550,1.867593,-3.681575,3.179916,4.009811,3.250560,66.000000,-16.000000,82.000000,50.000000,727.16602365,0.000000,0.00000000,35.31193159,0.000000,358.43727652,324.45569536,3.95034087,0.00000000,4.86443544,0.13799203,0.00408068,0.00427115,8.31299258,0.12367385,0.06244222,0.03933577,0.02274086,3.48058590,4.11341142,0.47080256,0.01030615,0.03122111,0.01573431,0.04548173,9.41605113,2.05670571,4.35073238
10.300,2,1,1,-529.245,193.345,47.363,9.344847,-4.049816,-4.049816,-13.394663,-2.435071,nan,0.671510,-1.310747,-1.203211,1.174226,1.862759,-3.392163,2.406423,3.869491,3.252034,66.000000,-16.000000,82.000000,50.000000,723.03998751,0.000000,0.00000000,34.16121811,0.000000,357.09521033,323.01584014,3.82935611,0.00000000,4.79257860,0.13760847,0.00414359,0.00403217,8.32892276,0.12430100,0.06314228,0.03944586,0.02282894,3.48495212,4.11884438,0.47540816,0.01035842,0.03157114,0.01577835,0.04565788,9.50816325,2.05942219,4.35619015
10.400,2,1,1,-529.182,193.377,47.303,9.036492,-4.093572,-4.093572,-13.130064,-2.965057,nan,0.689499,-1.348129,0.085944,1.232479,1.858268,-3.099014,3.824493,3.695427,3.250523,66.000000,-16.000000,82.000000,50.000000,718.61851595,0.000000,0.00000000,32.88532582,0.000000,355.75888028,321.58361726,3.55286468,0.00000000,4.69215128,0.13728435,0.00433169,0.00406060,8.34445422,0.12496607,0.06372802,0.03944643,0.02305196,3.48915792,4.12407866,0.48002516,0.01041384,0.03186401,0.01577857,0.04610392,9.60050311,2.06203933,4.36144740
10.606,2,1,1,-529.182,193.377,47.303,9.036492,-4.093572,-4.093572,-13.130064,-2.965057,nan,0.689499,-1.348129,0.085944,1.232479,1.849277,-3.099014,3.824493,3.695427,3.247506,66.000000,-16.000000,82.000000,50.000000,718.61851595,0.000000,0.00000000,32.88532582,0.000000,355.75888028,321.58361726,3.55286468,0.00000000,4.69215128,0.13728435,0.00433169,0.00406060,8.37640985,0.12633444,0.06493316,0.03944758,0.02351082,3.49781125,4.13484807,0.48952451,0.01052787,0.03246658,0.01577903,0.04702164,9.79049029,2.06742404,4.37226407
10.700,2,1,1,-528.986,193.468,47.113,8.088200,-4.221408,-4.221408,-12.309608,-1.876437,nan,0.607669,-1.397833,-0.916732,1.326992,1.845621,-1.894004,4.440423,3.095005,3.237618,66.000000,-16.000000,82.000000,50.000000,708.74305693,0.000000,0.00000000,29.55418354,0.000000,352.94661742,318.70278168,3.17209211,0.00000000,4.22174623,0.13780598,0.00423027,0.00359968,8.38975600,0.12700575,0.06513857,0.03950774,0.02379308,3.50128189,4.13916971,0.49385927,0.01058381,0.03256928,0.01580309,0.04758615,9.87718545,2.06958485,4.37660236
10.800,2,1,1,-528.918,193.497,47.048,7.787872,-4.262769,-4.262769,-12.050641,-3.165592,nan,0.663506,-1.389091,0.515662,1.361564,1.841733,-1.427065,4.741226,2.659918,3.224930,66.000000,-16.000000,82.000000,50.000000,703.47175091,0.000000,0.00000000,28.10901839,0.000000,351.38493352,317.01634615,2.87412279,0.00000000,3.94162033,0.13733737,0.00456754,0.00380483,8.40350612,0.12771108,0.06526264,0.03952799,0.02413545,3.50482073,4.14357698,0.49847124,0.01064259,0.03263132,0.01581119,0.04827091,9.96942478,2.07178849,4.38102592
10.900,2,1,1,-528.849,193.525,46.981,7.493956,-4.303365,-4.303365,-11.797321,-2.478042,nan,0.699587,-1.364845,0.444042,1.379724,1.837735,-0.938779,5.299860,2.162537,3.210703,66.000000,-16.000000,82.000000,50.000000,698.68792207,0.000000,0.00000000,26.85964808,0.000000,349.87736822,315.39814993,2.79972828,0.00000000,3.60791827,0.13689421,0.00462711,0.00358796,8.41691701,0.12839228,0.06531635,0.03954301,0.02456343,3.50821370,4.14780322,0.50308502,0.01069936,0.03265818,0.01581720,0.04912686,10.06170042,2.07390161,4.38526712
11.000,2,1,1,-528.779,193.553,46.914,7.205585,-4.343167,-4.343167,-11.548752,-2.621282,nan,0.721632,-1.325834,-0.601606,1.379755,1.833537,-0.436410,5.400127,1.627059,3.195670,66.000000,-16.000000,82.000000,50.000000,693.89300029,0.000000,0.00000000,25.59720096,0.000000,348.41696529,313.83834910,2.65782283,0.00000000,3.23777231,0.13654680,0.00478569,0.00355731,8.42994633,0.12903445,0.06532795,0.03957055,0.02500732,3.51146198,4.15184984,0.50769424,0.01075287,0.03266397,0.01582822,0.05001463,10.15388483,2.07592492,4.38932747
11.100,2,1,1,-528.709,193.579,46.846,6.922315,-4.382139,-4.382139,-11.304454,-2.621282,nan,0.735342,-1.273252,0.014324,1.359145,1.829054,0.072742,5.127972,1.210180,3.180573,66.000000,-16.000000,82.000000,50.000000,689.34315938,0.000000,0.00000000,24.37736939,0.000000,347.00131067,312.33387573,2.53854394,0.00000000,2.94739007,0.13625980,0.00491121,0.00349856,8.44254236,0.12962688,0.06532827,0.03957057,0.02540771,3.51457524,4.15572881,0.51230488,0.01080224,0.03266414,0.01582823,0.05081542,10.24609761,2.07786441,4.39321905
11.304,2,1,1,-528.709,193.579,46.846,6.922315,-4.382139,-4.382139,-11.304454,-2.621282,nan,0.735342,-1.273252,0.014324,1.359145,1.820124,0.072742,5.127972,1.210180,3.150389,66.000000,-16.000000,82.000000,50.000000,689.34315938,0.000000,0.00000000,24.37736939,0.000000,347.00131067,312.33387573,2.53854394,0.00000000,2.94739007,0.13625980,0.00491121,0.00349856,8.46827071,0.13083696,0.06532893,0.03957060,0.02622555,3.52093431,4.16365190,0.52172246,0.01090308,0.03266446,0.01582824,0.05245109,10.43444921,2.08182595,4.40116789
11.400,2,1,1,-528.494,193.654,46.637,6.129046,-4.493675,-4.493675,-10.622721,-1.804817,nan,0.620359,-1.051570,0.687549,1.256170,1.814783,1.513325,4.526367,0.901357,3.139713,66.000000,-16.000000,82.000000,50.000000,680.84908088,0.000000,0.00000000,21.53566552,0.000000,344.21019855,309.55780130,2.27393473,0.00000000,3.12648758,0.13708410,0.00474765,0.00316145,8.47947011,0.13122450,0.06546270,0.03960512,0.02652472,3.52357078,4.16693806,0.52614423,0.01093538,0.03273135,0.01584205,0.05304945,10.52288451,2.08346903,4.40446348
11.500,2,1,1,-528.422,193.677,46.567,5.860163,-4.528864,-4.528864,-10.389027,-2.950733,nan,0.668122,-0.948742,1.002676,1.175413,1.808780,1.983775,4.483395,1.133569,3.131128,66.000000,-14.000000,80.000000,52.000000,676.62558005,0.000000,0.00000000,20.20820693,0.000000,342.71106618,307.95558148,2.11979281,0.00000000,3.48730792,0.13633773,0.00437111,0.00291589,8.49088076,0.13155348,0.06570241,0.03968167,0.02683083,3.52620058,4.17021632,0.53069548,0.01096279,0.03285121,0.01587267,0.05366166,10.61390958,2.08510816,4.40775073
11.600,2,1,1,-528.350,193.699,46.498,5.595017,-4.563043,-4.563043,-10.158060,-1.933733,nan,0.698718,-0.835453,0.286479,1.077904,1.802361,2.428919,5.013381,1.528041,3.125508,66.000000,-14.000000,80.000000,52.000000,672.83481135,0.000000,0.00000000,19.08241033,0.000000,341.26703861,306.42446864,2.08688380,0.00000000,3.83100685,0.13600124,0.00433501,0.00266688,8.50208340,0.13180856,0.06606176,0.03968792,0.02721355,3.52871459,4.17335060,0.53524643,0.01098405,0.03303088,0.01587517,0.05442710,10.70492854,2.08667530,4.41089323
11.700,2,1,1,-528.279,193.720,46.428,5.335351,-4.596173,-4.596173,-9.931524,-2.592634,nan,0.716446,-0.712537,1.102944,0.969514,1.795559,2.843199,4.196916,1.968845,3.123100,66.000000,-14.000000,80.000000,52.000000,669.06668996,0.000000,0.00000000,17.98138746,0.000000,339.88006468,304.96400292,1.94683367,0.00000000,4.15136563,0.13576575,0.00452334,0.00274651,8.51307580,0.13199416,0.06655428,0.03978056,0.02748185,3.53111841,4.17634786,0.53979869,0.01099951,0.03327714,0.01591222,0.05496369,10.79597388,2.08817393,4.41389801
11.899,2,1,1,-528.279,193.720,46.428,5.335351,-4.596173,-4.596173,-9.931524,-2.592634,nan,0.716446,-0.712537,1.102944,0.969514,1.782294,2.843199,4.196916,1.968845,3.118425,66.000000,-14.000000,80.000000,52.000000,669.06668996,0.000000,0.00000000,17.98138746,0.000000,339.88006468,304.96400292,1.94683367,0.00000000,4.15136563,0.13576575,0.00452334,0.00274651,8.53496758,0.13236379,0.06753515,0.03996507,0.02801616,3.53590570,4.18231701,0.54886470,0.01103032,0.03376758,0.01598603,0.05603233,10.97729402,2.09115850,4.41988213
11.914,2,1,1,-528.242,193.731,46.392,5.030426,-4.612986,-4.612986,-9.643412,-2.177240,nan,0.581829,-0.553433,1.804817,0.957179,1.781237,3.292496,4.483395,2.025384,3.118660,66.000000,-14.000000,80.000000,52.000000,668.01533572,0.000000,0.00000000,16.41716246,0.000000,340.02785650,305.16478588,1.85146710,0.00000000,4.41043202,0.13673376,0.00429395,0.00260404,8.53661058,0.13238055,0.06763406,0.04000222,0.02806201,3.53624509,4.18274024,0.54954640,0.01103171,0.03381703,0.01600089,0.05612402,10.99092803,2.09137012,4.42030636
12.000,2,1,1,-528.067,193.779,46.222,4.584152,-4.689311,-4.689311,-9.273463,-2.019676,nan,0.609491,-0.293501,0.773493,0.726221,1.774758,3.853273,2.678578,2.902589,3.124783,66.000000,-14.000000,80.000000,52.000000,662.11388332,0.000000,0.00000000,15.86417469,0.000000,337.20498901,302.35638072,1.71886399,0.00000000,4.82598954,0.13660460,0.00437947,0.00250130,8.54549686,0.13240758,0.06841052,0.04004133,0.02815581,3.53804398,4.18498394,0.55345370,0.01103397,0.03420526,0.01601653,0.05631163,11.06907401,2.09249197,4.42255497
12.100,2,1,1,-527.998,193.797,46.154,4.341235,-4.718367,-4.718367,-9.059602,-2.535338,nan,0.656761,-0.141043,1.418071,0.575298,1.767140,4.099863,1.919409,3.339418,3.134486,66.000000,-14.000000,80.000000,52.000000,658.41615665,0.000000,0.00000000,14.87604990,0.000000,335.82385428,300.89998524,1.64270115,0.00000000,5.03011552,0.13631371,0.00456890,0.00256794,8.55578535,0.13241485,0.06943465,0.04019448,0.02821193,3.54004428,4.18747912,0.55800604,0.01103457,0.03471733,0.01607779,0.05642386,11.16012081,2.09373956,4.42505535
12.200,2,1,1,-527.930,193.814,46.088,4.101538,-4.746547,-4.746547,-8.848085,-1.776169,nan,0.672093,0.013958,1.203211,0.413132,1.759572,4.296974,1.403747,3.721651,3.146242,66.000000,-14.000000,80.000000,52.000000,655.11343900,0.000000,0.00000000,13.97446211,0.000000,334.60065592,299.62734446,1.58162497,0.00000000,5.18628436,0.13614406,0.00454722,0.00237588,8.56589029,0.13241493,0.07055952,0.04030473,0.02824194,3.54195209,4.18985914,0.56255795,0.01103458,0.03527976,0.01612189,0.05648388,11.25115901,2.09492957,4.42744011
12.300,2,1,1,-527.863,193.830,46.023,3.864599,-4.773896,-4.773896,-8.638495,-2.191564,nan,0.677200,0.170558,1.131592,0.259456,1.752167,4.443028,1.002676,4.026717,3.159475,66.000000,-14.000000,80.000000,52.000000,652.02761176,0.000000,0.00000000,13.16676176,0.000000,333.45177927,298.44411883,1.52119670,0.00000000,5.30058455,0.13607435,0.00467192,0.00242437,8.57586080,0.13242556,0.07176278,0.04040229,0.02825726,3.54377153,4.19212914,0.56711223,0.01103546,0.03588139,0.01616092,0.05651452,11.34224460,2.09606457,4.42971441
12.502,2,1,1,-527.863,193.830,46.023,3.864599,-4.773896,-4.773896,-8.638495,-2.191564,nan,0.677200,0.170558,1.131592,0.259456,1.737525,4.443028,1.002676,4.026717,3.185318,66.000000,-14.000000,80.000000,52.000000,652.02761176,0.000000,0.00000000,13.16676176,0.000000,333.45177927,298.44411883,1.52119670,0.00000000,5.30058455,0.13607435,0.00467192,0.00242437,8.59595776,0.13244701,0.07418813,0.04059895,0.02828814,3.54743887,4.19670464,0.57629203,0.01103725,0.03709406,0.01623958,0.05657628,11.52584051,2.09835232,4.43429859
12.600,2,1,1,-527.669,193.876,45.833,3.167233,-4.851715,-4.851715,-8.018947,-2.162916,nan,0.698128,0.634541,1.303479,0.338550,1.731399,4.569232,-0.630254,4.372072,3.198971,66.000000,-14.000000,80.000000,52.000000,644.69922845,0.000000,0.00000000,12.14944622,0.000000,330.31808923,295.30738534,1.37634674,0.00000000,5.40483948,0.13595575,0.00484281,0.00232288,8.60542110,0.13259166,0.07543817,0.04072611,0.02829409,3.54897892,4.19862656,0.58076561,0.01104930,0.03771908,0.01629044,0.05658817,11.61531224,2.09931328,4.43622364
12.700,2,1,1,-527.607,193.891,45.772,2.938508,-4.876560,-4.876560,-7.815068,-2.177240,nan,0.674055,0.780267,1.317803,0.472090,1.725736,4.508782,-1.074296,4.474279,3.211877,66.000000,-14.000000,80.000000,52.000000,642.18251378,0.000000,0.00000000,11.48296307,0.000000,329.43737418,294.42955524,1.34034884,0.00000000,5.34901934,0.13609411,0.00486158,0.00229743,8.61492858,0.13281417,0.07667651,0.04085834,0.02831166,3.55046707,4.20048387,0.58531696,0.01106785,0.03833826,0.01634334,0.05662333,11.70633912,2.10024193,4.43808384
12.800,2,1,1,-527.545,193.905,45.712,2.711077,-4.901003,-4.901003,-7.612080,-2.134268,nan,0.654657,0.918577,1.274831,0.621713,1.720701,4.399699,-1.203211,4.513339,3.223299,66.000000,-14.000000,80.000000,52.000000,639.89833149,0.000000,0.00000000,10.92816111,0.000000,328.58916870,293.59189900,1.30562757,0.00000000,5.34010457,0.13623913,0.00487037,0.00226105,8.62428808,0.13312259,0.07785575,0.04098210,0.02833371,3.55187903,4.20224623,0.58986867,0.01109355,0.03892788,0.01639284,0.05666742,11.79737339,2.10112311,4.43984879
12.900,2,1,1,-527.485,193.920,45.654,2.484862,-4.925137,-4.925137,-7.409999,-2.392099,nan,0.644747,1.047724,1.518338,0.769745,1.716329,4.244588,-2.019676,4.484013,3.232827,66.000000,-14.000000,80.000000,52.000000,637.75773144,0.000000,0.00000000,10.49575624,0.000000,327.74627355,292.76317121,1.30027200,0.00000000,5.30865803,0.13637502,0.00493226,0.00229314,8.63358592,0.13352389,0.07895349,0.04115768,0.02839585,3.55321724,4.20391666,0.59442111,0.01112699,0.03947675,0.01646307,0.05679169,11.88842229,2.10195833,4.44152155
13.000,2,1,1,-527.426,193.934,45.596,2.259804,-4.949064,-4.949064,-7.208868,-2.563986,nan,0.633794,1.165714,0.845113,0.902588,1.712627,4.046512,-1.303479,4.387896,3.240147,66.000000,-14.000000,80.000000,52.000000,635.72251125,0.000000,0.00000000,10.13512275,0.000000,326.94011585,291.97779421,1.29853453,0.00000000,5.22712860,0.13652792,0.00497814,0.00230926,8.64256017,0.13402064,0.07995110,0.04121207,0.02842172,3.55448371,4.20549765,0.59897327,0.01116839,0.03997555,0.01648483,0.05684345,11.97946541,2.10274883,4.44310464
13.202,2,1,1,-527.426,193.934,45.596,2.259804,-4.949064,-4.949064,-7.208868,-2.563986,nan,0.633794,1.165714,0.845113,0.902588,1.705302,4.046512,-1.303479,4.387896,3.254535,66.000000,-14.000000,80.000000,52.000000,635.72251125,0.000000,0.00000000,10.13512275,0.000000,326.94011585,291.97779421,1.29853453,0.00000000,5.22712860,0.13652792,0.00497814,0.00230926,8.66068782,0.13502405,0.08196624,0.04132194,0.02847400,3.55704192,4.20869121,0.60816846,0.01125200,0.04098312,0.01652878,0.05694800,12.16336916,2.10434560,4.44630241
13.300,2,1,1,-527.253,193.975,45.427,1.588927,-5.020298,-5.020298,-6.609225,-2.091296,nan,0.603632,1.437406,0.257831,1.179829,1.703412,3.229538,-3.351803,3.967345,3.254344,66.000000,-14.000000,80.000000,52.000000,630.26029562,0.000000,0.00000000,9.55092678,0.000000,324.66655852,289.80057715,1.21215527,0.00000000,4.88600820,0.13697943,0.00495224,0.00213802,8.66902774,0.13576399,0.08258878,0.04132690,0.02864164,3.55808484,4.20999341,0.61262817,0.01131367,0.04129439,0.01653076,0.05728329,12.25256335,2.10499670,4.44760605
13.400,2,1,1,-527.223,193.983,45.398,1.384237,-5.032658,-5.032658,-6.416895,-1.561310,nan,0.591087,1.491478,0.830789,1.287997,1.701870,2.923894,-3.179916,3.704931,3.251911,66.000000,-14.000000,80.000000,52.000000,629.13588003,0.000000,0.00000000,9.37319804,0.000000,324.31814163,289.47178928,1.14170348,0.00000000,4.68707138,0.13708869,0.00488664,0.00200089,8.67738003,0.13657746,0.08310983,0.04137948,0.02879572,3.55908868,4.21124690,0.61718195,0.01138145,0.04155492,0.01655179,0.05759143,12.34363909,2.10562345,4.44886085
