t,controller_id,state_code,wp_idx,x,y,dist,yaw_deg,yaw_to_wp_deg,yaw_ref_deg,yaw_err_deg,yaw_rate_deg_s,speed_ref,speed_meas,roll_deg,roll_rate_deg_s,roll_rms_window_deg,roll_rms_total_deg,pitch_deg,pitch_rate_deg_s,pitch_rms_window_deg,pitch_rms_total_deg,base_cmd,diff_cmd,T_left,T_right,J_inst,J_goal,J_wave_roll,J_progress,J_smooth,J_mpc_distance,J_mpc_final,J_mpc_heading,J_mpc_wrong_way,J_mpc_pitch,J_mpc_control,J_mpc_slew,J_mpc_turn,J_total,J_roll,J_pitch,J_roll_rate,J_pitch_rate,J_goal_heading,J_no_progress,J_control,I_roll,I_pitch,I_roll_rate,I_pitch_rate,I_control,I_no_progress,I_goal_heading
0.200,2,1,1,-532.002,189.996,50.002,57.077163,0.005086,0.005086,-57.072077,-0.444042,nan,0.000000,-0.332256,-0.716197,0.333492,0.000000,0.255526,-1.876437,0.413080,0.000000,2.500000,-9.500000,12.000000,-7.000000,1049.16727404,0.000000,0.00000000,62.80989817,0.000000,420.56811892,388.37230743,175.51187558,0.00001485,1.68882726,0.14217668,0.02601415,0.04804101,0.00000000,0.00000000,0.00000000,0.00000000,0.00000000,0.00000000,0.00000000,0.00000000,0.00000000,0.00000000,0.00000000,0.00000000,0.00000000,0.00000000,0.00000000
0.518,2,1,1,-532.002,189.996,50.002,57.077163,0.005086,0.005086,-57.072077,-0.444042,nan,0.000000,-0.332256,-0.716197,0.333492,0.332256,0.255526,-1.876437,0.413080,0.255526,2.500000,-21.500000,24.000000,-19.000000,1001.06631036,0.000000,0.00000000,50.64313460,0.000000,420.05375520,387.71105835,140.74819403,0.00000362,1.69313974,0.14287496,0.02574928,0.04840058,0.54450886,0.00012830,0.00001265,0.00012419,0.00017050,0.25236410,0.29021961,0.00148952,0.00001069,0.00000632,0.00004968,0.00034100,0.02979031,0.14510980,0.31545512
0.600,2,1,1,-532.004,189.991,50.004,56.925292,0.010404,0.010404,-56.914888,-0.558634,nan,0.001625,-0.238870,-0.386747,0.307153,0.315354,0.378510,1.948057,0.361904,0.285124,8.000000,-28.000000,36.000000,-20.000000,981.13347043,0.000000,0.00000000,46.73819930,0.000000,418.91433945,386.24653013,127.32247277,0.00002400,1.70236978,0.14255538,0.01876306,0.04821656,0.68465271,0.00014542,0.00001981,0.00013354,0.00021795,0.31716963,0.36478068,0.00218568,0.00001212,0.00000991,0.00005342,0.00043590,0.04371359,0.18239034,0.39646203
0.700,2,1,1,-532.003,189.992,50.003,56.835536,0.009500,0.009500,-56.826035,-1.031324,nan,0.006038,-0.204383,0.157563,0.289087,0.296501,0.453144,1.160240,0.373865,0.325738,14.000000,-34.000000,48.000000,-20.000000,961.43819715,0.000000,0.00000000,41.76740815,0.000000,417.55591669,384.50267661,115.62971416,0.00004824,1.77548917,0.14347259,0.01463715,0.04883438,0.85532880,0.00016069,0.00003232,0.00013543,0.00023846,0.39587102,0.45535306,0.00353781,0.00001339,0.00001616,0.00005417,0.00047691,0.07075627,0.22767653,0.49483878
0.800,2,1,1,-532.004,189.992,50.004,56.706690,0.009133,0.009133,-56.697557,-2.420747,nan,0.005493,-0.173754,-0.272155,0.257934,0.279811,0.459019,-0.472690,0.372187,0.351474,20.000000,-40.000000,60.000000,-20.000000,942.66580983,0.000000,0.00000000,38.23922333,0.000000,416.25682710,382.87037940,103.27722982,0.00003981,1.81329680,0.14562410,0.01291679,0.05027268,1.02586047,0.00017172,0.00004516,0.00014107,0.00024186,0.47419646,0.54552671,0.00553749,0.00001431,0.00002258,0.00005643,0.00048372,0.11074976,0.27276335,0.59274557
1.016,2,1,1,-532.004,189.992,50.004,56.706690,0.009133,0.009133,-56.697557,-2.420747,nan,0.005493,-0.173754,-0.272155,0.257934,0.256033,0.459019,-0.472690,0.372187,0.382912,26.000000,-46.000000,72.000000,-20.000000,928.85851313,0.000000,0.00000000,35.30560040,0.000000,414.94690831,381.20972623,95.33049502,0.00002957,1.85013931,0.14953703,0.01364022,0.05243704,1.39631231,0.00019558,0.00007291,0.00015327,0.00024922,0.64355907,0.74050864,0.01157363,0.00001630,0.00003646,0.00006131,0.00049843,0.23147263,0.37025432,0.80444883
1.100,2,1,1,-532.003,189.998,50.003,56.053465,0.002371,0.002371,-56.051095,-2.435071,nan,0.004389,-0.007872,0.329451,0.181411,0.243839,0.492611,0.974028,0.432272,0.394412,32.000000,-52.000000,84.000000,-20.000000,912.89545213,0.000000,0.00000000,31.82574007,0.000000,413.66704141,379.60792529,85.66481695,0.00000000,1.90528678,0.15428289,0.01608382,0.05427492,1.53757407,0.00019560,0.00008529,0.00016019,0.00026132,0.70769260,0.81448259,0.01469646,0.00001630,0.00004265,0.00006408,0.00052264,0.29392920,0.40724130,0.88461575
1.200,2,1,1,-532.001,190.003,50.001,55.744603,-0.003613,-0.003613,-55.748215,-3.165592,nan,0.030219,0.046091,0.200535,0.137138,0.231778,0.533279,0.988352,0.469954,0.410427,38.000000,-58.000000,96.000000,-20.000000,903.05051906,0.000000,0.00000000,31.71389440,0.000000,412.70552285,378.54996457,77.88663259,0.00000000,1.95800173,0.15974526,0.01677931,0.05997836,1.70568720,0.00019638,0.00010263,0.00016326,0.00027621,0.78347374,0.90196770,0.01950728,0.00001636,0.00005132,0.00006530,0.00055242,0.39014557,0.45098385,0.97934218
1.300,2,1,1,-531.999,190.010,49.999,55.383732,-0.011855,-0.011855,-55.395587,-5.099324,nan,0.056708,0.091816,0.372423,0.098328,0.222719,0.574435,-0.214859,0.497690,0.427941,40.000000,-60.000000,100.000000,-20.000000,899.79854401,0.000000,0.00000000,33.44126667,0.000000,412.32091250,378.23076474,73.56515137,0.00000000,1.99676138,0.16217004,0.01738291,0.06413440,1.87211765,0.00019946,0.00012273,0.00017382,0.00027691,0.85825350,0.98838408,0.02470715,0.00001662,0.00006137,0.00006953,0.00055382,0.49414293,0.49419204,1.07281687
1.400,2,1,1,-531.996,190.020,49.996,54.969596,-0.022778,-0.022778,-54.992374,-4.368803,nan,0.082096,0.139667,0.902409,0.075090,0.217017,0.633834,0.687549,0.531291,0.448716,40.000000,-60.000000,100.000000,-20.000000,902.02200343,0.000000,0.00000000,36.42410655,0.000000,412.20237039,378.22048346,72.89414537,0.00000000,2.03883561,0.16178644,0.01717531,0.06310029,2.03633343,0.00020659,0.00014720,0.00023582,0.00028411,0.93193032,1.07362367,0.02990572,0.00001722,0.00007360,0.00009433,0.00056822,0.59811448,0.53681184,1.16491290
1.500,2,1,1,-531.992,190.032,49.992,54.506472,-0.036642,-0.036642,-54.543114,-5.299860,nan,0.111448,0.194790,-0.845113,0.105043,0.215389,0.722498,1.761845,0.582017,0.475404,40.000000,-60.000000,100.000000,-20.000000,901.91336181,0.000000,0.00000000,38.76039411,0.000000,411.99769476,378.12154568,70.69093685,0.00000000,2.10018639,0.16151155,0.01750172,0.06359076,2.19814001,0.00022046,0.00017900,0.00029020,0.00033138,1.00441890,1.15759500,0.03510507,0.00001837,0.00008950,0.00011608,0.00066276,0.70210132,0.57879750,1.25552363
1.737,2,1,1,-531.992,190.032,49.992,54.506472,-0.036642,-0.036642,-54.543114,-5.299860,nan,0.111448,0.194790,-0.845113,0.105043,0.212344,0.722498,1.761845,0.582017,0.521188,40.000000,-60.000000,100.000000,-20.000000,901.91336181,0.000000,0.00000000,38.76039411,0.000000,411.99769476,378.12154568,70.69093685,0.00000000,2.10018639,0.16151155,0.01750172,0.06359076,2.58153673,0.00025332,0.00025435,0.00041906,0.00044339,1.17617882,1.35656301,0.04742478,0.00002111,0.00012717,0.00016763,0.00088678,0.94849558,0.67828151,1.47022352
1.800,2,1,1,-531.974,190.081,49.974,53.114875,-0.092343,-0.092343,-53.207218,-6.202268,nan,0.139531,0.316377,0.501338,0.193883,0.217393,0.915668,-0.014324,0.710554,0.542213,40.500000,-59.500000,100.000000,-19.000000,898.19004998,0.000000,0.00000000,40.40119874,0.000000,411.47273763,377.70021769,66.14801210,0.00000000,2.22676582,0.16090520,0.01760049,0.06261231,2.67904541,0.00027641,0.00028659,0.00043114,0.00044339,1.21972209,1.40719131,0.05069447,0.00002303,0.00014329,0.00017246,0.00088679,1.01388944,0.70359566,1.52465262
1.900,2,1,1,-531.967,190.100,49.967,52.521324,-0.114258,-0.114258,-52.635582,-6.617663,nan,0.160559,0.345506,-0.730521,0.247400,0.226935,0.927476,-1.002676,0.791832,0.572089,43.500000,-56.500000,100.000000,-13.000000,898.67747897,0.000000,0.00000000,43.12745464,0.000000,410.84287326,377.08519709,65.13223062,0.00000000,2.25846180,0.15832895,0.01474928,0.05818333,2.83034180,0.00032002,0.00033897,0.00047176,0.00045870,1.28720230,1.48577373,0.05577631,0.00002667,0.00016948,0.00018871,0.00091740,1.11552626,0.74288687,1.60900288
2.000,2,1,1,-531.960,190.120,49.960,51.903946,-0.138085,-0.138085,-52.042031,-6.961437,nan,0.185905,0.372429,0.114592,0.295329,0.237365,0.934550,-0.143239,0.859937,0.598007,43.500000,-56.500000,100.000000,-13.000000,899.09452312,0.000000,0.00000000,45.92764605,0.000000,410.58993915,376.97108806,63.10155598,0.00000000,2.27349864,0.15797625,0.01479820,0.05802079,2.97845331,0.00037070,0.00039215,0.00047276,0.00045901,1.35317566,1.56272437,0.06085865,0.00003089,0.00019608,0.00018910,0.00091802,1.21717305,0.78136218,1.69146958
2.100,2,1,1,-531.955,190.132,49.955,51.320298,-0.151370,-0.151370,-51.471669,-6.560367,nan,0.195036,0.397656,-0.401070,0.334429,0.248416,0.960097,0.114592,0.910748,0.622388,43.500000,-56.500000,100.000000,-13.000000,898.36405984,0.000000,0.00000000,46.79572685,0.000000,410.44086806,376.87232184,61.73152268,0.00000000,2.29380356,0.15777986,0.01484542,0.05719157,3.12395664,0.00042863,0.00044843,0.00048504,0.00045921,1.41787618,1.63830513,0.06595401,0.00003572,0.00022422,0.00019402,0.00091842,1.31908023,0.81915257,1.77234523
2.315,2,1,1,-531.955,190.132,49.955,51.320298,-0.151370,-0.151370,-51.471669,-6.560367,nan,0.195036,0.397656,-0.401070,0.334429,0.267404,0.960097,0.114592,0.910748,0.664569,43.500000,-56.500000,100.000000,-13.000000,898.36405984,0.000000,0.00000000,46.79572685,0.000000,410.44086806,376.87232184,61.73152268,0.00000000,2.29380356,0.15777986,0.01484542,0.05719157,3.43588721,0.00055281,0.00056908,0.00051136,0.00045964,1.55658139,1.80033546,0.07687746,0.00004607,0.00028454,0.00020454,0.00091928,1.53754922,0.90016773,1.94572674
2.400,2,1,1,-531.923,190.208,49.924,49.415255,-0.239034,-0.239034,-49.654289,-7.204944,nan,0.268852,0.426570,-0.372423,0.385321,0.275278,1.091794,-0.401070,0.982588,0.686061,47.750000,-52.250000,100.000000,-4.500000,895.39168326,0.000000,0.00000000,50.60921464,0.000000,409.02957116,375.53624982,57.57994203,0.00000000,2.41955703,0.15450073,0.01206664,0.05058121,3.55143960,0.00060942,0.00063089,0.00052035,0.00046173,1.60771946,1.86035612,0.08114163,0.00005079,0.00031544,0.00020814,0.00092345,1.62283264,0.93017806,2.00964932
2.500,2,1,1,-531.911,190.236,49.912,48.733207,-0.271250,-0.271250,-49.004457,-5.829846,nan,0.297385,0.416891,0.214859,0.404121,0.282905,1.100511,0.272155,1.021766,0.709114,47.750000,-52.250000,100.000000,-4.500000,897.88873074,0.000000,0.00000000,54.40234314,0.000000,408.68140069,375.35664598,56.79317936,0.00000000,2.44075138,0.15387585,0.01160267,0.04893167,3.68378596,0.00067289,0.00070460,0.00052386,0.00046285,1.66618482,1.92908999,0.08614695,0.00005607,0.00035230,0.00020954,0.00092571,1.72293891,0.96454499,2.08273102
2.600,2,1,1,-531.898,190.265,49.899,48.048230,-0.304710,-0.304710,-48.352940,-6.660634,nan,0.318184,0.407425,0.673225,0.414755,0.289165,1.090031,-0.673225,1.057526,0.728966,47.750000,-52.250000,100.000000,-4.500000,897.23020344,0.000000,0.00000000,56.85548751,0.000000,408.29764900,375.11818040,54.29647438,0.00000000,2.44791017,0.15351329,0.01186454,0.04912415,3.81300869,0.00073356,0.00077698,0.00055837,0.00046975,1.72314756,1.99616656,0.09115592,0.00006113,0.00038849,0.00022335,0.00093951,1.82311843,0.99808328,2.15393444
2.700,2,1,1,-531.884,190.296,49.885,47.360926,-0.339493,-0.339493,-47.700419,-6.932789,nan,0.335034,0.397105,-0.300803,0.417184,0.294245,1.072936,-1.088620,1.083946,0.745782,47.750000,-52.250000,100.000000,-4.500000,896.56901659,0.000000,0.00000000,58.82010869,0.000000,407.90419536,374.83899440,52.33530014,0.00000000,2.45632765,0.15317061,0.01204403,0.04887571,3.93905686,0.00079122,0.00084713,0.00056526,0.00048781,1.77861284,2.06158503,0.09616757,0.00006593,0.00042357,0.00022610,0.00097562,1.92335141,1.03079252,2.22326604
2.801,2,1,1,-531.870,190.327,49.871,46.671513,-0.375697,-0.375697,-47.047211,-6.818198,nan,0.351070,0.377500,-0.744845,0.408253,0.297890,1.052792,-0.701873,1.084659,0.759935,47.750000,-52.250000,100.000000,-4.500000,896.09605671,0.000000,0.00000000,60.65783880,0.000000,407.50892912,374.54848285,50.69932192,0.00000000,2.46819197,0.15282850,0.01215625,0.04830731,4.06233075,0.00084349,0.00091489,0.00060766,0.00049534,1.83274329,2.12553070,0.10119537,0.00007029,0.00045745,0.00024306,0.00099068,2.02390736,1.06276535,2.29092912
3.074,2,1,1,-531.870,190.327,49.871,46.671513,-0.375697,-0.375697,-47.047211,-6.818198,nan,0.351070,0.377500,-0.744845,0.408253,0.306365,1.052792,-0.701873,1.084659,0.792506,47.750000,-52.250000,100.000000,-4.500000,896.09605671,0.000000,0.00000000,60.65783880,0.000000,407.50892912,374.54848285,50.69932192,0.00000000,2.46819197,0.15282850,0.01215625,0.04830731,4.39861389,0.00098610,0.00109975,0.00072332,0.00051588,1.98040766,2.29997031,0.11491087,0.00008217,0.00054988,0.00028933,0.00103176,2.29821745,1.14998516,2.47550957
3.100,2,1,1,-531.820,190.428,49.822,44.592435,-0.491721,-0.491721,-45.084156,-7.749254,nan,0.276218,0.268056,-1.403747,0.380002,0.306045,0.949452,-1.332127,1.058101,0.794044,50.500000,-49.500000,100.000000,1.000000,882.75712963,0.000000,0.00000000,54.87152181,0.000000,406.30679869,373.09077129,45.82839109,0.00000000,2.45224665,0.15209082,0.01112160,0.04418768,4.42801458,0.00099290,0.00111397,0.00076216,0.00052288,1.99322966,2.31518772,0.11620530,0.00008274,0.00055698,0.00030487,0.00104575,2.32410593,1.15759386,2.49153707
3.200,2,1,1,-531.802,190.463,49.805,43.897586,-0.532435,-0.532435,-44.430021,-7.663311,nan,0.403619,0.227095,-0.415394,0.345420,0.303744,0.907234,-1.117268,1.020546,0.798075,51.250000,-48.750000,100.000000,2.500000,888.09170958,0.000000,0.00000000,62.73644355,0.000000,405.53068566,372.66144437,44.48808508,0.00000000,2.47109260,0.15058280,0.01062202,0.04275350,4.53839939,0.00101175,0.00116411,0.00077530,0.00054189,2.04133371,2.37236440,0.12120824,0.00008431,0.00058205,0.00031012,0.00108378,2.42416471,1.18618220,2.55166713
3.300,2,1,1,-531.783,190.499,49.786,43.205808,-0.574134,-0.574134,-43.779942,-6.846846,nan,0.407535,0.185704,-1.145916,0.302977,0.300660,0.860342,-0.472690,0.975083,0.800160,51.625000,-48.375000,100.000000,3.250000,887.52279593,0.000000,0.00000000,64.10101999,0.000000,405.04066285,372.23573755,43.49052034,0.00000000,2.45317394,0.15009308,0.01039206,0.04119611,4.64587521,0.00102435,0.00120921,0.00087531,0.00054529,2.08804278,2.42796469,0.12621359,0.00008536,0.00060460,0.00035012,0.00109058,2.52427175,1.21398235,2.61005347
3.400,2,1,1,-531.763,190.536,49.766,42.517734,-0.616660,-0.616660,-43.134394,-6.818198,nan,0.412700,0.143543,-1.733197,0.250715,0.297010,0.802647,-0.959704,0.921073,0.800237,51.812500,-48.187500,100.000000,3.625000,885.94972521,0.000000,0.00000000,64.95766606,0.000000,404.55093897,371.80221875,42.01084618,0.00000000,2.42732195,0.14979480,0.01041460,0.04052390,4.75058322,0.00103189,0.00124846,0.00110412,0.00055932,2.13339304,2.48202521,0.13122117,0.00008599,0.00062423,0.00044165,0.00111864,2.62442338,1.24101261,2.66674130
3.500,2,1,1,-531.742,190.573,49.746,41.833295,-0.659928,-0.659928,-42.493223,-6.517395,nan,0.423645,0.097624,-0.888085,0.200393,0.292969,0.731184,-1.317803,0.864712,0.798233,51.906000,-48.094000,100.000000,3.812000,884.72234002,0.000000,0.00000000,65.97287160,0.000000,404.06318493,371.37814027,40.70892880,0.00000000,2.39951024,0.14950290,0.01044266,0.03975862,4.85225191,0.00103537,0.00128104,0.00116418,0.00058577,2.17739931,2.53455745,0.13622879,0.00008628,0.00064052,0.00046567,0.00117155,2.72457572,1.26727872,2.72174914
3.740,2,1,1,-531.742,190.573,49.746,41.833295,-0.659928,-0.659928,-42.493223,-6.517395,nan,0.423645,0.097624,-0.888085,0.200393,0.284016,0.731184,-1.317803,0.864712,0.793872,51.953000,-48.047000,100.000000,3.906000,884.71390000,0.000000,0.00000000,65.96945979,0.000000,404.05678362,371.36997471,40.71828415,0.00000000,2.39979516,0.14948306,0.01041741,0.03970209,5.09587581,0.00104372,0.00135909,0.00130812,0.00064916,2.28284907,2.66043752,0.14822913,0.00008698,0.00067955,0.00052325,0.00129832,2.96458256,1.33021876,2.85356134
3.800,2,1,1,-531.675,190.688,49.680,39.798254,-0.794076,-0.794076,-40.592330,-4.984733,nan,0.335605,-0.045832,-1.231859,0.140150,0.281690,0.499327,-0.716197,0.752503,0.789843,51.976500,-48.023500,100.000000,3.953000,873.30107282,0.000000,0.00000000,60.38820553,0.000000,403.01163525,370.13394846,37.26234299,0.00000000,2.30704550,0.15004381,0.01058327,0.03726801,5.15221313,0.00104418,0.00136825,0.00137780,0.00065387,2.30706178,2.68945845,0.15124879,0.00008702,0.00068413,0.00055112,0.00130774,3.02497588,1.34472923,2.88382723
3.900,2,1,1,-531.650,190.728,49.656,39.124612,-0.840160,-0.840160,-39.964773,-6.889817,nan,0.394278,-0.087303,-1.704549,0.105310,0.278229,0.434481,-0.472690,0.662799,0.782368,57.976500,-42.023500,100.000000,15.953000,870.72508716,0.000000,0.00000000,61.67435458,0.000000,401.54684044,368.55715587,36.45979811,0.00000000,2.29771294,0.14807149,0.00910898,0.03204474,5.24316587,0.00104697,0.00137975,0.00159895,0.00065727,2.34596365,2.73614593,0.15637334,0.00008725,0.00068987,0.00063958,0.00131454,3.12746682,1.36807297,2.93245457
4.000,2,1,1,-531.625,190.768,49.631,38.455480,-0.886838,-0.886838,-39.342318,-6.631986,nan,0.431334,-0.130106,-0.845113,0.087567,0.275354,0.369481,-1.088620,0.565428,0.774327,56.488500,-43.511500,100.000000,12.977000,869.48958725,0.000000,0.00000000,63.07552743,0.000000,401.11299689,368.25197042,34.62255581,0.00000000,2.23672719,0.14787696,0.00923353,0.03269903,5.33138998,0.00105316,0.00138806,0.00165335,0.00067532,2.38368647,2.78147562,0.16145800,0.00008776,0.00069403,0.00066134,0.00135065,3.22916009,1.39073781,2.97960809
4.100,2,1,1,-531.598,190.809,49.605,37.795963,-0.934075,-0.934075,-38.730038,-6.947113,nan,0.463036,-0.169322,0.143239,0.097369,0.273149,0.298321,-1.546986,0.460294,0.765823,56.489000,-43.511000,100.000000,12.978000,867.93867290,0.000000,0.00000000,64.30924582,0.000000,400.45230456,367.66482275,33.14394169,0.00000000,2.17891075,0.14753752,0.00933898,0.03257082,5.41709659,0.00106364,0.00139349,0.00165491,0.00071179,2.42025567,2.82547283,0.16654427,0.00008864,0.00069674,0.00066196,0.00142358,3.33088533,1.41273641,3.02531958
4.200,2,1,1,-531.571,190.849,49.578,37.143414,-0.981742,-0.981742,-38.125156,-6.044705,nan,0.477313,-0.202791,-0.601606,0.130947,0.271612,0.225584,-0.744845,0.389016,0.757031,56.489000,-43.511000,100.000000,12.978000,866.49297195,0.000000,0.00000000,64.93775868,0.000000,399.82321678,367.06686474,32.33733007,0.00000000,2.13969226,0.14721335,0.00932635,0.03156971,5.50032146,0.00107867,0.00139659,0.00168247,0.00072024,2.45567629,2.86813886,0.17162834,0.00008989,0.00069829,0.00067299,0.00144048,3.43256685,1.43406943,3.06959536
4.417,2,1,1,-531.571,190.849,49.578,37.143414,-0.981742,-0.981742,-38.125156,-6.044705,nan,0.477313,-0.202791,-0.601606,0.130947,0.268501,0.225584,-0.744845,0.389016,0.739069,56.489000,-43.511000,100.000000,12.978000,866.49297195,0.000000,0.00000000,64.93775868,0.000000,399.82321678,367.06686474,32.33733007,0.00000000,2.13969226,0.14721335,0.00932635,0.03156971,5.68093447,0.00111130,0.00140332,0.00174229,0.00073858,2.53254543,2.96073186,0.18266171,0.00009261,0.00070166,0.00069691,0.00147715,3.65323411,1.48036593,3.16568179
4.500,2,1,1,-531.482,190.974,49.491,35.217835,-1.127655,-1.127655,-36.345491,-6.603339,nan,0.494835,-0.284022,0.042972,0.205022,0.268809,0.055804,-0.343775,0.264470,0.731943,60.500000,-39.500000,100.000000,21.000000,857.23876248,0.000000,0.00000000,63.33028844,0.000000,397.54164745,364.63795073,29.46247535,0.00000000,2.08375019,0.14654635,0.00876787,0.02733610,5.74429928,0.00113577,0.00140347,0.00174240,0.00074007,2.55926143,2.99302193,0.18699420,0.00009465,0.00070174,0.00069696,0.00148014,3.73988395,1.49651097,3.19907679
4.600,2,1,1,-531.450,191.016,49.461,34.586369,-1.177163,-1.177163,-35.763532,-6.589015,nan,0.501927,-0.304410,-0.888085,0.241410,0.269670,0.017100,-0.415394,0.192722,0.723588,60.500000,-39.500000,100.000000,21.000000,854.17710075,0.000000,0.00000000,63.01593672,0.000000,396.80472937,363.88856177,28.24394108,0.00000000,2.04206894,0.14626430,0.00875654,0.02684203,5.81844671,0.00116962,0.00140349,0.00180242,0.00074270,2.59040893,3.03070849,0.19221106,0.00009747,0.00070175,0.00072097,0.00148539,3.84422127,1.51535424,3.23801116
4.700,2,1,1,-531.417,191.058,49.428,33.963968,-1.226990,-1.226990,-35.190958,-6.159296,nan,0.523753,-0.317035,-0.845113,0.272410,0.270813,-0.017032,-0.501338,0.122179,0.715507,60.500000,-39.500000,100.000000,21.000000,851.88611741,0.000000,0.00000000,63.28112443,0.000000,396.01081371,363.10123098,27.30809512,0.00000000,2.00389540,0.14588528,0.00890433,0.02616817,5.89049837,0.00120636,0.00140351,0.00185682,0.00074652,2.62058984,3.06726346,0.19743187,0.00010053,0.00070175,0.00074273,0.00149305,3.94863738,1.53363173,3.27573730
4.800,2,1,1,-531.383,191.101,49.395,33.349474,-1.277093,-1.277093,-34.626567,-7.047381,nan,0.532021,-0.323002,-0.974028,0.296392,0.272054,-0.043938,-0.057296,0.056978,0.707717,60.500000,-39.500000,100.000000,21.000000,848.07249707,0.000000,0.00000000,62.64243465,0.000000,395.21645912,362.28434268,25.78217275,0.00000000,1.96586502,0.14568176,0.00925070,0.02629040,5.96046458,0.00124449,0.00140363,0.00192906,0.00074657,2.64980491,3.10268424,0.20265169,0.00010371,0.00070181,0.00077162,0.00149315,4.05303376,1.55134212,3.31225614
4.900,2,1,1,-531.348,191.144,49.361,32.741716,-1.327519,-1.327519,-34.069235,-6.574691,nan,0.541246,-0.326121,0.988352,0.310044,0.273315,-0.060345,-0.615930,0.040846,0.700203,60.500000,-39.500000,100.000000,21.000000,845.26850924,0.000000,0.00000000,62.23494148,0.000000,394.42963988,361.47246296,24.97644268,0.00000000,1.97458486,0.14545091,0.00929071,0.02569575,6.02841829,0.00128337,0.00140385,0.00200345,0.00075235,2.67809091,3.13701215,0.20787221,0.00010695,0.00070192,0.00080138,0.00150470,4.15744425,1.56850607,3.34761364
5.115,2,1,1,-531.348,191.144,49.361,32.741716,-1.327519,-1.327519,-34.069235,-6.574691,nan,0.541246,-0.326121,0.988352,0.310044,0.275838,-0.060345,-0.615930,0.040846,0.684825,60.500000,-39.500000,100.000000,21.000000,845.26850924,0.000000,0.00000000,62.23494148,0.000000,394.42963988,361.47246296,24.97644268,0.00000000,1.97458486,0.14545091,0.00929071,0.02569575,6.17459897,0.00136700,0.00140433,0.00216348,0.00076478,2.73893920,3.21085768,0.21910250,0.00011392,0.00070216,0.00086539,0.00152956,4.38205006,1.60542884,3.42367400
5.200,2,1,1,-531.236,191.272,49.252,31.068425,-1.480433,-1.480433,-32.548858,-5.872817,nan,0.491663,-0.319710,0.042972,0.321628,0.276642,-0.047955,0.229183,0.045987,0.679009,63.250000,-36.750000,100.000000,26.500000,834.53936546,0.000000,0.00000000,57.96335589,0.000000,392.20510449,359.00894986,23.21535125,0.00000000,1.96953590,0.14583451,0.00865661,0.02257695,6.22781368,0.00139875,0.00140444,0.00216360,0.00076546,2.76087890,3.23755266,0.22364987,0.00011656,0.00070222,0.00086544,0.00153092,4.47299732,1.61877633,3.45109863
5.300,2,1,1,-531.196,191.315,49.214,30.479602,-1.531657,-1.531657,-32.011259,-5.700930,nan,0.530584,-0.307505,-1.188887,0.321615,0.277280,-0.026729,-0.329451,0.048925,0.672330,63.250000,-36.750000,100.000000,26.500000,831.46032299,0.000000,0.00000000,57.70176282,0.000000,391.25601832,358.03181495,22.31388498,0.00000000,1.98053678,0.14545246,0.00875054,0.02210215,6.28868695,0.00143332,0.00140449,0.00227123,0.00076711,2.78584876,3.26796147,0.22900057,0.00011944,0.00070224,0.00090849,0.00153423,4.58001139,1.63398074,3.48231095
5.400,2,1,1,-531.156,191.358,49.174,29.898546,-1.582996,-1.582996,-31.481542,-5.371479,nan,0.558504,-0.291047,-0.945380,0.316706,0.277551,0.002011,0.401070,0.046333,0.665833,63.250000,-36.750000,100.000000,26.500000,828.45725433,0.000000,0.00000000,57.40716940,0.000000,390.30942173,357.05574171,21.52097744,0.00000000,1.98835327,0.14509894,0.00892202,0.02156981,6.34773914,0.00146428,0.00140449,0.00233930,0.00076956,2.81000467,3.29740431,0.23435252,0.00012202,0.00070224,0.00093572,0.00153913,4.68705035,1.64870216,3.51250584
5.500,2,1,1,-531.114,191.401,49.134,29.323591,-1.634472,-1.634472,-30.958063,-5.514719,nan,0.577886,-0.272692,0.042972,0.307129,0.277460,0.039797,0.916732,0.039832,0.659543,64.625000,-35.375000,100.000000,29.250000,825.07507317,0.000000,0.00000000,56.93257303,0.000000,389.18404555,355.85477082,20.92981513,0.00000000,1.99962268,0.14496677,0.00867442,0.02060478,6.40506294,0.00149147,0.00140458,0.00233944,0.00078237,2.83336398,3.32589995,0.23978114,0.00012429,0.00070229,0.00093578,0.00156473,4.79562290,1.66294997,3.54170498
5.713,2,1,1,-531.114,191.401,49.134,29.323591,-1.634472,-1.634472,-30.958063,-5.514719,nan,0.577886,-0.272692,0.042972,0.307129,0.277278,0.039797,0.916732,0.039832,0.646742,64.625000,-35.375000,100.000000,29.250000,825.07504292,0.000000,0.00000000,56.93257303,0.000000,389.18404555,355.85477082,20.92981513,0.00000000,1.99962268,0.14496677,0.00864417,0.02060478,6.52697040,0.00154929,0.00140479,0.00233974,0.00080959,2.88304098,3.38650009,0.25132592,0.00012911,0.00070239,0.00093590,0.00161918,5.02651836,1.69325005,3.60380122
5.800,2,1,1,-530.983,191.530,49.007,27.636732,-1.789346,-1.789346,-29.426078,-4.984733,nan,0.513491,-0.206615,0.644578,0.272272,0.276315,0.202560,0.544310,0.098558,0.642180,65.312500,-34.687500,100.000000,30.625000,813.99216999,0.000000,0.00000000,52.45460641,0.000000,387.01335749,353.51552239,18.73303083,0.00000000,2.10246774,0.14544765,0.00875127,0.01898621,6.57272518,0.00156291,0.00140697,0.00236736,0.00081353,2.90145699,3.40901854,0.25609890,0.00013024,0.00070349,0.00094694,0.00162706,5.12197795,1.70450927,3.62682123
5.900,2,1,1,-530.938,191.573,48.963,27.086023,-1.840937,-1.840937,-28.926959,-6.087677,nan,0.561580,-0.179191,0.042972,0.246647,0.274907,0.270157,-0.114592,0.149505,0.637526,65.656000,-34.344000,100.000000,31.312000,810.11037489,0.000000,0.00000000,52.01186331,0.000000,385.85353612,352.30738238,17.59915770,0.00000000,2.16519180,0.14509488,0.00916952,0.01897919,6.62359034,0.00157465,0.00141142,0.00236750,0.00081373,2.92185426,3.43397813,0.26159066,0.00013122,0.00070571,0.00094700,0.00162746,5.23181317,1.71698906,3.65231783
6.000,2,1,1,-530.891,191.615,48.918,26.540740,-1.892500,-1.892500,-28.433240,-4.712578,nan,0.593008,-0.151466,0.587282,0.217789,0.273253,0.342948,1.203211,0.209416,0.633611,65.828000,-34.172000,100.000000,31.656000,807.62443370,0.000000,0.00000000,51.86806674,0.000000,384.77864959,351.19078397,17.38576110,0.00000000,2.22944431,0.14472635,0.00901571,0.01798593,6.67295055,0.00158303,0.00141858,0.00239374,0.00083577,2.94154306,3.45808818,0.26708819,0.00013192,0.00070929,0.00095750,0.00167153,5.34176375,1.72904409,3.67692883
6.100,2,1,1,-530.844,191.658,48.872,26.001027,-1.944026,-1.944026,-27.945053,-5.700930,nan,0.610687,-0.124336,-0.200535,0.187280,0.271409,0.419572,-0.186211,0.276267,0.630587,65.914000,-34.086000,100.000000,31.828000,803.80530003,0.000000,0.00000000,51.21287485,0.000000,383.71777069,350.08929285,16.31930351,0.00000000,2.29403477,0.14447167,0.00948764,0.01806406,6.72085496,0.00158868,0.00142931,0.00239681,0.00083629,2.96058438,3.48142172,0.27259777,0.00013239,0.00071466,0.00095872,0.00167259,5.45195543,1.74071086,3.70073047
6.200,2,1,1,-530.796,191.700,48.825,25.465563,-1.995436,-1.995436,-27.460999,-5.686606,nan,0.621265,-0.097210,-0.472690,0.160962,0.269432,0.498227,1.847789,0.345614,0.628611,65.957000,-34.043000,100.000000,31.914000,800.50138733,0.000000,0.00000000,50.59769294,0.000000,382.70010279,349.03121960,15.64225355,0.00000000,2.35842227,0.14424438,0.00971119,0.01774060,6.76733209,0.00159213,0.00144442,0.00241381,0.00088826,2.97894891,3.50394130,0.27810325,0.00013268,0.00072221,0.00096553,0.00177652,5.56206500,1.75197065,3.72368613
6.443,2,1,1,-530.796,191.700,48.825,25.465563,-1.995436,-1.995436,-27.460999,-5.686606,nan,0.621265,-0.097210,-0.472690,0.160962,0.264830,0.498227,1.847789,0.345614,0.624044,65.978500,-34.021500,100.000000,31.957000,800.49810816,0.000000,0.00000000,50.59728296,0.000000,382.69721300,349.02764767,15.64572360,0.00000000,2.35855968,0.14424777,0.00970308,0.01773041,6.88039473,0.00160053,0.00148119,0.00245518,0.00101468,3.02362209,3.55872197,0.29149910,0.00013338,0.00074059,0.00098207,0.00202935,5.82998207,1.77936098,3.77952762
6.500,2,1,1,-530.647,191.825,48.681,23.883125,-2.148579,-2.148579,-26.031704,-5.027705,nan,0.711077,-0.012541,-1.131592,0.117454,0.263634,0.733650,0.830789,0.499980,0.625119,65.989000,-34.011000,100.000000,31.978000,793.46891508,0.000000,0.00000000,51.00438517,0.000000,379.73356991,346.08092176,13.92534114,0.00000000,2.55431745,0.14351598,0.01026997,0.01659370,6.90453640,0.00160056,0.00149983,0.00251063,0.00102066,3.03301240,3.57025932,0.29463299,0.00013338,0.00074992,0.00100425,0.00204131,5.89265988,1.78512966,3.79126551
6.600,2,1,1,-530.596,191.866,48.632,23.361705,-2.199226,-2.199226,-25.560931,-5.314184,nan,0.673443,0.012856,0.085944,0.087414,0.261571,0.810075,-0.329451,0.602971,0.628428,65.994500,-34.005500,100.000000,31.989000,789.41235748,0.000000,0.00000000,49.45325957,0.000000,378.80666470,345.08368155,13.28910236,0.00000000,2.60910735,0.14353985,0.01052768,0.01647442,6.94559429,0.00160062,0.00153982,0.00251119,0.00102231,3.04893727,3.58983744,0.30014563,0.00013339,0.00076991,0.00100448,0.00204462,6.00291260,1.79491872,3.81117159
6.700,2,1,1,-530.545,191.907,48.582,22.842664,-2.249645,-2.249645,-25.092310,-4.225564,nan,0.664546,0.036638,0.372423,0.059140,0.259591,0.883896,-0.186211,0.702152,0.633139,65.997500,-34.002500,100.000000,31.995000,786.23779398,0.000000,0.00000000,48.55945181,0.000000,377.83054244,344.05660081,12.95497762,0.00000000,2.66665723,0.14338357,0.01047038,0.01571011,6.98537678,0.00160111,0.00158741,0.00252175,0.00102284,3.06427815,3.60870901,0.30565651,0.00013343,0.00079370,0.00100870,0.00204567,6.11313018,1.80435450,3.83034769
6.800,2,1,1,-530.493,191.947,48.532,22.325733,-2.299771,-2.299771,-24.625504,-5.629310,nan,0.659161,0.059308,-0.587282,0.035477,0.257720,0.953352,-0.114592,0.797659,0.639190,65.999000,-34.001000,100.000000,31.998000,782.64204053,0.000000,0.00000000,47.51765441,0.000000,376.85809693,343.04177080,12.33404817,0.00000000,2.71993341,0.14347221,0.01067541,0.01638918,7.02394493,0.00160240,0.00164279,0.00254802,0.00102304,3.07905815,3.62690134,0.31116920,0.00013353,0.00082139,0.00101921,0.00204607,6.22338394,1.81345067,3.84882268
6.900,2,1,1,-530.441,191.988,48.482,21.810354,-2.349579,-2.349579,-24.159933,-6.316860,nan,0.657175,0.081343,0.429718,0.043843,0.255983,1.016863,0.716197,0.871765,0.646451,65.999000,-34.001000,100.000000,31.998000,779.45591865,0.000000,0.00000000,46.64036522,0.000000,375.89840350,342.04480458,11.93252679,0.00000000,2.76878187,0.14352470,0.01080498,0.01670701,7.06129046,0.00160482,0.00170579,0.00256208,0.00103085,3.09328382,3.64442151,0.31668160,0.00013373,0.00085289,0.00102483,0.00206170,6.33363194,1.82221075,3.86660477
7.126,2,1,1,-530.441,191.988,48.482,21.810354,-2.349579,-2.349579,-24.159933,-6.316860,nan,0.657175,0.081343,0.429718,0.043843,0.252195,1.016863,0.716197,0.871765,0.661837,65.999000,-34.001000,100.000000,31.998000,779.45591865,0.000000,0.00000000,46.64036522,0.000000,375.89840350,342.04480458,11.93252679,0.00000000,2.76878187,0.14352470,0.01080498,0.01670701,7.14579301,0.00161029,0.00184834,0.00259391,0.00104853,3.12547255,3.68406476,0.32915462,0.00013419,0.00092417,0.00103756,0.00209706,6.58309249,1.84203238,3.90684069
7.200,2,1,1,-530.282,192.106,48.328,20.272977,-2.497048,-2.497048,-22.770025,-5.700930,nan,0.575663,0.132636,-0.128916,0.084662,0.251230,1.164588,-0.429718,1.005278,0.669125,66.000000,-28.000000,94.000000,38.000000,769.95469138,0.000000,0.00000000,42.99114469,0.000000,373.67669847,339.73559470,10.54590140,0.00000000,2.84345813,0.14148526,0.00792237,0.01248635,7.17053150,0.00161505,0.00190944,0.00259484,0.00105061,3.13481553,3.69559059,0.33295544,0.00013459,0.00095472,0.00103794,0.00210122,6.65910879,1.84779529,3.91851941
7.300,2,1,1,-530.228,192.144,48.276,19.806339,-2.545491,-2.545491,-22.351830,-4.325831,nan,0.611401,0.143634,-0.085944,0.104252,0.250038,1.195871,-0.286479,1.069534,0.679371,66.000000,-28.000000,94.000000,38.000000,767.33050375,0.000000,0.00000000,42.63351317,0.000000,372.61784111,338.64391924,10.39924057,0.00000000,2.87548277,0.14122719,0.00751641,0.01176330,7.20292493,0.00162258,0.00199645,0.00259540,0.00105186,3.14697374,3.71059658,0.33808833,0.00013521,0.00099822,0.00103816,0.00210371,6.76176656,1.85529829,3.93371717
7.400,2,1,1,-530.174,192.182,48.224,19.308670,-2.593426,-2.593426,-21.902095,-4.669606,nan,0.623105,0.154907,-0.329451,0.123701,0.248966,1.221532,-0.744845,1.131381,0.689820,66.000000,-28.000000,94.000000,38.000000,763.88730438,0.000000,0.00000000,41.79592207,0.000000,371.61104902,337.60025481,9.82103389,0.00000000,2.89847135,0.14113184,0.00777051,0.01167089,7.23428926,0.00163134,0.00208730,0.00260366,0.00106030,3.15865723,3.72502397,0.34322545,0.00013595,0.00104365,0.00104147,0.00212060,6.86450897,1.86251198,3.94832154
7.500,2,1,1,-530.120,192.220,48.171,18.819736,-2.640861,-2.640861,-21.460597,-4.497719,nan,0.637536,0.165070,-0.114592,0.140976,0.248009,1.238064,-0.343775,1.182905,0.700231,66.000000,-28.000000,94.000000,38.000000,760.79890228,0.000000,0.00000000,41.21263783,0.000000,370.57918782,336.53757021,9.39197416,0.00000000,2.91723841,0.14097490,0.00792057,0.01139838,7.26461082,0.00164130,0.00218064,0.00260466,0.00106210,3.16987547,3.73888359,0.34836304,0.00013678,0.00109032,0.00104187,0.00212420,6.96726081,1.86944180,3.96234434
7.600,2,1,1,-530.066,192.256,48.118,18.338463,-2.687838,-2.687838,-21.026301,-5.772550,nan,0.655997,0.172211,-0.988352,0.152232,0.247139,1.245279,-0.214859,1.209679,0.710396,66.000000,-28.000000,94.000000,38.000000,757.53324085,0.000000,0.00000000,40.71944892,0.000000,369.51030284,335.44485868,8.76615495,0.00000000,2.93150406,0.14083781,0.00843076,0.01170284,7.29404091,0.00165215,0.00227518,0.00267910,0.00106280,3.18065627,3.75220904,0.35350636,0.00013768,0.00113759,0.00107164,0.00212561,7.07012725,1.87610452,3.97582034
7.809,2,1,1,-530.066,192.256,48.118,18.338463,-2.687838,-2.687838,-21.026301,-5.772550,nan,0.655997,0.172211,-0.988352,0.152232,0.245389,1.245279,-0.214859,1.209679,0.730311,66.000000,-28.000000,94.000000,38.000000,757.53324085,0.000000,0.00000000,40.71944892,0.000000,369.51030284,335.44485868,8.76615495,0.00000000,2.93150406,0.14083781,0.00843076,0.01170284,7.35541875,0.00167477,0.00247234,0.00283435,0.00106427,3.20314014,3.77999987,0.36423300,0.00013956,0.00123617,0.00113374,0.00212854,7.28466004,1.88999994,4.00392518
7.900,2,1,1,-529.901,192.365,47.959,16.930633,-2.825960,-2.825960,-19.756593,-4.325831,nan,0.555488,0.178741,-0.128916,0.167722,0.244706,1.211093,-0.458366,1.229167,0.737847,66.000000,-28.000000,94.000000,38.000000,748.51385605,0.000000,0.00000000,37.07985838,0.000000,367.34240527,333.22107785,7.82898823,0.00000000,2.88094923,0.14161845,0.00837582,0.01058281,7.37963271,0.00168543,0.00255390,0.00283550,0.00106719,3.21182169,3.79074471,0.36892428,0.00014045,0.00127695,0.00113420,0.00213439,7.37848566,1.89537235,4.01477711
8.000,2,1,1,-529.846,192.400,47.906,16.471361,-2.871027,-2.871027,-19.342388,-5.357155,nan,0.597917,0.178625,-1.489690,0.173497,0.243972,1.181509,-0.028648,1.224909,0.745209,66.000000,-28.000000,94.000000,38.000000,745.36644117,0.000000,0.00000000,36.57671841,0.000000,366.23416067,332.07914154,7.42667563,0.00000000,2.88859741,0.14145208,0.00885926,0.01083617,7.40544761,0.00169710,0.00263896,0.00300452,0.00106721,3.22094007,3.80203485,0.37406491,0.00014142,0.00131948,0.00120181,0.00213441,7.48129818,1.90101742,4.02617509
8.100,2,1,1,-529.790,192.434,47.852,16.015625,-2.915632,-2.915632,-18.931258,-3.996381,nan,0.620736,0.176542,-0.916732,0.176764,0.243235,1.143577,-0.902409,1.209040,0.751572,66.000000,-28.000000,94.000000,38.000000,742.50653541,0.000000,0.00000000,36.08968863,0.000000,365.17903083,330.99069675,7.20199483,0.00000000,2.88507594,0.14121233,0.00870933,0.01012678,7.43030729,0.00170849,0.00271863,0.00306852,0.00107961,3.22967392,3.81285319,0.37920493,0.00014237,0.00135932,0.00122741,0.00215922,7.58409861,1.90642660,4.03709240
8.200,2,1,1,-529.735,192.468,47.798,15.563340,-2.959805,-2.959805,-18.523144,-4.397451,nan,0.634365,0.171604,-0.200535,0.177339,0.242470,1.098076,-0.658901,1.182038,0.756883,66.000000,-28.000000,94.000000,38.000000,739.51381409,0.000000,0.00000000,35.52337486,0.000000,364.14373410,329.92705612,6.88739031,0.00000000,2.87200225,0.14110929,0.00901362,0.01013354,7.45426318,0.00171925,0.00279209,0.00307159,0.00108622,3.23803514,3.82321401,0.38434488,0.00014327,0.00139604,0.00122863,0.00217244,7.68689761,1.91160701,4.04754393
8.300,2,1,1,-529.679,192.502,47.744,15.113870,-3.003517,-3.003517,-18.117387,-4.082324,nan,0.632311,0.165111,-0.171887,0.175224,0.241667,1.045802,-0.401070,1.146853,0.761117,66.000000,-28.000000,94.000000,38.000000,736.48314011,0.000000,0.00000000,34.71750114,0.000000,363.18982378,328.94255423,6.62563817,0.00000000,2.84757648,0.14108289,0.00910445,0.00985899,7.47738815,0.00172921,0.00285869,0.00307383,0.00108867,3.24603033,3.83312499,0.38948243,0.00014410,0.00142934,0.00122953,0.00217734,7.78964850,1.91656250,4.05753791
8.572,2,1,1,-529.679,192.502,47.744,15.113870,-3.003517,-3.003517,-18.117387,-4.082324,nan,0.632311,0.165111,-0.171887,0.175224,0.239562,1.045802,-0.401070,1.146853,0.772031,66.000000,-28.000000,94.000000,38.000000,736.48314011,0.000000,0.00000000,34.71750114,0.000000,363.18982378,328.94255423,6.62563817,0.00000000,2.84757648,0.14108289,0.00910445,0.00985899,7.54039586,0.00175635,0.00304015,0.00307996,0.00109534,3.26781449,3.86012906,0.40348050,0.00014636,0.00152008,0.00123198,0.00219068,8.06960993,1.93006453,4.08476811
8.600,2,1,1,-529.540,192.583,47.610,13.868115,-3.109941,-3.109941,-16.978056,-4.039352,nan,0.501351,0.142728,-0.186211,0.167915,0.239306,0.869330,-1.303479,1.076217,0.772373,66.000000,-28.000000,94.000000,38.000000,729.49741874,0.000000,0.00000000,31.65587749,0.000000,361.60708208,327.35391693,5.96611158,0.00000000,2.75349281,0.14210766,0.00937549,0.00945471,7.54622098,0.00175842,0.00305295,0.00308070,0.00110253,3.26976643,3.86255119,0.40490876,0.00014654,0.00152647,0.00123228,0.00220507,8.09817525,1.93127559,4.08720804
8.700,2,1,1,-529.483,192.615,47.555,13.479723,-3.152077,-3.152077,-16.631800,-3.996381,nan,0.649923,0.133743,-1.475366,0.160080,0.238336,0.806749,-0.529986,1.009969,0.772786,66.000000,-28.000000,94.000000,38.000000,727.50090765,0.000000,0.00000000,33.23910401,0.000000,359.91778709,325.64478256,5.78559089,0.00000000,2.75351862,0.14103940,0.00975536,0.00932972,7.56668507,0.00176496,0.00309260,0.00324646,0.00110681,3.27650730,3.87091827,0.41004867,0.00014708,0.00154630,0.00129858,0.00221362,8.20097349,1.93545914,4.09563412
8.800,2,1,1,-529.427,192.646,47.500,12.987048,-3.193791,-3.193791,-16.180839,-4.555014,nan,0.645728,0.120617,0.286479,0.148245,0.237304,0.724047,-1.575634,0.919067,0.772238,66.000000,-28.000000,94.000000,38.000000,724.42291638,0.000000,0.00000000,32.39480685,0.000000,358.92674221,324.61758297,5.63296241,0.00000000,2.69019117,0.14105922,0.01013779,0.00943375,7.58619470,0.00177027,0.00312451,0.00325270,0.00114459,3.28288288,3.87883493,0.41518481,0.00014752,0.00156226,0.00130108,0.00228919,8.30369614,1.93941746,4.10360360
8.900,2,1,1,-529.370,192.677,47.445,12.601321,-3.235081,-3.235081,-15.836402,-3.996381,nan,0.645707,0.109708,-1.346451,0.136899,0.236228,0.657645,-1.217535,0.836688,0.771017,66.000000,-28.000000,94.000000,38.000000,721.38877196,0.000000,0.00000000,31.62983578,0.000000,357.93284585,323.58982000,5.44288735,0.00000000,2.63316330,0.14097657,0.01014750,0.00909560,7.60524130,0.00177468,0.00315088,0.00339086,0.00116719,3.28899855,3.88643096,0.42032819,0.00014789,0.00157544,0.00135634,0.00233438,8.40656385,1.94321548,4.11124818
9.106,2,1,1,-529.370,192.677,47.445,12.601321,-3.235081,-3.235081,-15.836402,-3.996381,nan,0.645707,0.109708,-1.346451,0.136899,0.234078,0.657645,-1.217535,0.836688,0.768586,66.000000,-28.000000,94.000000,38.000000,721.38877196,0.000000,0.00000000,31.62983578,0.000000,357.93284585,323.58982000,5.44288735,0.00000000,2.63316330,0.14097657,0.01014750,0.00909560,7.64440497,0.00178373,0.00320509,0.00367493,0.00121364,3.30157359,3.90204995,0.43090403,0.00014864,0.00160255,0.00146997,0.00242729,8.61808063,1.95102497,4.12696699
9.200,2,1,1,-529.197,192.768,47.278,11.327263,-3.356298,-3.356298,-14.683561,-5.256888,nan,0.542825,0.072260,-1.389423,0.111954,0.232967,0.438035,-1.862113,0.673535,0.765866,66.000000,-16.000000,82.000000,50.000000,712.53481952,0.000000,0.00000000,28.47286876,0.000000,355.74898453,321.38591901,4.29826022,0.00000000,2.48029394,0.13813182,0.00530387,0.00505737,7.66005202,0.00178553,0.00321611,0.00381341,0.00126339,3.30652274,3.90820260,0.43524826,0.00014879,0.00160805,0.00152536,0.00252678,8.70496510,1.95410130,4.13315342
9.300,2,1,1,-529.139,192.797,47.222,10.898929,-3.395837,-3.395837,-14.294766,-5.471747,nan,0.588096,0.057056,-1.403747,0.096597,0.231761,0.366253,0.000000,0.581528,0.762614,66.000000,-16.000000,82.000000,50.000000,709.16038594,0.000000,0.00000000,27.81280598,0.000000,354.59640100,320.18717863,3.99286409,0.00000000,2.42394750,0.13789299,0.00430605,0.00498969,7.67599101,0.00178672,0.00322428,0.00396343,0.00126339,3.31150100,3.91439322,0.43985898,0.00014889,0.00161214,0.00158537,0.00252678,8.79717950,1.95719661,4.13937626
9.400,2,1,1,-529.081,192.826,47.166,10.489084,-3.434732,-3.434732,-13.923815,-3.982057,nan,0.614961,0.042530,-1.217535,0.079968,0.230540,0.297831,-0.787817,0.486759,0.759092,66.000000,-16.000000,82.000000,50.000000,706.18383686,0.000000,0.00000000,27.21428557,0.000000,353.48083861,319.02760094,3.95107518,0.00000000,2.36362152,0.13766328,0.00423358,0.00451819,7.69133959,0.00178738,0.00322968,0.00407637,0.00127285,3.31622769,3.92027256,0.44447305,0.00014895,0.00161484,0.00163055,0.00254569,8.88946109,1.96013628,4.14528462
9.500,2,1,1,-529.022,192.854,47.109,10.096261,-3.472966,-3.472966,-13.569227,-3.351803,nan,0.631612,0.029307,-0.859437,0.063106,0.229318,0.233695,-0.601606,0.394493,0.755389,66.000000,-16.000000,82.000000,50.000000,703.01344754,0.000000,0.00000000,26.49778759,0.000000,352.38126630,317.88461526,3.80035222,0.00000000,2.30341007,0.13748668,0.00425912,0.00427029,7.70608417,0.00178769,0.00323301,0.00413261,0.00127836,3.32071396,3.92585423,0.44908431,0.00014897,0.00161650,0.00165304,0.00255672,8.98168620,1.96292712,4.15089245
9.600,2,1,1,-528.963,192.881,47.051,9.718157,-3.510575,-3.510575,-13.228732,-4.383127,nan,0.639636,0.016078,-0.544310,0.049835,0.228101,0.174669,-1.976704,0.327053,0.751576,66.000000,-16.000000,82.000000,50.000000,699.50738532,0.000000,0.00000000,25.60363567,0.000000,351.30009173,316.76096460,3.43723611,0.00000000,2.25917954,0.13738565,0.00448530,0.00440672,7.72035030,0.00178779,0.00323487,0.00415517,0.00133786,3.32497809,3.93116076,0.45369577,0.00014898,0.00161743,0.00166207,0.00267573,9.07391543,1.96558038,4.15622261
9.809,2,1,1,-528.963,192.881,47.051,9.718157,-3.510575,-3.510575,-13.228732,-4.383127,nan,0.639636,0.016078,-0.544310,0.049835,0.225623,0.174669,-1.976704,0.327053,0.743817,66.000000,-16.000000,82.000000,50.000000,699.50738532,0.000000,0.00000000,25.60363567,0.000000,351.30009173,316.76096460,3.43723611,0.00000000,2.25917954,0.13738565,0.00448530,0.00440672,7.75011972,0.00178798,0.00323875,0.00420225,0.00146204,3.33387613,3.94223399,0.46331860,0.00014900,0.00161937,0.00168090,0.00292407,9.26637192,1.97111699,4.16734516
9.900,2,1,1,-528.784,192.960,46.877,8.655457,-3.620122,-3.620122,-12.275580,-3.452071,nan,0.565326,-0.031162,-0.157563,0.030771,0.224578,0.035580,-0.830789,0.211852,0.740313,66.000000,-16.000000,82.000000,50.000000,691.74150340,0.000000,0.00000000,23.23219600,0.000000,348.88170760,314.34961725,2.97736120,0.00000000,2.15428335,0.13799488,0.00441720,0.00392591,7.76188018,0.00178831,0.00323882,0.00420398,0.00147164,3.33723181,3.94641257,0.46753305,0.00014903,0.00161941,0.00168159,0.00294328,9.35066106,1.97320629,4.17153977
10.000,2,1,1,-528.723,192.985,46.819,8.320682,-3.655506,-3.655506,-11.976187,-3.595310,nan,0.603496,-0.045009,-1.145916,0.028462,0.223476,0.003941,-1.017000,0.150923,0.736528,66.000000,-16.000000,82.000000,50.000000,688.22148522,0.000000,0.00000000,22.38493422,0.000000,347.67688649,313.08409188,2.81010992,0.00000000,2.11927005,0.13774966,0.00455892,0.00388409,7.77445175,0.00178905,0.00323882,0.00430393,0.00148739,3.34072559,3.95076391,0.47214307,0.00014909,0.00161941,0.00172157,0.00297478,9.44286130,1.97538196,4.17590698
10.100,2,1,1,-528.662,193.010,46.759,7.993277,-3.690351,-3.690351,-11.683628,-3.652606,nan,0.627495,-0.058571,-0.214859,0.034413,0.222422,-0.019624,0.014324,0.093980,0.732800,66.000000,-16.000000,82.000000,50.000000,684.84470261,0.000000,0.00000000,21.59618036,0.000000,346.49840554,311.85233533,2.66597164,0.00000000,2.08576337,0.13753626,0.00468291,0.00382720,7.78654349,0.00179030,0.00323884,0.00430745,0.00148739,3.34405342,3.95490931,0.47675678,0.00014919,0.00161942,0.00172298,0.00297478,9.53513558,1.97745465,4.18006677
10.200,2,1,1,-528.601,193.034,46.700,7.673239,-3.724677,-3.724677,-11.397917,-3.366127,nan,0.642194,-0.072682,-0.587282,0.045575,0.221427,-0.034932,-0.988352,0.041828,0.729135,66.000000,-16.000000,82.000000,50.000000,681.60211322,0.000000,0.00000000,20.84302188,0.000000,345.35147600,310.65890919,2.54876358,0.00000000,2.05415137,0.13735250,0.00474745,0.00369126,7.79830872,0.00179223,0.00323891,0.00433371,0.00150227,3.34721927,3.95885359,0.48136873,0.00014935,0.00161946,0.00173349,0.00300454,9.62737451,1.97942679,4.18402409
10.407,2,1,1,-528.601,193.034,46.700,7.673239,-3.724677,-3.724677,-11.397917,-3.366127,nan,0.642194,-0.072682,-0.587282,0.045575,0.219415,-0.034932,-0.988352,0.041828,0.721722,66.000000,-16.000000,82.000000,50.000000,681.60211322,0.000000,0.00000000,20.84302188,0.000000,345.35147600,310.65890919,2.54876358,0.00000000,2.05415137,0.13735250,0.00474745,0.00369126,7.82265842,0.00179623,0.00323907,0.00438807,0.00153306,3.35377142,3.96701680,0.49091376,0.00014969,0.00161953,0.00175523,0.00306612,9.81827520,1.98350840,4.19221428
10.500,2,1,1,-528.415,193.103,46.519,6.782351,-3.824655,-3.824655,-10.607006,-3.337479,nan,0.566351,-0.112442,-1.303479,0.076573,0.218682,-0.032523,-0.730521,0.029014,0.718460,66.000000,-14.000000,80.000000,52.000000,674.28320086,0.000000,0.00000000,18.83353809,0.000000,342.87138152,308.21118243,2.19543116,0.00000000,2.02696377,0.13756373,0.00409794,0.00304222,7.83276176,0.00180053,0.00323913,0.00450852,0.00154063,3.35632371,3.97019806,0.49515118,0.00015004,0.00161956,0.00180341,0.00308126,9.90302359,1.98509903,4.19540464
10.600,2,1,1,-528.353,193.125,46.458,6.482758,-3.856932,-3.856932,-10.339690,-3.179916,nan,0.613174,-0.123555,0.000000,0.092799,0.217965,-0.015835,0.214859,0.030436,0.715000,66.000000,-14.000000,80.000000,52.000000,670.84208390,0.000000,0.00000000,18.10932819,0.000000,341.59338455,306.87095911,2.08826908,0.00000000,2.03577787,0.13724362,0.00416990,0.00295156,7.84317187,0.00180611,0.00323914,0.00450852,0.00154133,3.35892869,3.97344546,0.49970260,0.00015051,0.00161957,0.00180341,0.00308266,9.99405209,1.98672273,4.19866087
10.700,2,1,1,-528.290,193.147,46.397,6.155286,-3.888687,-3.888687,-10.043973,-2.076972,nan,0.638075,-0.135355,-0.100268,0.109471,0.217327,0.012042,-0.658901,0.029614,0.711591,66.000000,-14.000000,80.000000,52.000000,667.62217350,0.000000,0.00000000,17.43001665,0.000000,340.37710061,305.60367860,2.02445250,0.00000000,2.04313760,0.13697507,0.00414505,0.00266742,7.85325204,0.00181280,0.00323915,0.00450929,0.00154794,3.36138480,3.97650774,0.50425032,0.00015107,0.00161958,0.00180372,0.00309587,10.08500645,1.98825387,4.20173100
10.800,2,1,1,-528.227,193.168,46.335,5.903357,-3.919908,-3.919908,-9.823264,-3.337479,nan,0.655214,-0.144320,-0.773493,0.121728,0.216753,0.040358,0.601606,0.028475,0.708234,66.000000,-14.000000,80.000000,52.000000,664.35884292,0.000000,0.00000000,16.72898672,0.000000,339.18048959,304.36274566,1.88463970,0.00000000,2.05789797,0.13680116,0.00440082,0.00288129,7.86315780,0.00182042,0.00323925,0.00455490,0.00155346,3.36373901,3.97944330,0.50880745,0.00015170,0.00161963,0.00182196,0.00310691,10.17614904,1.98972165,4.20467376
11.006,2,1,1,-528.227,193.168,46.335,5.903357,-3.919908,-3.919908,-9.823264,-3.337479,nan,0.655214,-0.144320,-0.773493,0.121728,0.215602,0.040358,0.601606,0.028475,0.701485,66.000000,-14.000000,80.000000,52.000000,664.35884292,0.000000,0.00000000,16.72898672,0.000000,339.18048959,304.36274566,1.88463970,0.00000000,2.05789797,0.13680116,0.00440082,0.00288129,7.88350299,0.00183608,0.00323946,0.00464859,0.00156479,3.36857427,3.98547258,0.51816723,0.00015301,0.00161973,0.00185943,0.00312958,10.36334453,1.99273629,4.21071783
11.100,2,1,1,-528.035,193.227,46.148,5.073580,-4.010412,-4.010412,-9.083992,-2.521014,nan,0.797509,-0.166894,0.501338,0.143507,0.215227,0.173746,0.544310,0.085426,0.698628,66.000000,-14.000000,80.000000,52.000000,655.91108253,0.000000,0.00000000,16.56289103,0.000000,335.14421556,300.21428119,1.64632608,0.00000000,2.20054465,0.13549292,0.00476129,0.00256980,7.89209893,0.00184569,0.00324119,0.00466665,0.00156905,3.37047235,3.98784022,0.52246377,0.00015381,0.00162060,0.00186666,0.00313810,10.44927544,1.99392011,4.21309044
11.200,2,1,1,-527.971,193.246,46.085,4.805523,-4.039522,-4.039522,-8.845045,-2.692902,nan,0.742060,-0.171009,0.272155,0.153995,0.214866,0.228655,0.171887,0.128514,0.695788,66.000000,-14.000000,80.000000,52.000000,652.99322396,0.000000,0.00000000,15.57083676,0.000000,334.20507274,299.25821231,1.57991336,0.00000000,2.23618182,0.13563638,0.00480533,0.00256525,7.90095353,0.00185638,0.00324438,0.00467229,0.00156950,3.37237838,3.99021803,0.52701457,0.00015470,0.00162219,0.00186892,0.00313900,10.54029141,1.99510902,4.21547298
11.300,2,1,1,-527.906,193.265,46.022,4.540341,-4.068130,-4.068130,-8.608472,-2.707226,nan,0.709360,-0.174243,-0.286479,0.162786,0.214534,0.287483,0.587282,0.178155,0.693180,66.000000,-14.000000,80.000000,52.000000,650.16711014,0.000000,0.00000000,14.67851561,0.000000,333.25456632,298.29447345,1.52119407,0.00000000,2.27524103,0.13575665,0.00483318,0.00252983,7.90960386,0.00186749,0.00324942,0.00467855,0.00157476,3.37418673,3.99247422,0.53157270,0.00015562,0.00162471,0.00187142,0.00314952,10.63145396,1.99623711,4.21773341
11.400,2,1,1,-527.841,193.283,45.959,4.278595,-4.096212,-4.096212,-8.374807,-2.248859,nan,0.693357,-0.175707,0.529986,0.169354,0.214219,0.349378,-0.544310,0.232911,0.690868,66.000000,-14.000000,80.000000,52.000000,647.37331235,0.000000,0.00000000,13.89448556,0.000000,332.26921449,297.29605770,1.45232699,0.00000000,2.31821776,0.13581106,0.00480459,0.00239419,7.91804296,0.00187878,0.00325686,0.00469994,0.00157927,3.37589605,3.99460706,0.53612500,0.00015656,0.00162843,0.00187998,0.00315855,10.72250006,1.99730353,4.21987006
11.606,2,1,1,-527.841,193.283,45.959,4.278595,-4.096212,-4.096212,-8.374807,-2.248859,nan,0.693357,-0.175707,0.529986,0.169354,0.213585,0.349378,-0.544310,0.232911,0.686212,66.000000,-14.000000,80.000000,52.000000,647.37331235,0.000000,0.00000000,13.89448556,0.000000,332.26921449,297.29605770,1.45232699,0.00000000,2.31821776,0.13581106,0.00480459,0.00239419,7.93541420,0.00190201,0.00327216,0.00474398,0.00158856,3.37941455,3.99899737,0.54549557,0.00015850,0.00163608,0.00189759,0.00317712,10.90991136,1.99949868,4.22426819
11.700,2,1,1,-527.646,193.334,45.767,3.507786,-4.177340,-4.177340,-7.685126,-1.976704,nan,0.727068,-0.168326,-0.773493,0.172551,0.213254,0.544659,0.157563,0.376352,0.685174,66.000000,-14.000000,80.000000,52.000000,639.84673877,0.000000,0.00000000,12.87806274,0.000000,329.02160897,294.03114193,1.30149599,0.00000000,2.47162865,0.13557687,0.00498742,0.00223620,7.94280236,0.00191174,0.00328915,0.00478679,0.00158892,3.38076708,4.00068550,0.54977319,0.00015931,0.00164457,0.00191472,0.00317783,10.99546372,2.00034275,4.22595885
11.800,2,1,1,-527.612,193.342,45.734,3.275207,-4.190931,-4.190931,-7.466138,-2.220211,nan,0.710145,-0.162847,-0.902409,0.171602,0.212870,0.604810,0.200535,0.446096,0.684520,66.000000,-14.000000,80.000000,52.000000,638.48914931,0.000000,0.00000000,12.45155521,0.000000,328.54332935,293.55181771,1.28675979,0.00000000,2.51269309,0.13567491,0.00505837,0.00226086,7.95051715,0.00192145,0.00331147,0.00484892,0.00158953,3.38212800,4.00238424,0.55433353,0.00016012,0.00165574,0.00193957,0.00317906,11.08667066,2.00119212,4.22766000
11.900,2,1,1,-527.546,193.358,45.670,3.024010,-4.216694,-4.216694,-7.240704,-2.807493,nan,0.716970,-0.155438,-0.658901,0.168471,0.212446,0.668944,-0.243507,0.522812,0.684389,66.000000,-14.000000,80.000000,52.000000,635.77516938,0.000000,0.00000000,11.82300607,0.000000,327.46780790,292.45709306,1.32195578,0.00000000,2.56205168,0.13566461,0.00522110,0.00236919,7.95799755,0.00193027,0.00333868,0.00488192,0.00159043,3.38340321,4.00397613,0.55887690,0.00016086,0.00166934,0.00195277,0.00318086,11.17753808,2.00198807,4.22925401
12.000,2,1,1,-527.481,193.373,45.606,2.804330,-4.241937,-4.241937,-7.046267,-2.306155,nan,0.700519,-0.147272,0.257831,0.163744,0.211978,0.723660,0.787817,0.589811,0.684731,66.000000,-14.000000,80.000000,52.000000,633.14085867,0.000000,0.00000000,11.12852743,0.000000,326.51413894,291.50217889,1.25490058,0.00000000,2.59796614,0.13574977,0.00516551,0.00223143,7.96532197,0.00193819,0.00337058,0.00488698,0.00159988,3.38461275,4.00548616,0.56342742,0.00016152,0.00168529,0.00195479,0.00319976,11.26854847,2.00274308,4.23076594
12.100,2,1,1,-527.415,193.388,45.541,2.556061,-4.266669,-4.266669,-6.822730,-3.480719,nan,0.697769,-0.136450,-1.117268,0.156817,0.211455,0.783170,-0.057296,0.652892,0.685618,66.000000,-14.000000,80.000000,52.000000,630.77923590,0.000000,0.00000000,10.59758306,0.000000,325.50391332,290.48711756,1.40591852,0.00000000,2.64094622,0.13584760,0.00541546,0.00249416,7.97257090,0.00194500,0.00340798,0.00498214,0.00159993,3.38574823,4.00690383,0.56798379,0.00016208,0.00170399,0.00199285,0.00319986,11.35967578,2.00345191,4.23218528
12.296,2,1,1,-527.415,193.388,45.541,2.556061,-4.266669,-4.266669,-6.822730,-3.480719,nan,0.697769,-0.136450,-1.117268,0.156817,0.210452,0.783170,-0.057296,0.652892,0.687311,66.000000,-14.000000,80.000000,52.000000,630.77923590,0.000000,0.00000000,10.59758306,0.000000,325.50391332,290.48711756,1.40591852,0.00000000,2.64094622,0.13584760,0.00541546,0.00249416,7.98677928,0.00195836,0.00348130,0.00516864,0.00160003,3.38797383,4.00968255,0.57691457,0.00016320,0.00174065,0.00206746,0.00320006,11.53829143,2.00484127,4.23496729
12.314,2,1,1,-527.384,193.395,45.510,2.259565,-4.278362,-4.278362,-6.537927,-2.649930,nan,0.555284,-0.120809,-0.458366,0.155770,0.210350,0.849842,-0.214859,0.660792,0.687572,66.000000,-14.000000,80.000000,52.000000,630.50374835,0.000000,0.00000000,9.62331838,0.000000,325.85886277,290.94610384,1.28835711,0.00000000,2.64285653,0.13689362,0.00509300,0.00226309,7.98799329,0.00195929,0.00348897,0.00517143,0.00160015,3.38815552,4.00990941,0.57770852,0.00016327,0.00174449,0.00206857,0.00320031,11.55417043,2.00495470,4.23519440
12.400,2,1,1,-527.218,193.430,45.348,1.818294,-4.337893,-4.337893,-6.156187,-2.735873,nan,0.663527,-0.094008,-0.329451,0.134383,0.209754,0.937804,0.401070,0.788832,0.689661,66.000000,-2.000000,68.000000,64.000000,624.49078306,0.000000,0.00000000,9.82798697,0.000000,322.78802609,287.85265702,1.14480889,0.00000000,2.73770456,0.13480833,0.00419242,0.00059878,7.99360458,0.00196207,0.00353519,0.00517857,0.00160227,3.38895226,4.01090438,0.58146983,0.00016351,0.00176760,0.00207143,0.00320453,11.62939664,2.00545219,4.23619033
12.500,2,1,1,-527.153,193.443,45.284,1.580611,-4.360656,-4.360656,-5.941266,-2.563986,nan,0.670856,-0.078047,0.157563,0.118981,0.209019,0.979383,0.472690,0.856213,0.692504,66.000000,-2.000000,68.000000,64.000000,621.70761507,0.000000,0.00000000,9.21160087,0.000000,321.73296323,286.78442605,1.07075174,0.00000000,2.76949970,0.13477263,0.00304247,0.00055838,7.99996325,0.00196430,0.00359361,0.00518046,0.00160567,3.38981223,4.01197838,0.58582861,0.00016369,0.00179681,0.00207218,0.00321134,11.71657218,2.00598919,4.23726529
12.600,2,1,1,-527.087,193.456,45.219,1.361649,-4.382709,-4.382709,-5.744357,-2.492366,nan,0.675470,-0.059867,0.472690,0.101387,0.208243,1.015174,-0.186211,0.917410,0.695705,66.000000,-2.000000,68.000000,64.000000,618.95843005,0.000000,0.00000000,8.63313386,0.000000,320.67999495,285.72053075,0.98927269,0.00000000,2.79719549,0.13473342,0.00304420,0.00052468,8.00621351,0.00196561,0.00365640,0.00519747,0.00160620,3.39061638,4.01298273,0.59018872,0.00016380,0.00182820,0.00207899,0.00321239,11.80377446,2.00649136,4.23827048
12.700,2,1,1,-527.021,193.467,45.155,1.160062,-4.404039,-4.404039,-5.564101,-2.334803,nan,0.673113,-0.039700,-0.315127,0.082708,0.207439,1.044811,0.558634,0.968482,0.699190,66.000000,-2.000000,68.000000,64.000000,616.34109476,0.000000,0.00000000,8.07889529,0.000000,319.66760215,284.70444042,0.93354434,0.00000000,2.81834109,0.13474154,0.00303752,0.00049241,8.01234936,0.00196619,0.00372290,0.00520503,0.00161095,3.39137080,4.01392501,0.59454848,0.00016385,0.00186145,0.00208201,0.00322190,11.89096967,2.00696250,4.23921350
12.800,2,1,1,-526.956,193.479,45.090,0.973626,-4.424722,-4.424722,-5.398348,-1.704549,nan,0.667887,-0.018775,-0.744845,0.066409,0.206621,1.067998,-0.959704,1.004671,0.702880,66.000000,-2.000000,68.000000,64.000000,613.94170506,0.000000,0.00000000,7.59551920,0.000000,318.68199895,283.72095239,0.97128210,0.00000000,2.83367899,0.13478388,0.00303448,0.00045508,8.01843351,0.00196632,0.00379241,0.00524729,0.00162498,3.39208109,4.01481222,0.59890920,0.00016386,0.00189620,0.00209892,0.00324996,11.97818408,2.00740611,4.24010137
13.000,2,1,1,-526.956,193.479,45.090,0.973626,-4.424722,-4.424722,-5.398348,-1.704549,nan,0.667887,-0.018775,-0.744845,0.066409,0.205016,1.067998,-0.959704,1.004671,0.710022,66.000000,-2.000000,68.000000,64.000000,613.94170506,0.000000,0.00000000,7.59551920,0.000000,318.68199895,283.72095239,0.97128210,0.00000000,2.83367899,0.13478388,0.00303448,0.00045508,8.03058453,0.00196657,0.00393121,0.00533168,0.00165300,3.39349967,4.01658412,0.60761827,0.00016388,0.00196561,0.00213267,0.00330600,12.15236540,2.00829206,4.24187458
13.017,2,1,1,-526.925,193.484,45.059,0.747968,-4.434431,-4.434431,-5.182399,0.128916,nan,0.532794,0.007710,-0.759169,0.064726,0.204878,1.088408,-0.214859,1.008412,0.710667,66.000000,-14.000000,80.000000,52.000000,613.83428191,0.000000,0.00000000,6.78649083,0.000000,319.01063112,284.16209218,0.92943303,0.00000000,2.80088059,0.13713043,0.00607524,0.00154850,8.03164558,0.00196658,0.00394368,0.00533927,0.00165312,3.39361275,4.01672538,0.60840479,0.00016388,0.00197184,0.00213571,0.00330625,12.16809584,2.00836269,4.24201594
13.100,2,1,1,-526.760,193.510,44.897,0.484726,-4.483250,-4.483250,-4.967976,-1.948057,nan,0.629178,0.042620,-0.000000,0.040978,0.204247,1.097354,0.200535,1.059237,0.713824,66.000000,-2.000000,68.000000,64.000000,607.71605808,0.000000,0.00000000,6.79857492,0.000000,316.03462281,281.16871685,0.73895880,0.00000000,2.83553926,0.13518375,0.00406598,0.00039570,8.03644785,0.00196713,0.00400456,0.00533927,0.00165363,3.39411183,4.01734883,0.61202261,0.00016393,0.00200228,0.00213571,0.00330726,12.24045213,2.00867442,4.24263978
13.200,2,1,1,-526.695,193.519,44.833,0.328258,-4.501790,-4.501790,-4.830049,-1.632930,nan,0.640492,0.063495,-0.186211,0.038287,0.203535,1.093725,-0.816465,1.077972,0.717516,66.000000,-2.000000,68.000000,64.000000,605.10157277,0.000000,0.00000000,6.32483809,0.000000,314.97301796,280.09691241,0.73227322,0.00000000,2.83611422,0.13511551,0.00293093,0.00037044,8.04217527,0.00196860,0.00407746,0.00534191,0.00166379,3.39468050,4.01805925,0.61638376,0.00016405,0.00203873,0.00213676,0.00332757,12.32767530,2.00902963,4.24335062
