t,controller_id,state_code,wp_idx,x,y,dist,yaw_deg,yaw_to_wp_deg,yaw_ref_deg,yaw_err_deg,yaw_rate_deg_s,speed_ref,speed_meas,roll_deg,roll_rate_deg_s,roll_rms_window_deg,roll_rms_total_deg,pitch_deg,pitch_rate_deg_s,pitch_rms_window_deg,pitch_rms_total_deg,base_cmd,diff_cmd,T_left,T_right,J_inst,J_goal,J_wave_roll,J_progress,J_smooth,J_mpc_distance,J_mpc_final,J_mpc_heading,J_mpc_wrong_way,J_mpc_pitch,J_mpc_control,J_mpc_slew,J_mpc_turn,J_total,J_roll,J_pitch,J_roll_rate,J_pitch_rate,J_goal_heading,J_no_progress,J_control,I_roll,I_pitch,I_roll_rate,I_pitch_rate,I_control,I_no_progress,I_goal_heading
0.200,2,1,1,-532.017,189.988,50.017,54.562625,0.013967,0.013967,-54.548658,-0.630254,nan,0.000000,-1.359787,-3.251535,1.156055,0.000000,-0.739685,-2.707226,0.566108,0.000000,2.500000,-9.500000,12.000000,-7.000000,1024.48575412,0.000000,0.00000000,56.49345898,0.000000,420.59863346,388.32464526,156.99337894,0.00000301,1.86339152,0.14149485,0.02654347,0.04420463,0.00000000,0.00000000,0.00000000,0.00000000,0.00000000,0.00000000,0.00000000,0.00000000,0.00000000,0.00000000,0.00000000,0.00000000,0.00000000,0.00000000,0.00000000
0.531,2,1,1,-532.017,189.988,50.017,54.562625,0.013967,0.013967,-54.548658,-0.630254,nan,0.000000,-1.359787,-3.251535,1.156055,1.359787,-0.739685,-2.707226,0.566108,0.739685,2.500000,-21.500000,24.000000,-19.000000,982.12127901,0.000000,0.00000000,45.68080145,0.000000,420.21957576,387.84649868,126.29972338,0.00000072,1.86484413,0.14143024,0.02426077,0.04414387,0.52445708,0.00223497,0.00011022,0.00266235,0.00036912,0.23977655,0.27775468,0.00154919,0.00018625,0.00005511,0.00106494,0.00073824,0.03098371,0.13887734,0.29972069
0.600,2,1,1,-532.057,189.956,50.057,54.377093,0.049830,0.049830,-54.327263,0.300803,nan,0.004614,-2.057536,-1.174563,1.567174,1.504017,-1.290658,-1.475366,0.920503,0.860764,8.000000,-28.000000,36.000000,-20.000000,970.36655709,0.000000,0.00000000,45.40965523,0.000000,419.81786984,387.16810724,115.57765180,0.00000321,2.18975558,0.14153699,0.01790939,0.04406782,0.63387371,0.00330711,0.00018053,0.00273514,0.00039209,0.28960770,0.33551444,0.00213670,0.00027559,0.00009027,0.00109406,0.00078418,0.04273394,0.16775722,0.36200963
0.700,2,1,1,-532.066,189.949,50.066,54.330808,0.058231,0.058231,-54.272577,-1.045648,nan,0.057878,-2.156033,-1.346451,1.707362,1.655028,-1.344287,-1.375099,1.026144,0.976755,14.000000,-34.000000,48.000000,-20.000000,980.25831851,0.000000,0.00035330,68.17315193,0.000000,419.45358338,387.19635714,102.97389333,0.00000086,2.25970014,0.14239990,0.01407540,0.04480312,0.79208087,0.00500508,0.00029055,0.00287310,0.00042087,0.36133574,0.41866782,0.00348771,0.00041709,0.00014527,0.00114924,0.00084174,0.06975423,0.20933391,0.45166967
0.800,2,1,1,-532.073,189.942,50.074,54.284512,0.066407,0.066407,-54.218105,-0.171887,nan,0.081567,-2.220615,-1.131592,1.925969,1.761964,-1.361556,-1.661578,1.182463,1.050733,20.000000,-40.000000,60.000000,-20.000000,978.42172380,0.000000,0.00094585,74.68808168,0.000000,418.81339670,386.68701246,95.71496145,0.00000000,2.31330508,0.14518354,0.01276419,0.04607284,0.95082607,0.00680754,0.00040349,0.00297062,0.00046292,0.43296941,0.50172446,0.00548764,0.00056730,0.00020174,0.00118825,0.00092583,0.10975274,0.25086223,0.54121176
0.900,2,1,1,-532.080,189.935,50.080,54.238155,0.074341,0.074341,-54.163814,-0.773493,nan,0.093030,-2.250208,-0.916732,2.114698,1.839654,-1.341089,-0.272155,1.307835,1.096922,26.000000,-46.000000,72.000000,-20.000000,968.22036070,0.000000,0.00122430,75.04842943,0.000000,417.94525660,385.78690811,86.87892936,0.00000000,2.34866986,0.14901411,0.01374248,0.04818645,1.10998611,0.00865778,0.00051302,0.00303459,0.00046404,0.50443697,0.58460106,0.00827865,0.00072148,0.00025651,0.00121384,0.00092809,0.16557291,0.29230053,0.63054621
1.131,2,1,1,-532.080,189.935,50.080,54.238155,0.074341,0.074341,-54.163814,-0.773493,nan,0.093030,-2.250208,-0.916732,2.114698,1.949764,-1.341089,-0.272155,1.307835,1.162396,32.000000,-52.000000,84.000000,-20.000000,952.44596756,0.000000,0.00114272,68.59235577,0.000000,416.69921576,384.21848965,80.31936220,0.00000000,2.39422139,0.15400659,0.01627889,0.05089459,1.48060202,0.01294101,0.00076659,0.00318270,0.00046665,0.66988184,0.77645746,0.01690577,0.00107842,0.00038329,0.00127308,0.00093331,0.33811539,0.38822873,0.83735230
1.200,2,1,1,-532.097,189.915,50.097,54.100108,0.096801,0.096801,-54.003307,-0.200535,nan,0.073877,-2.146278,0.701873,2.183298,1.963887,-1.099949,0.401070,1.292692,1.158216,38.000000,-58.000000,96.000000,-20.000000,937.20493219,0.000000,0.00044530,60.67561802,0.000000,415.94950683,383.13611532,74.81463128,0.00000000,2.39614817,0.15984005,0.01668893,0.05593829,1.59054751,0.01409717,0.00081720,0.00320846,0.00046834,0.71867921,0.83307014,0.02020700,0.00117476,0.00040860,0.00128338,0.00093667,0.40413994,0.41653507,0.89834902
1.300,2,1,1,-532.100,189.911,50.100,53.974354,0.102308,0.102308,-53.872046,-2.005352,nan,0.066306,-2.044536,1.045648,2.180585,1.971353,-0.981147,1.274831,1.233904,1.143257,40.000000,-60.000000,100.000000,-20.000000,930.03571502,0.000000,0.00040990,57.74760896,0.000000,415.65862494,382.74876073,71.26878328,0.00000000,2.37186971,0.16249786,0.01721653,0.05994312,1.75018485,0.01562457,0.00087582,0.00329169,0.00049308,0.78937565,0.91511913,0.02540491,0.00130205,0.00043791,0.00131668,0.00098616,0.50809824,0.45755956,0.98671956
1.400,2,1,1,-532.102,189.908,50.103,53.764080,0.105152,0.105152,-53.658927,-2.506690,nan,0.050431,-1.901075,0.945380,2.133291,1.965594,-0.850883,0.730521,1.139568,1.121812,40.000000,-60.000000,100.000000,-20.000000,924.59306886,0.000000,0.00014512,53.93014631,0.000000,415.51845573,382.45351614,70.13419069,0.00000000,2.31650473,0.16254883,0.01736039,0.06020090,1.90840876,0.01694511,0.00091991,0.00335972,0.00050121,0.85951287,0.99656719,0.03060276,0.00141209,0.00045996,0.00134389,0.00100241,0.61205511,0.49828359,1.07439109
1.500,2,1,1,-532.103,189.908,50.103,53.476708,0.104972,0.104972,-53.371736,-3.337479,nan,0.032506,-1.726228,2.306155,2.040448,1.948228,-0.690775,1.704549,1.010322,1.094701,40.000000,-60.000000,100.000000,-20.000000,916.49908800,0.000000,0.00000000,48.26587596,0.000000,415.25539083,381.95910770,68.53673246,0.00000000,2.24095093,0.16262829,0.01769118,0.06071066,2.06522949,0.01803410,0.00094897,0.00376464,0.00054545,0.92891243,1.07722247,0.03580143,0.00150284,0.00047449,0.00150585,0.00109089,0.71602862,0.53861124,1.16114054
1.600,2,1,1,-532.102,189.911,50.102,53.121337,0.101558,0.101558,-53.019779,-3.953409,nan,0.032400,-1.532333,1.819141,1.913259,1.921489,-0.489441,1.604282,0.876496,1.062936,40.500000,-59.500000,100.000000,-19.000000,909.36431565,0.000000,0.00000000,43.57488505,0.000000,414.86701084,381.35390203,67.16110336,0.00000000,2.16758714,0.16217714,0.01738154,0.06026855,2.21987167,0.01889296,0.00096358,0.00401682,0.00058467,0.99746180,1.15696654,0.04098531,0.00157441,0.00048179,0.00160673,0.00116934,0.81970613,0.57848327,1.24682725
1.813,2,1,1,-532.102,189.911,50.102,53.121337,0.101558,0.101558,-53.019779,-3.953409,nan,0.032400,-1.532333,1.819141,1.913259,1.874683,-0.489441,1.604282,0.876496,1.006051,40.500000,-59.500000,100.000000,-19.000000,909.36431165,0.000000,0.00000000,43.57488505,0.000000,414.86701084,381.35390203,67.16110336,0.00000000,2.16758714,0.16217714,0.01737754,0.06026855,2.54943200,0.02072331,0.00099470,0.00455424,0.00066827,1.14354840,1.32691034,0.05203274,0.00172694,0.00049735,0.00182170,0.00133653,1.04065486,0.66345517,1.42943550
1.900,2,1,1,-532.089,189.935,50.089,51.833620,0.074123,0.074123,-51.759497,-4.526367,nan,0.048749,-0.901053,1.632930,1.562611,1.837529,0.227190,2.134268,0.596627,0.981387,40.500000,-59.500000,100.000000,-19.000000,898.94050510,0.000000,0.00000000,38.80106406,0.000000,414.26124101,380.57302407,63.05726357,0.00000000,2.00808418,0.16207016,0.01796569,0.05979236,2.67717196,0.02098077,0.00099743,0.00473040,0.00072845,1.20018611,1.39302186,0.05652694,0.00174840,0.00049871,0.00189216,0.00145691,1.13053889,0.69651093,1.50023263
2.000,2,1,1,-532.081,189.947,50.081,51.289439,0.060573,0.060573,-51.228865,-6.059029,nan,0.088960,-0.645356,2.406423,1.317648,1.792215,0.490814,1.403747,0.463595,0.960723,43.500000,-56.500000,100.000000,-13.000000,892.29438816,0.000000,0.00000000,36.20191851,0.000000,413.25249356,379.31687207,61.32269420,0.00000000,1.96914897,0.15947564,0.01528482,0.05650039,2.82162478,0.02113303,0.00101211,0.00517146,0.00075847,1.26414888,1.46778878,0.06161207,0.00176109,0.00050605,0.00206858,0.00151694,1.23224132,0.73389439,1.58018610
2.100,2,1,1,-532.073,189.961,50.073,50.711043,0.045124,0.045124,-50.665919,-5.529043,nan,0.120110,-0.388719,3.022352,1.047316,1.746698,0.742596,2.578310,0.431031,0.950493,43.500000,-56.500000,100.000000,-13.000000,888.77616259,0.000000,0.00000000,34.92670066,0.000000,412.71305255,378.67824045,60.09804721,0.00000000,2.13047646,0.15897606,0.01509270,0.05557650,2.96335841,0.02118826,0.00104570,0.00586697,0.00085970,1.32669473,1.54100740,0.06669565,0.00176569,0.00052285,0.00234679,0.00171940,1.33391305,0.77050370,1.65836841
2.200,2,1,1,-532.063,189.976,50.063,50.105833,0.027762,0.027762,-50.078072,-5.743902,nan,0.147736,-0.136436,2.306155,0.764906,1.702697,0.982313,2.248859,0.547742,0.952111,43.500000,-56.500000,100.000000,-13.000000,885.17695178,0.000000,0.00000000,34.06672257,0.000000,412.18452672,378.08342540,58.32711465,0.00000000,2.28599685,0.15857812,0.01525922,0.05532825,3.10189727,0.02119507,0.00110454,0.00627240,0.00093681,1.38787109,1.61273201,0.07178535,0.00176626,0.00055227,0.00250896,0.00187362,1.43570700,0.80636600,1.73483887
2.411,2,1,1,-532.063,189.976,50.063,50.105833,0.027762,0.027762,-50.078072,-5.743902,nan,0.147736,-0.136436,2.306155,0.764906,1.620136,0.982313,2.248859,0.547742,0.955028,43.500000,-56.500000,100.000000,-13.000000,885.17695178,0.000000,0.00000000,34.06672257,0.000000,412.18452672,378.08342540,58.32711465,0.00000000,2.28599685,0.15857812,0.01525922,0.05532825,3.39325501,0.02120939,0.00122831,0.00712505,0.00109897,1.51652963,1.76357430,0.08248937,0.00176745,0.00061415,0.00285002,0.00219794,1.64978741,0.88178715,1.89566203
2.500,2,1,1,-532.027,190.031,50.027,48.161154,-0.035269,-0.035269,-48.196423,-6.631986,nan,0.151627,0.587337,1.618606,0.483911,1.592561,1.679413,0.487014,1.068923,0.993092,47.750000,-52.250000,100.000000,-4.500000,875.56220634,0.000000,0.00000000,31.70684756,0.000000,410.70411740,376.39567708,53.79885083,0.00000000,2.73943653,0.15585201,0.01248545,0.04893948,3.50836215,0.02132208,0.00138186,0.00730335,0.00110220,1.56711801,1.82316787,0.08696676,0.00177684,0.00069093,0.00292134,0.00220440,1.73933524,0.91158394,1.95889752
2.600,2,1,1,-532.013,190.052,50.013,47.480626,-0.059729,-0.059729,-47.540355,-6.288212,nan,0.200095,0.802483,2.019676,0.484305,1.567606,1.903361,1.160240,1.351422,1.046953,47.750000,-52.250000,100.000000,-4.500000,873.98719135,0.000000,0.00000000,32.75861731,0.000000,410.07512475,375.77270486,52.26803211,0.00000000,2.89710375,0.15523030,0.01221157,0.04816670,3.63424203,0.02155752,0.00160261,0.00761404,0.00112270,1.62220356,1.88816392,0.09197767,0.00179646,0.00080131,0.00304562,0.00224541,1.83955345,0.94408196,2.02775446
2.700,2,1,1,-531.998,190.075,49.998,46.792657,-0.085717,-0.085717,-46.878374,-7.233592,nan,0.233725,0.999506,2.205888,0.612195,1.548890,2.108329,2.062648,1.621477,1.109078,47.750000,-52.250000,100.000000,-4.500000,871.55748707,0.000000,0.00000000,33.63790554,0.000000,409.48448795,375.21128678,49.96540392,0.00000000,3.04251311,0.15483256,0.01253370,0.04852352,3.75714582,0.02192264,0.00187337,0.00798454,0.00118749,1.67574791,1.95144295,0.09698692,0.00182689,0.00093669,0.00319382,0.00237499,1.93973838,0.97572148,2.09468489
2.800,2,1,1,-531.982,190.099,49.982,46.098229,-0.112988,-0.112988,-46.211217,-6.904141,nan,0.259388,1.178741,2.005352,0.795850,1.536300,2.285832,0.544310,1.868844,1.176328,49.875000,-50.125000,100.000000,-0.250000,870.43217397,0.000000,0.00000000,35.00873963,0.000000,408.65475815,374.34356253,49.02911463,0.00000000,3.18659114,0.15324108,0.01113254,0.04503426,3.87695040,0.02243065,0.00219177,0.00829086,0.00119201,1.72780020,2.01305681,0.10198811,0.00186922,0.00109589,0.00331634,0.00238401,2.03976210,1.00652840,2.15975025
2.900,2,1,1,-531.966,190.123,49.966,45.399108,-0.141450,-0.141450,-45.540557,-7.606015,nan,0.276858,1.335554,1.188887,0.979932,1.529336,2.430292,0.515662,2.065148,1.245487,50.500000,-49.500000,100.000000,1.000000,868.64231646,0.000000,0.00000000,36.21411583,0.000000,408.07521340,373.80539549,47.04174500,0.00000000,3.29790435,0.15264904,0.01092407,0.04436927,3.99351911,0.02308258,0.00255156,0.00839849,0.00119606,1.77833433,2.07296815,0.10698795,0.00192355,0.00127578,0.00335939,0.00239211,2.13975906,1.03648408,2.22291791
3.142,2,1,1,-531.966,190.123,49.966,45.399108,-0.141450,-0.141450,-45.540557,-7.606015,nan,0.276858,1.335554,1.188887,0.979932,1.514358,2.430292,0.515662,2.065148,1.381614,50.500000,-49.500000,100.000000,1.000000,868.64231021,0.000000,0.00000000,36.21411583,0.000000,408.07521340,373.80539549,47.04174500,0.00000000,3.29790435,0.15264904,0.01091782,0.04436927,4.27510914,0.02465742,0.00342068,0.00865847,0.00120584,1.90040744,2.21769341,0.11906587,0.00205479,0.00171034,0.00346339,0.00241168,2.38131741,1.10884671,2.37550930
3.200,2,1,1,-531.914,190.204,49.914,43.294270,-0.233644,-0.233644,-43.527914,-6.216592,nan,0.275155,1.671531,1.332127,1.281006,1.517576,2.670375,-0.816465,2.342656,1.417960,51.250000,-48.750000,100.000000,2.500000,863.10487149,0.000000,0.00000000,36.53625194,0.000000,407.00260721,372.79431612,43.10687879,0.00000000,3.46107655,0.15213221,0.01066421,0.04094448,4.33810434,0.02525443,0.00367463,0.00873747,0.00121177,1.92739700,2.24983864,0.12199040,0.00210454,0.00183731,0.00349499,0.00242355,2.43980808,1.12491932,2.40924625
3.300,2,1,1,-531.896,190.232,49.896,42.591278,-0.266651,-0.266651,-42.857929,-6.402803,nan,0.302788,1.732484,-0.458366,1.452869,1.524983,2.696169,-1.819141,2.490617,1.476575,51.625000,-48.375000,100.000000,3.250000,863.69883042,0.000000,0.00000000,39.51314327,0.000000,406.51882855,372.45454564,41.51116533,0.00000000,3.49872813,0.15161104,0.01059808,0.04021038,4.44288168,0.02635173,0.00411755,0.00875347,0.00126218,1.97216403,2.30323643,0.12699628,0.00219598,0.00205878,0.00350139,0.00252437,2.53992553,1.15161822,2.46520504
3.400,2,1,1,-531.877,190.262,49.878,41.888670,-0.300719,-0.300719,-42.189389,-7.405480,nan,0.323751,1.766470,-0.085944,1.591442,1.533105,2.693920,-1.575634,2.598301,1.529354,51.812500,-48.187500,100.000000,3.625000,863.78692744,0.000000,0.00000000,42.26489622,0.000000,406.08357087,372.17725480,39.54366581,0.00000000,3.51500908,0.15131937,0.01081617,0.04039511,4.54469250,0.02749229,0.00455966,0.00875403,0.00129999,2.01553710,2.35504693,0.13200249,0.00229102,0.00227983,0.00350161,0.00259998,2.64004978,1.17752347,2.51942138
3.500,2,1,1,-531.859,190.292,49.859,41.186802,-0.335675,-0.335675,-41.522477,-7.219268,nan,0.340560,1.778163,0.572958,1.698034,1.541104,2.660091,-1.847789,2.666745,1.575591,51.906000,-48.094000,100.000000,3.812000,864.67359977,0.000000,0.00000000,45.09639803,0.000000,405.69659835,371.94723731,38.21925481,0.00000000,3.51251549,0.15099610,0.01087354,0.03972616,4.64364487,0.02864814,0.00499078,0.00877903,0.00135200,2.05755476,2.40531017,0.13700999,0.00238734,0.00249539,0.00351161,0.00270400,2.74019984,1.20265509,2.57194345
3.600,2,1,1,-531.849,190.308,49.850,40.541771,-0.354158,-0.354158,-40.895929,-6.617663,nan,0.344300,1.771078,-0.286479,1.739598,1.548359,2.598827,-1.518338,2.672074,1.614986,51.953000,-48.047000,100.000000,3.906000,864.37451652,0.000000,0.00000000,46.15365395,0.000000,405.50149719,371.82121872,37.17599900,0.00000000,3.52163659,0.15083630,0.01087721,0.03879756,4.73987480,0.02979528,0.00540244,0.00878529,0.00138713,2.09833134,2.45415333,0.14202000,0.00248294,0.00270122,0.00351412,0.00277425,2.84039991,1.22707666,2.62291418
3.820,2,1,1,-531.849,190.308,49.850,40.541771,-0.354158,-0.354158,-40.895929,-6.617663,nan,0.344300,1.771078,-0.286479,1.739598,1.562820,2.598827,-1.518338,2.672074,1.691293,51.976500,-48.023500,100.000000,3.953000,864.36621270,0.000000,0.00000000,46.15162623,0.000000,405.49812821,371.81693778,37.17722140,0.00000000,3.52184178,0.15082580,0.01086289,0.03876861,4.95178309,0.03232140,0.00630897,0.00879906,0.00146449,2.18812543,2.56171082,0.15305293,0.00269345,0.00315449,0.00351962,0.00292897,3.06105857,1.28085541,2.73515679
3.900,2,1,1,-531.791,190.404,49.792,38.441695,-0.464716,-0.464716,-38.906411,-6.531719,nan,0.273544,1.616023,-0.931056,1.734422,1.563985,2.207857,-3.179916,2.553849,1.704064,57.976500,-42.023500,100.000000,15.953000,853.28297969,0.000000,0.00000000,41.88139151,0.000000,403.79862252,369.81153443,34.12699731,0.00000000,3.47470129,0.14951787,0.00936819,0.03084659,5.02175759,0.03308175,0.00654552,0.00885164,0.00158716,2.21750686,2.59704789,0.15713678,0.00275681,0.00327276,0.00354066,0.00317431,3.14273566,1.29852394,2.77188357
4.000,2,1,1,-531.771,190.437,49.773,37.745369,-0.503048,-0.503048,-38.248417,-7.233592,nan,0.351658,1.521699,-0.802141,1.694225,1.562887,2.022940,-2.950733,2.428048,1.713214,57.977000,-42.023000,100.000000,15.954000,856.87294517,0.000000,0.00000000,47.85013212,0.000000,403.39625552,369.73973167,32.27799564,0.00000000,3.41995249,0.14898051,0.00899918,0.03089804,5.10672967,0.03392802,0.00679479,0.00890063,0.00171974,2.25315083,2.63997262,0.16226304,0.00282734,0.00339739,0.00356025,0.00343948,3.24526076,1.31998631,2.81643854
4.100,2,1,1,-531.751,190.471,49.753,37.058087,-0.542141,-0.542141,-37.600227,-6.703606,nan,0.404103,1.416601,-2.091296,1.627276,1.559307,1.814836,-2.850465,2.261728,1.715896,57.977000,-42.023000,100.000000,15.954000,860.37063591,0.000000,0.00000000,53.03872062,0.000000,402.99032418,369.61384956,31.20534225,0.00000000,3.33474791,0.14844698,0.00904336,0.03016104,5.18925708,0.03466170,0.00699548,0.00923375,0.00184352,2.28760943,2.68152206,0.16739115,0.00288847,0.00349774,0.00369350,0.00368703,3.34782305,1.34076103,2.85951179
4.200,2,1,1,-531.730,190.505,49.732,36.378738,-0.581930,-0.581930,-36.960667,-6.717930,nan,0.437516,1.301954,-1.059972,1.536328,1.553391,1.589730,-3.265859,2.059177,1.712854,57.977000,-42.023000,100.000000,15.954000,862.21242324,0.000000,0.00000000,56.93383886,0.000000,402.55670085,369.40290359,29.91147898,0.00000000,3.22048460,0.14804720,0.00914780,0.02982135,5.26890196,0.03528143,0.00714947,0.00931933,0.00200600,2.32090646,2.72171989,0.17251938,0.00294012,0.00357474,0.00372773,0.00401199,3.45038754,1.36085994,2.90113308
4.300,2,1,1,-531.708,190.540,49.711,35.706141,-0.622485,-0.622485,-36.328626,-6.245240,nan,0.450254,1.172735,-1.704549,1.437509,1.545221,1.352767,-3.853141,1.864921,1.704975,60.500000,-39.500000,100.000000,21.000000,862.92585032,0.000000,0.00000000,59.49406810,0.000000,401.79821585,368.71231068,29.61362523,0.00000000,3.12453225,0.14752750,0.00843229,0.02713842,5.34623910,0.03578429,0.00726099,0.00954065,0.00223218,2.35307656,2.76060323,0.17774120,0.00298202,0.00363050,0.00381626,0.00446436,3.55482392,1.38030161,2.94134570
4.525,2,1,1,-531.708,190.540,49.711,35.706141,-0.622485,-0.622485,-36.328626,-6.245240,nan,0.450254,1.172735,-1.704549,1.437509,1.528058,1.352767,-3.853141,1.864921,1.688440,60.500000,-39.500000,100.000000,21.000000,862.92574847,0.000000,0.00000000,59.49406810,0.000000,401.79821585,368.71231068,29.61362523,0.00000000,3.12453225,0.14752750,0.00833044,0.02713842,5.52046688,0.03691715,0.00751222,0.01003925,0.00274174,2.42555047,2.84820096,0.18950509,0.00307643,0.00375611,0.00401570,0.00548348,3.79010180,1.42410048,3.03193809
4.600,2,1,1,-531.636,190.649,49.641,33.942461,-0.748741,-0.748741,-34.691202,-6.374155,nan,0.403924,0.766588,-1.589958,1.204978,1.518322,0.674534,-4.383127,1.452929,1.676354,60.500000,-39.500000,100.000000,21.000000,853.99378003,0.000000,0.00000000,56.75003403,0.000000,400.60137708,367.46123670,26.15985073,0.00000000,2.83879357,0.14765481,0.00897760,0.02585551,5.57336777,0.03707759,0.00753292,0.01018303,0.00296028,2.44745478,2.87475503,0.19340414,0.00308980,0.00376646,0.00407321,0.00592057,3.86808270,1.43737752,3.05931847
4.700,2,1,1,-531.611,190.686,49.615,33.349295,-0.791953,-0.791953,-34.141249,-6.417127,nan,0.404770,0.623503,-1.704549,1.058347,1.504234,0.433458,-3.666930,1.202713,1.658885,60.500000,-39.500000,100.000000,21.000000,852.09161363,0.000000,0.00000000,57.01483215,0.000000,400.09690218,366.98974810,25.13173037,0.00000000,2.67617792,0.14757043,0.00904443,0.02560803,5.64203075,0.03721967,0.00754437,0.01040426,0.00316505,2.47585563,2.90921800,0.19862377,0.00310164,0.00377218,0.00416170,0.00633010,3.97247535,1.45460900,3.09481954
4.800,2,1,1,-531.584,190.723,49.589,32.710158,-0.835676,-0.835676,-33.545834,-6.703606,nan,0.432059,0.465739,-2.821817,0.881123,1.489388,0.172582,-4.225564,0.909832,1.640964,63.250000,-36.750000,100.000000,26.500000,850.52286057,0.000000,0.00000000,58.05934411,0.000000,399.12082299,365.99152258,24.66311121,0.00000000,2.50869633,0.14738134,0.00828157,0.02370043,5.70902709,0.03729890,0.00754618,0.01101021,0.00343680,2.50325908,2.94250492,0.20397099,0.00310824,0.00377309,0.00440408,0.00687361,4.07941985,1.47125246,3.12907385
4.900,2,1,1,-531.556,190.761,49.561,32.077604,-0.879974,-0.879974,-32.957578,-6.789550,nan,0.448554,0.302423,-2.119944,0.685691,1.474126,-0.083223,-3.294507,0.594009,1.623468,63.250000,-36.750000,100.000000,26.500000,848.49451283,0.000000,0.00000000,58.59737428,0.000000,398.49980510,365.40968059,23.50557123,0.00000000,2.30324608,0.14711143,0.00843285,0.02329127,5.77353905,0.03733232,0.00754660,0.01135227,0.00360203,2.52971442,2.97467228,0.20931914,0.00311103,0.00377330,0.00454091,0.00720405,4.18638274,1.48733614,3.16214303
5.000,2,1,1,-531.542,190.780,49.548,31.527993,-0.901433,-0.901433,-32.429425,-6.087677,nan,0.452965,0.157440,-2.535338,0.552123,1.458848,-0.301285,-3.151268,0.422322,1.607035,63.250000,-36.750000,100.000000,26.500000,847.14362415,0.000000,0.00000000,58.61460382,0.000000,398.18972756,365.10579207,22.86545229,0.00000000,2.19003302,0.14697493,0.00846808,0.02257238,5.83644082,0.03734139,0.00755214,0.01184239,0.00375346,2.55537446,3.00590013,0.21467685,0.00311178,0.00377607,0.00473695,0.00750692,4.29353695,1.50295007,3.19421808
5.216,2,1,1,-531.542,190.780,49.548,31.527993,-0.901433,-0.901433,-32.429425,-6.087677,nan,0.452965,0.157440,-2.535338,0.552123,1.427436,-0.301285,-3.151268,0.422322,1.573265,63.250000,-36.750000,100.000000,26.500000,847.14362415,0.000000,0.00000000,58.61460382,0.000000,398.18972756,365.10579207,22.86545229,0.00000000,2.19003302,0.14697493,0.00846808,0.02257238,5.97227044,0.03736098,0.00756410,0.01290074,0.00408047,2.61078457,3.07333334,0.22624625,0.00311341,0.00378205,0.00516030,0.00816094,4.52492495,1.53666667,3.26348071
5.300,2,1,1,-531.447,190.896,49.455,29.693712,-1.037614,-1.037614,-30.731325,-6.173620,nan,0.361667,-0.301570,-1.375099,0.349748,1.416190,-0.949745,-3.294507,0.513880,1.565030,64.625000,-35.375000,100.000000,29.250000,835.96778111,0.000000,0.00000000,53.22791810,0.000000,396.56667855,363.26084779,20.20237815,0.00000000,2.53310016,0.14768221,0.00847151,0.02070464,6.01996438,0.03738883,0.00761014,0.01302139,0.00421898,2.63006708,3.09686415,0.23079381,0.00311574,0.00380507,0.00520856,0.00843795,4.61587621,1.54843208,3.28758385
5.400,2,1,1,-531.413,190.935,49.422,29.093676,-1.083706,-1.083706,-30.177382,-5.500395,nan,0.450943,-0.443124,-1.718873,0.300062,1.403856,-1.123193,-2.277507,0.699127,1.557717,65.312500,-34.687500,100.000000,30.625000,834.77656475,0.000000,0.00000000,54.53054195,0.000000,395.47378373,362.17481026,19.74235732,0.00000000,2.67995871,0.14709653,0.00831003,0.01970622,6.07516756,0.03746059,0.00768698,0.01324633,0.00429795,2.65225310,3.12396147,0.23626114,0.00312172,0.00384349,0.00529853,0.00859591,4.72522276,1.56198074,3.31531638
5.500,2,1,1,-531.378,190.974,49.387,28.500237,-1.130130,-1.130130,-29.630366,-5.858493,nan,0.488414,-0.578455,-2.019676,0.343682,1.392815,-1.273341,-1.690225,0.901473,1.552833,65.656000,-34.344000,100.000000,31.312000,831.82128116,0.000000,0.00000000,54.41316167,0.000000,394.49407779,361.16175573,18.77596821,0.00000000,2.80173110,0.14671981,0.00853603,0.01933083,6.12878851,0.03758292,0.00778577,0.01355701,0.00434147,2.67365112,3.15011817,0.24175205,0.00313191,0.00389288,0.00542280,0.00868295,4.83504104,1.57505909,3.34206390
5.600,2,1,1,-531.340,191.014,49.351,27.913440,-1.176792,-1.176792,-29.090232,-6.173620,nan,0.536750,-0.703209,-1.188887,0.449159,1.383177,-1.398803,-1.246183,1.093936,1.550121,65.828000,-34.172000,100.000000,31.656000,829.37094306,0.000000,0.00000000,54.89608636,0.000000,393.44425357,360.10487826,17.83889688,0.00000000,2.91275158,0.14618909,0.00885304,0.01903428,6.18054978,0.03776360,0.00790492,0.01366460,0.00436512,2.69426459,3.17533623,0.24725072,0.00314697,0.00395246,0.00546584,0.00873023,4.94501444,1.58766811,3.36783074
5.700,2,1,1,-531.302,191.053,49.313,27.332837,-1.223602,-1.223602,-28.556439,-6.646310,nan,0.563409,-0.814803,-1.160240,0.571159,1.374941,-1.497454,-1.017000,1.239890,1.549179,65.914000,-34.086000,100.000000,31.828000,826.17461407,0.000000,0.00000000,54.62573927,0.000000,392.43228214,359.05599713,16.88621832,0.00000000,3.00049636,0.14578470,0.00923045,0.01886569,6.23075897,0.03800629,0.00804154,0.01376712,0.00438087,2.71413787,3.19966783,0.25275745,0.00316719,0.00402077,0.00550685,0.00876174,5.05514891,1.59983392,3.39267234
5.914,2,1,1,-531.302,191.053,49.313,27.332837,-1.223602,-1.223602,-28.556439,-6.646310,nan,0.563409,-0.814803,-1.160240,0.571159,1.358143,-1.497454,-1.017000,1.239890,1.547274,65.957000,-34.043000,100.000000,31.914000,826.16843184,0.000000,0.00000000,54.62450274,0.000000,392.42643687,359.04876173,16.89403989,0.00000000,3.00084058,0.14579142,0.00921372,0.01884489,6.33814019,0.03852531,0.00833371,0.01398636,0.00441456,2.75663807,3.25170242,0.26453976,0.00321044,0.00416685,0.00559455,0.00882912,5.29079526,1.62585121,3.44579758
6.000,2,1,1,-531.177,191.172,49.191,25.622107,-1.364747,-1.364747,-26.986854,-5.572015,nan,0.608442,-1.081104,0.114592,0.817554,1.354443,-1.613135,-1.031324,1.454469,1.548273,65.978500,-34.021500,100.000000,31.957000,817.93652896,0.000000,0.00000000,53.34768496,0.000000,389.87361773,356.42675546,15.01193601,0.00000000,3.10424952,0.14524535,0.00965370,0.01738623,6.37745140,0.03889330,0.00847026,0.01398722,0.00442851,2.77192517,3.27046063,0.26928630,0.00324111,0.00423513,0.00559489,0.00885703,5.38572599,1.63523031,3.46490646
6.100,2,1,1,-531.133,191.211,49.148,25.060155,-1.411945,-1.411945,-26.472100,-5.529043,nan,0.617807,-1.146049,-1.804817,0.938032,1.351180,-1.589698,0.257831,1.531313,1.548984,65.989000,-34.011000,100.000000,31.978000,813.65637688,0.000000,0.00000000,52.05913841,0.000000,388.75917517,355.21304638,14.34849732,0.00000000,3.10464077,0.14488901,0.00992708,0.01706275,6.42188297,0.03937331,0.00862419,0.01423523,0.00442953,2.78899873,3.29142562,0.27479636,0.00328111,0.00431209,0.00569409,0.00885905,5.49592721,1.64571281,3.48624842
6.200,2,1,1,-531.087,191.250,49.103,24.501436,-1.459078,-1.459078,-25.960514,-5.743902,nan,0.626773,-1.195775,-1.145916,1.041948,1.348737,-1.537007,0.444042,1.571685,1.548785,65.994500,-34.005500,100.000000,31.989000,809.27283298,0.000000,0.00000000,50.67536848,0.000000,387.65233218,354.00728008,13.65943128,0.00000000,3.10668669,0.14459203,0.01027175,0.01687049,6.46474791,0.03989573,0.00876804,0.01433518,0.00443253,2.80541446,3.31159663,0.28030533,0.00332464,0.00438402,0.00573407,0.00886506,5.60610661,1.65579831,3.50676808
6.300,2,1,1,-531.040,191.289,49.057,23.989889,-1.506078,-1.506078,-25.495968,-4.368803,nan,0.635916,-1.228479,-0.701873,1.119407,1.346851,-1.464335,0.114592,1.575165,1.547437,65.997500,-34.002500,100.000000,31.995000,805.53767888,0.000000,0.00000000,49.45257789,0.000000,386.56502915,352.82235208,13.40480389,0.00000000,3.12252706,0.14425734,0.01014207,0.01598940,6.50633803,0.04044793,0.00889881,0.01437273,0.00443273,2.82127098,3.33109236,0.28582250,0.00337066,0.00444940,0.00574909,0.00886546,5.71645006,1.66554618,3.52658872
6.839,2,1,1,-531.040,191.289,49.057,23.989889,-1.506078,-1.506078,-25.495968,-4.368803,nan,0.635916,-1.228479,-0.701873,1.119407,1.337630,-1.464335,0.114592,1.575165,1.540856,65.999000,-34.001000,100.000000,31.998000,805.53733959,0.000000,0.00000000,49.45252228,0.000000,386.56482287,352.82209765,13.40496933,0.00000000,3.12253974,0.14425756,0.01014146,0.01598870,6.73033093,0.04342188,0.00960306,0.01457498,0.00443381,2.90666958,3.43609071,0.31553692,0.00361849,0.00480153,0.00582999,0.00886761,6.31073837,1.71804536,3.63333697
6.900,2,1,1,-530.734,191.517,48.757,20.692977,-1.783165,-1.783165,-22.476142,-5.486071,nan,0.502835,-1.177522,-0.343775,1.176217,1.336261,-0.517359,1.747521,1.346483,1.534630,66.000000,-28.000000,94.000000,38.000000,787.92383310,0.000000,0.00000000,44.52963345,0.000000,381.92909160,348.12528579,10.25960298,0.00000000,2.91756451,0.14268545,0.00771876,0.01225055,6.75056288,0.04373055,0.00961299,0.01458046,0.00446213,2.91416685,3.44534274,0.31866716,0.00364421,0.00480650,0.00583218,0.00892426,6.37334324,1.72267137,3.64270856
7.000,2,1,1,-530.679,191.554,48.703,20.150602,-1.828042,-1.828042,-21.978644,-7.018733,nan,0.578861,-1.127789,-0.701873,1.185930,1.333431,-0.299682,1.862113,1.129487,1.523736,66.000000,-28.000000,94.000000,38.000000,781.32886497,0.000000,0.00000000,42.09800086,0.000000,380.39375035,346.40006870,9.48469701,0.00000000,2.78942638,0.14218970,0.00809093,0.01264104,6.78257298,0.04419552,0.00961846,0.01461798,0.00451495,2.92593954,3.45987903,0.32380751,0.00368296,0.00480923,0.00584719,0.00902990,6.47615014,1.72993951,3.65742442
7.236,2,1,1,-530.679,191.554,48.703,20.150602,-1.828042,-1.828042,-21.978644,-7.018733,nan,0.578861,-1.127789,-0.701873,1.185930,1.327050,-0.299682,1.862113,1.129487,1.498969,66.000000,-28.000000,94.000000,38.000000,781.32886497,0.000000,0.00000000,42.09800086,0.000000,380.39375035,346.40006870,9.48469701,0.00000000,2.78942638,0.14218970,0.00809093,0.01264104,6.85811027,0.04529274,0.00963138,0.01470651,0.00463958,2.95372068,3.49418171,0.33593767,0.00377440,0.00481569,0.00588261,0.00927917,6.71875342,1.74709085,3.69215085
7.300,2,1,1,-530.509,191.659,48.537,18.576678,-1.958867,-1.958867,-20.535545,-5.944437,nan,0.463960,-0.915603,0.200535,1.122791,1.323913,0.393147,1.317803,0.697679,1.492666,66.000000,-28.000000,94.000000,38.000000,771.21622324,0.000000,0.00000000,38.22273666,0.000000,378.05961744,343.99918855,8.32072300,0.00000000,2.45119878,0.14299548,0.00820894,0.01155439,6.87632860,0.04548883,0.00963740,0.01470847,0.00465651,2.96029665,3.50231405,0.33922669,0.00379074,0.00481870,0.00588339,0.00931302,6.78453371,1.75115703,3.70037081
7.400,2,1,1,-530.451,191.693,48.481,18.066133,-2.001061,-2.001061,-20.067195,-4.999057,nan,0.554230,-0.827304,1.475366,1.047302,1.318292,0.626347,1.461042,0.449851,1.484093,66.000000,-28.000000,94.000000,38.000000,765.22505188,0.000000,0.00000000,36.00116217,0.000000,376.43705019,342.17705849,8.02326493,0.00000000,2.42493567,0.14232208,0.00828438,0.01097397,6.90391995,0.04573923,0.00966132,0.01487438,0.00468905,2.97011848,3.51446636,0.34437112,0.00381160,0.00483066,0.00594975,0.00937810,6.88742243,1.75723318,3.71264810
7.500,2,1,1,-530.393,191.726,48.423,17.561074,-2.042539,-2.042539,-19.603613,-5.299860,nan,0.604407,-0.733027,0.644578,0.955342,1.312043,0.855755,1.160240,0.494254,1.477296,66.000000,-28.000000,94.000000,38.000000,759.83784887,0.000000,0.00000000,33.98400241,0.000000,374.93877947,340.51405458,7.63286027,0.00000000,2.60672476,0.14186439,0.00865125,0.01091174,6.93029668,0.04593554,0.00970591,0.01490600,0.00470954,2.97947858,3.52605278,0.34950832,0.00382796,0.00485296,0.00596240,0.00941908,6.99016641,1.76302639,3.72434822
7.600,2,1,1,-530.334,191.758,48.366,17.060748,-2.083270,-2.083270,-19.144017,-4.683930,nan,0.633281,-0.632716,0.329451,0.848994,1.305221,1.078593,0.701873,0.648575,1.472627,66.000000,-28.000000,94.000000,38.000000,755.00063684,0.000000,0.00000000,32.21963568,0.000000,373.53752329,338.97324656,7.32747768,0.00000000,2.78205018,0.14145981,0.00876218,0.01048148,6.95566504,0.04608190,0.00977680,0.01491427,0.00471704,2.98841107,3.53711490,0.35464905,0.00384016,0.00488840,0.00596571,0.00943409,7.09298102,1.76855745,3.73551384
7.801,2,1,1,-530.334,191.758,48.366,17.060748,-2.083270,-2.083270,-19.144017,-4.683930,nan,0.633281,-0.632716,0.329451,0.848994,1.291961,1.078593,0.701873,0.648575,1.463580,66.000000,-28.000000,94.000000,38.000000,755.00063684,0.000000,0.00000000,32.21963568,0.000000,373.53752329,338.97324656,7.32747768,0.00000000,2.78205018,0.14145981,0.00876218,0.01048148,7.00661004,0.04637582,0.00991915,0.01493087,0.00473211,3.00634939,3.55932997,0.36497272,0.00386465,0.00495958,0.00597235,0.00946423,7.29945440,1.77966499,3.75793674
7.900,2,1,1,-530.155,191.851,48.190,15.640759,-2.200698,-2.200698,-17.841457,-4.225564,nan,0.538947,-0.314593,1.131592,0.647653,1.284116,1.658459,1.661578,1.135936,1.466253,66.000000,-28.000000,94.000000,38.000000,745.54700145,0.000000,0.00000000,28.45066448,0.000000,370.96999777,336.33470135,6.46836048,0.00000000,3.16225237,0.14216847,0.00903851,0.00981802,7.02926239,0.04641167,0.01008521,0.01502751,0.00477378,3.01403649,3.56886146,0.37006627,0.00386764,0.00504260,0.00601100,0.00954757,7.40132536,1.78443073,3.76754562
8.000,2,1,1,-530.095,191.880,48.131,15.192327,-2.238275,-2.238275,-17.430602,-4.512043,nan,0.588629,-0.208749,1.117268,0.538005,1.276074,1.817000,1.017000,1.354337,1.471281,66.000000,-28.000000,94.000000,38.000000,741.03226364,0.000000,0.00000000,26.97813711,0.000000,369.55854365,334.80040668,6.23870735,0.00000000,3.29548159,0.14180199,0.00938527,0.00980001,7.05132657,0.04642760,0.01028642,0.01512261,0.00478954,3.02144335,3.57804884,0.37520821,0.00386897,0.00514321,0.00604904,0.00957909,7.50416427,1.78902442,3.77680419
8.100,2,1,1,-530.035,191.908,48.073,14.765246,-2.275085,-2.275085,-17.040331,-4.426099,nan,0.608118,-0.107084,1.346451,0.421635,1.268023,1.953830,0.902409,1.558301,1.478379,66.000000,-28.000000,94.000000,38.000000,736.90478176,0.000000,0.00000000,25.55351454,0.000000,368.30343247,333.44847726,6.03345223,0.00000000,3.40509012,0.14159116,0.00958518,0.00963881,7.07272628,0.04643180,0.01051917,0.01526077,0.00480196,3.02852486,3.58683567,0.38035206,0.00386932,0.00525959,0.00610431,0.00960391,7.60704122,1.79341783,3.78565607
8.200,2,1,1,-529.975,191.936,48.014,14.281853,-2.311125,-2.311125,-16.592978,-3.595310,nan,0.611219,0.008803,1.446718,0.285827,1.260073,2.090330,0.300803,1.763722,1.487583,66.000000,-28.000000,94.000000,38.000000,733.00665821,0.000000,0.00000000,24.19873629,0.000000,367.14960736,332.21731828,5.77187586,0.00000000,3.50895164,0.14144006,0.00957567,0.00915305,7.09333180,0.04643182,0.01078538,0.01542017,0.00480333,3.03523457,3.59516435,0.38549218,0.00386932,0.00539269,0.00616807,0.00960667,7.70984365,1.79758217,3.79404321
8.465,2,1,1,-529.975,191.936,48.014,14.281853,-2.311125,-2.311125,-16.592978,-3.595310,nan,0.611219,0.008803,1.446718,0.285827,1.239690,2.090330,0.300803,1.763722,1.510665,66.000000,-28.000000,94.000000,38.000000,733.00665821,0.000000,0.00000000,24.19873629,0.000000,367.14960736,332.21731828,5.77187586,0.00000000,3.50895164,0.14144006,0.00957567,0.00915305,7.14798474,0.04643190,0.01149146,0.01584293,0.00480699,3.05303102,3.61725488,0.39912556,0.00386932,0.00574573,0.00633717,0.00961398,7.98251111,1.80862744,3.81628878
8.500,2,1,1,-529.795,192.016,47.838,12.841424,-2.414868,-2.414868,-15.256292,-4.454747,nan,0.488079,0.347849,0.229183,0.232311,1.237304,2.368419,-0.243507,1.997632,1.515256,66.000000,-16.000000,82.000000,50.000000,725.66403198,0.000000,0.00000000,22.03928886,0.000000,364.90062771,330.01914608,4.90147853,0.00000000,3.65473435,0.13871092,0.00499115,0.00505438,7.15412566,0.04644722,0.01160987,0.01584432,0.00480730,3.05499634,3.61969704,0.40072356,0.00387060,0.00580494,0.00633773,0.00961461,8.01447124,1.80984852,3.81874542
8.600,2,1,1,-529.736,192.041,47.780,12.371129,-2.448071,-2.448071,-14.819200,-4.354479,nan,0.555832,0.451685,-0.272155,0.263795,1.230896,2.415187,0.028648,2.155833,1.529105,66.000000,-16.000000,82.000000,50.000000,721.65918897,0.000000,0.00000000,21.12047909,0.000000,363.54209074,328.57360671,4.56440745,0.00000000,3.71144015,0.13829187,0.00398908,0.00488388,7.17119843,0.04652189,0.01196568,0.01584997,0.00480732,3.06035465,3.62635768,0.40534124,0.00387682,0.00598284,0.00633999,0.00961463,8.10682472,1.81317884,3.82544332
8.700,2,1,1,-529.705,192.054,47.750,11.955388,-2.464997,-2.464997,-14.420385,-3.795845,nan,0.580087,0.544350,0.687549,0.335172,1.225060,2.437449,-0.429718,2.270921,1.542899,66.000000,-16.000000,82.000000,50.000000,719.65056846,0.000000,0.00000000,20.68684654,0.000000,362.86418685,327.85738466,4.35732819,0.00000000,3.73806530,0.13809458,0.00403375,0.00462859,7.18768341,0.04663018,0.01232754,0.01588596,0.00481013,3.06542075,3.63265695,0.40995191,0.00388585,0.00616377,0.00635438,0.00962025,8.19903825,1.81632847,3.83177594
8.800,2,1,1,-529.646,192.078,47.692,11.519786,-2.496916,-2.496916,-14.016702,-4.053676,nan,0.674917,0.641488,1.017000,0.435650,1.219878,2.439163,-0.744845,2.369001,1.556293,66.000000,-16.000000,82.000000,50.000000,715.79942170,0.000000,0.00000000,20.41371467,0.000000,361.27237999,326.17228408,4.01119034,0.00000000,3.78363707,0.13735313,0.00430332,0.00455912,7.20364230,0.04678064,0.01269009,0.01596474,0.00481858,3.07020976,3.63861341,0.41456507,0.00389839,0.00634505,0.00638590,0.00963716,8.29130147,1.81930671,3.83776220
9.004,2,1,1,-529.646,192.078,47.692,11.519786,-2.496916,-2.496916,-14.016702,-4.053676,nan,0.674917,0.641488,1.017000,0.435650,1.209630,2.439163,-0.744845,2.369001,1.582285,66.000000,-16.000000,82.000000,50.000000,715.79942170,0.000000,0.00000000,20.41371467,0.000000,361.27237999,326.17228408,4.01119034,0.00000000,3.78363707,0.13735313,0.00430332,0.00455912,7.23612589,0.04708689,0.01342806,0.01612511,0.00483578,3.07995757,3.65073753,0.42395495,0.00392391,0.00671403,0.00645004,0.00967157,8.47909904,1.82536876,3.84994697
9.100,2,1,1,-529.471,192.146,47.519,10.294797,-2.588572,-2.588572,-12.883369,-4.025029,nan,0.695207,0.882629,1.174563,0.649574,1.206553,2.309486,-0.931056,2.400140,1.591971,66.000000,-16.000000,82.000000,50.000000,707.82661876,0.000000,0.00000000,19.35296297,0.000000,358.20317154,323.07891251,3.27616995,0.00000000,3.76948829,0.13711478,0.00457687,0.00422185,7.25006930,0.04736226,0.01374228,0.01622670,0.00484855,3.08386884,3.65560605,0.42841463,0.00394685,0.00687114,0.00649068,0.00969710,8.56829254,1.82780302,3.85483605
9.200,2,1,1,-529.413,192.168,47.463,9.908293,-2.617975,-2.617975,-12.526267,-3.452071,nan,0.719274,0.944346,0.945380,0.754949,1.203963,2.225042,-1.890761,2.370710,1.600352,66.000000,-16.000000,82.000000,50.000000,704.51834683,0.000000,0.00000000,18.78627846,0.000000,356.93917211,321.75195459,3.12564333,0.00000000,3.76990342,0.13674569,0.00465771,0.00399152,7.26396665,0.04768709,0.01404283,0.01629452,0.00490281,3.08767910,3.66034993,0.43301037,0.00397392,0.00702142,0.00651781,0.00980562,8.66020738,1.83017496,3.85959887
9.300,2,1,1,-529.328,192.199,47.379,9.500622,-2.660528,-2.660528,-12.161150,-2.936409,nan,0.691512,1.001008,0.329451,0.857786,1.201920,2.113622,-1.561310,2.306583,1.606881,66.000000,-16.000000,82.000000,50.000000,700.17559051,0.000000,0.00000000,17.63909380,0.000000,355.46498668,320.23157150,2.96861182,0.00000000,3.72618785,0.13668456,0.00467601,0.00377829,7.27734890,0.04805321,0.01431488,0.01630278,0.00493992,3.09128159,3.66483616,0.43762034,0.00400443,0.00715744,0.00652111,0.00987984,8.75240684,1.83241808,3.86410199
9.400,2,1,1,-529.270,192.220,47.322,9.131023,-2.688728,-2.688728,-11.819751,-3.552338,nan,0.659468,1.042022,0.257831,0.933372,1.200295,1.993632,-1.346451,2.223080,1.611586,66.000000,-16.000000,82.000000,50.000000,697.28790410,0.000000,0.00000000,16.74392570,0.000000,354.62001699,319.37744742,2.74454712,0.00000000,3.65647795,0.13685187,0.00480201,0.00383503,7.29028358,0.04845030,0.01455714,0.01630785,0.00496754,3.09468767,3.66907869,0.44223440,0.00403752,0.00727857,0.00652314,0.00993509,8.84468791,1.83453934,3.86835959
9.500,2,1,1,-529.213,192.240,47.266,8.768031,-2.716568,-2.716568,-11.484599,-2.793169,nan,0.641922,1.069922,0.601606,0.984881,1.198970,1.859399,-1.532662,2.125483,1.614450,66.000000,-16.000000,82.000000,50.000000,694.66558977,0.000000,0.00000000,16.04034830,0.000000,353.76138668,318.51283012,2.62674264,0.00000000,3.57902033,0.13694371,0.00474132,0.00357668,7.30279280,0.04886828,0.01476754,0.01633538,0.00500328,3.09789836,3.67307863,0.44684132,0.00407236,0.00738377,0.00653415,0.01000657,8.93682650,1.83653932,3.87237295
9.708,2,1,1,-529.213,192.240,47.266,8.768031,-2.716568,-2.716568,-11.484599,-2.793169,nan,0.641922,1.069922,0.601606,0.984881,1.196301,1.859399,-1.532662,2.125483,1.620196,66.000000,-16.000000,82.000000,50.000000,694.66558977,0.000000,0.00000000,16.04034830,0.000000,353.76138668,318.51283012,2.62674264,0.00000000,3.57902033,0.13694371,0.00474132,0.00357668,7.32879791,0.04973722,0.01520494,0.01639262,0.00507758,3.10457299,3.68139401,0.45641855,0.00414477,0.00760247,0.00655705,0.01015516,9.12837096,1.84069701,3.88071623
9.800,2,1,1,-529.069,192.290,47.125,7.738873,-2.785258,-2.785258,-10.524131,-3.767198,nan,0.666518,1.079108,-0.802141,1.048679,1.195227,1.405144,-2.119944,1.862474,1.618262,66.000000,-14.000000,80.000000,52.000000,688.60928043,0.000000,0.00000000,15.40185036,0.000000,351.38187183,316.14369908,2.14572909,0.00000000,3.39210129,0.13648745,0.00442370,0.00311761,7.33921928,0.05013053,0.01531608,0.01643789,0.00514083,3.10706687,3.68450261,0.46062447,0.00417754,0.00765804,0.00657516,0.01028165,9.21248944,1.84225131,3.88383359
9.900,2,1,1,-529.012,192.309,47.069,7.396000,-2.811955,-2.811955,-10.207955,-3.509366,nan,0.655108,1.058521,-0.186211,1.065981,1.193897,1.235316,-2.606958,1.683921,1.614777,66.000000,-14.000000,80.000000,52.000000,685.96070183,0.000000,0.00000000,14.78553977,0.000000,350.49416601,315.24957075,2.02840676,0.00000000,3.25906965,0.13654654,0.00440739,0.00299495,7.35008806,0.05054021,0.01540908,0.01644053,0.00524437,3.10960690,3.68766927,0.46517770,0.00421168,0.00770454,0.00657621,0.01048873,9.30355404,1.84383463,3.88700863
10.000,2,1,1,-528.955,192.328,47.012,7.059690,-2.838355,-2.838355,-9.898045,-3.523690,nan,0.640269,1.024766,0.100268,1.067836,1.192293,1.061929,-2.721550,1.488622,1.610095,66.000000,-14.000000,80.000000,52.000000,683.38513256,0.000000,0.00000000,14.17599276,0.000000,349.64144640,314.39692866,1.91458319,0.00000000,3.11214004,0.13665528,0.00444953,0.00293670,7.36056834,0.05092400,0.01547777,0.01644130,0.00535715,3.11199387,3.69064556,0.46972869,0.00424367,0.00773888,0.00657652,0.01071431,9.39457375,1.84532278,3.88999234
10.100,2,1,1,-528.897,192.347,46.956,6.729248,-2.864472,-2.864472,-9.593720,-2.392099,nan,0.634425,0.977922,-0.343775,1.053524,1.190321,0.887264,-2.907761,1.287005,1.604423,66.000000,-14.000000,80.000000,52.000000,680.87783330,0.000000,0.00000000,13.67686790,0.000000,348.75560859,313.50967222,1.82861895,0.00000000,2.96340002,0.13667980,0.00434939,0.00263643,7.37069586,0.05127358,0.01552573,0.01645030,0.00548593,3.11423684,3.69344273,0.47428074,0.00427280,0.00776286,0.00658012,0.01097187,9.48561478,1.84672137,3.89279606
10.310,2,1,1,-528.897,192.347,46.956,6.729248,-2.864472,-2.864472,-9.593720,-2.392099,nan,0.634425,0.977922,-0.343775,1.053524,1.186291,0.887264,-2.907761,1.287005,1.592799,66.000000,-14.000000,80.000000,52.000000,680.87783330,0.000000,0.00000000,13.67686790,0.000000,348.75560859,313.50967222,1.82861895,0.00000000,2.96340002,0.13667980,0.00434939,0.00263643,7.39199007,0.05200862,0.01562657,0.01646922,0.00575671,3.11895294,3.69932409,0.48385193,0.00433405,0.00781329,0.00658769,0.01151341,9.67703853,1.84966205,3.89869117
10.400,2,1,1,-528.725,192.401,46.786,5.766841,-2.941081,-2.941081,-8.707922,-2.922085,nan,0.650506,0.769158,-1.360775,0.963822,1.183262,0.376977,-2.965057,0.948450,1.586172,66.000000,-14.000000,80.000000,52.000000,674.24744590,0.000000,0.00000000,13.04516378,0.000000,345.99855786,310.78200689,1.55920083,0.00000000,2.71859567,0.13671203,0.00461583,0.00259303,7.40024990,0.05220266,0.01563434,0.01659576,0.00587686,3.12061105,3.70139275,0.48793647,0.00435022,0.00781717,0.00663830,0.01175372,9.75872945,1.85069638,3.90076382
10.500,2,1,1,-528.667,192.418,46.729,5.453979,-2.966017,-2.966017,-8.419995,-3.466395,nan,0.650746,0.679050,-1.403747,0.890427,1.179404,0.217936,-1.589958,0.744510,1.578599,66.000000,-14.000000,80.000000,52.000000,671.59977933,0.000000,0.00000000,12.52600288,0.000000,345.02926753,309.79936484,1.52869512,0.00000000,2.57228684,0.13671476,0.00477183,0.00267553,7.40904487,0.05237121,0.01563724,0.01674581,0.00591536,3.12233866,3.70354837,0.49248822,0.00436427,0.00781862,0.00669832,0.01183072,9.84976441,1.85177419,3.90292332
10.600,2,1,1,-528.608,192.435,46.672,5.144408,-2.990653,-2.990653,-8.135061,-3.323155,nan,0.646973,0.579574,-1.031324,0.801502,1.175095,0.067305,-1.332127,0.534657,1.571006,66.000000,-14.000000,80.000000,52.000000,668.98342135,0.000000,0.00000000,12.00915356,0.000000,344.08769954,308.84974064,1.47259409,0.00000000,2.42008881,0.13672488,0.00481804,0.00260180,7.41745271,0.05249399,0.01563751,0.01682681,0.00594239,3.12395130,3.70556079,0.49703992,0.00437450,0.00781876,0.00673072,0.01188477,9.94079843,1.85278040,3.90493913
10.700,2,1,1,-528.549,192.452,46.614,4.837801,-3.014972,-3.014972,-7.852773,-2.750197,nan,0.634426,0.472199,-0.902409,0.701208,1.170393,-0.073422,-1.589958,0.327673,1.563523,66.000000,-14.000000,80.000000,52.000000,666.41530118,0.000000,0.00000000,11.45157894,0.000000,343.20169199,307.96395711,1.38679999,0.00000000,2.26727434,0.13678821,0.00478045,0.00243015,7.42556609,0.05257550,0.01563784,0.01688883,0.00598089,3.12545420,3.70743648,0.50159234,0.00438129,0.00781892,0.00675553,0.01196179,10.03184688,1.85371824,3.90681776
10.800,2,1,1,-528.490,192.468,46.556,4.533872,-3.038946,-3.038946,-7.572818,-2.836141,nan,0.645898,0.358706,-1.303479,0.608654,1.165382,-0.202932,-1.776169,0.218847,1.556257,66.000000,-14.000000,80.000000,52.000000,663.85798674,0.000000,0.00000000,11.05446006,0.000000,342.18007278,306.92847270,1.35925076,0.00000000,2.19171575,0.13671566,0.00488422,0.00241480,7.43348449,0.05262252,0.01564035,0.01701818,0.00602893,3.12685129,3.70918030,0.50614292,0.00438521,0.00782017,0.00680727,0.01205786,10.12285838,1.85459015,3.90856412
11.000,2,1,1,-528.490,192.468,46.556,4.533872,-3.038946,-3.038946,-7.572818,-2.836141,nan,0.645898,0.358706,-1.303479,0.608654,1.155563,-0.202932,-1.776169,0.218847,1.542013,66.000000,-14.000000,80.000000,52.000000,663.85798674,0.000000,0.00000000,11.05446006,0.000000,342.18007278,306.92847270,1.35925076,0.00000000,2.19171575,0.13671566,0.00488422,0.00241480,7.44934219,0.05271668,0.01564537,0.01727722,0.00612512,3.12964916,3.71267254,0.51525609,0.00439306,0.00782269,0.00691089,0.01225025,10.30512173,1.85633627,3.91206145
11.100,2,1,1,-528.311,192.515,46.379,3.671429,-3.108553,-3.108553,-6.779982,-4.311507,nan,0.550896,0.009405,-0.916732,0.404435,1.150255,-0.503997,-1.117268,0.284694,1.535688,66.000000,-2.000000,68.000000,64.000000,658.48806436,0.000000,0.00000000,9.95934185,0.000000,340.00176672,304.86347838,1.15574943,0.00000000,2.36691529,0.13618612,0.00386116,0.00076539,7.45631295,0.05271672,0.01566083,0.01734116,0.00614412,3.13076831,3.71406986,0.51961195,0.00439306,0.00783042,0.00693646,0.01228824,10.39223905,1.85703493,3.91346039
11.200,2,1,1,-528.250,192.530,46.319,3.438662,-3.130898,-3.130898,-6.569560,-3.165592,nan,0.528218,-0.091484,-1.260507,0.314229,1.145053,-0.567061,-1.231859,0.361869,1.529653,66.000000,-2.000000,68.000000,64.000000,656.42243638,0.000000,0.00000000,9.24321614,0.000000,339.24709470,304.12541535,1.26554039,0.00000000,2.40134989,0.13647946,0.00266174,0.00067871,7.46319803,0.05271977,0.01568040,0.01746204,0.00616721,3.13181905,3.71538184,0.52396771,0.00439331,0.00784020,0.00698482,0.01233442,10.47935424,1.85769092,3.91477381
11.300,2,1,1,-528.189,192.544,46.259,3.186921,-3.152558,-3.152558,-6.339479,-2.707226,nan,0.553968,-0.206753,-1.546986,0.224151,1.140052,-0.628021,-0.873761,0.450737,1.523913,66.000000,-14.000000,80.000000,52.000000,653.73629809,0.000000,0.00000000,8.61631157,0.000000,338.18083198,303.03746362,1.30714858,0.00000000,2.44839183,0.13777492,0.00611424,0.00226135,7.47018623,0.05273540,0.01570443,0.01764430,0.00617884,3.13279848,3.71660487,0.52851991,0.00439462,0.00785222,0.00705772,0.01235768,10.57039824,1.85830244,3.91599809
11.400,2,1,1,-528.160,192.551,46.230,2.955912,-3.162692,-3.162692,-6.118604,-2.449395,nan,0.559615,-0.313486,-1.618606,0.172183,1.135335,-0.674643,-1.890761,0.533798,1.518431,66.000000,-2.000000,68.000000,64.000000,652.46149514,0.000000,0.00000000,8.42127847,0.000000,337.69611638,302.54559021,1.17548089,0.00000000,2.48224704,0.13636676,0.00383396,0.00058143,7.47691889,0.05277134,0.01573218,0.01784392,0.00623331,3.13371126,3.71774477,0.53288211,0.00439761,0.00786609,0.00713757,0.01246663,10.65764224,1.85887238,3.91713908
11.607,2,1,1,-528.160,192.551,46.230,2.955912,-3.162692,-3.162692,-6.118604,-2.449395,nan,0.559615,-0.313486,-1.618606,0.172183,1.125793,-0.674643,-1.890761,0.533798,1.507349,66.000000,-2.000000,68.000000,64.000000,652.46034314,0.000000,0.00000000,8.42127847,0.000000,337.69611638,302.54559021,1.17548089,0.00000000,2.48224704,0.13636676,0.00268196,0.00058143,7.49082731,0.05284559,0.01578949,0.01825629,0.00634586,3.13559690,3.72009959,0.54189361,0.00440380,0.00789474,0.00730251,0.01269171,10.83787211,1.86004979,3.91949613
11.700,2,1,1,-527.973,192.589,46.046,2.228962,-3.222818,-3.222818,-5.451780,-2.062648,nan,0.596563,-0.658293,-1.761845,0.386537,1.122784,-0.747958,-0.587282,0.659055,1.502733,66.000000,-2.000000,68.000000,64.000000,645.43758355,0.000000,0.00000000,7.69296196,0.000000,334.63938524,299.50007163,0.92537061,0.00000000,2.54043088,0.13620170,0.00269524,0.00046630,7.49681969,0.05299337,0.01582128,0.01847682,0.00635076,3.13627264,3.72094361,0.54596121,0.00441611,0.00791064,0.00739073,0.01270151,10.91922423,1.86047181,3.92034079
11.800,2,1,1,-527.910,192.600,45.984,2.015122,-3.241361,-3.241361,-5.256482,-1.733197,nan,0.641618,-0.759055,-1.289155,0.512391,1.120153,-0.743853,-0.988352,0.702271,1.497835,66.000000,-2.000000,68.000000,64.000000,642.15549855,0.000000,0.00000000,7.17714356,0.000000,333.29588039,298.09339108,0.89603835,0.00000000,2.55403188,0.13579546,0.00278637,0.00043145,7.50307948,0.05320397,0.01585499,0.01860338,0.00636563,3.13694593,3.72178464,0.55032093,0.00443366,0.00792750,0.00744135,0.01273127,11.00641857,1.86089232,3.92118242
11.900,2,1,1,-527.847,192.611,45.921,1.812950,-3.259102,-3.259102,-5.072052,-2.177240,nan,0.662008,-0.849817,-0.730521,0.633807,1.118120,-0.726388,0.487014,0.728102,1.492932,66.000000,-2.000000,68.000000,64.000000,638.87872472,0.000000,0.00000000,6.60706676,0.000000,332.04229119,296.79269688,0.74346618,0.00000000,2.55445485,0.13549443,0.00284015,0.00041428,7.50918910,0.05346792,0.01588713,0.01864401,0.00636925,3.13757277,3.72256768,0.55468034,0.00445566,0.00794357,0.00745761,0.01273849,11.09360682,1.86128384,3.92196596
12.000,2,1,1,-527.783,192.621,45.858,1.621150,-3.276051,-3.276051,-4.897201,-2.463719,nan,0.679844,-0.930296,-1.059972,0.743326,1.116661,-0.696353,-0.300803,0.734471,1.487974,66.000000,-2.000000,68.000000,64.000000,635.73891773,0.000000,0.00000000,6.08826183,0.000000,330.79959982,295.50735100,0.63482976,0.00000000,2.57036502,0.13521330,0.00289720,0.00039979,7.51529750,0.05378433,0.01591668,0.01872959,0.00637062,3.13815731,3.72329790,0.55904106,0.00448203,0.00795834,0.00749184,0.01274125,11.18082129,1.86164895,3.92269663
12.100,2,1,1,-527.719,192.630,45.795,1.438574,-3.292213,-3.292213,-4.730787,-1.217535,nan,0.690045,-0.999725,-1.059972,0.832489,1.115729,-0.654667,0.028648,0.720569,1.482922,66.000000,-2.000000,68.000000,64.000000,633.05396081,0.000000,0.00000000,5.68718408,0.000000,329.61304233,294.28951254,0.75675420,0.00000000,2.56914141,0.13501759,0.00295863,0.00035002,7.52136235,0.05414974,0.01594280,0.01881517,0.00637064,3.13870280,3.72397938,0.56340183,0.00451248,0.00797140,0.00752607,0.01274127,11.26803663,1.86198969,3.92337850
12.323,2,1,1,-527.719,192.630,45.795,1.438574,-3.292213,-3.292213,-4.730787,-1.217535,nan,0.690045,-0.999725,-1.059972,0.832489,1.113706,-0.654667,0.028648,0.720569,1.471913,66.000000,-2.000000,68.000000,64.000000,633.05396081,0.000000,0.00000000,5.68718408,0.000000,329.61304233,294.28951254,0.75675420,0.00000000,2.56914141,0.13501759,0.00295863,0.00035002,7.53486901,0.05496351,0.01600096,0.01900575,0.00637066,3.13991763,3.72549706,0.57311344,0.00458029,0.00800048,0.00760230,0.01274133,11.46226883,1.86274853,3.92489704
12.400,2,1,1,-527.525,192.653,45.603,0.936498,-3.335768,-3.335768,-4.272266,-1.632930,nan,0.547154,-1.125466,-0.701873,0.977345,1.113781,-0.469985,0.873761,0.646739,1.467723,66.000000,-2.000000,68.000000,64.000000,627.98864555,0.000000,0.00000000,5.09080127,0.000000,327.44812957,292.31543293,0.52134516,0.00000000,2.47391187,0.13602420,0.00270237,0.00029820,7.53941454,0.05532107,0.01601135,0.01903472,0.00637964,3.14026112,3.72592622,0.57648041,0.00461009,0.00800567,0.00761389,0.01275929,11.52960817,1.86296311,3.92532640
12.500,2,1,1,-527.460,192.660,45.538,0.781674,-3.348590,-3.348590,-4.130264,-0.644578,nan,0.615089,-1.137341,0.243507,1.044599,1.113975,-0.392144,1.074296,0.582589,1.462172,66.000000,-2.000000,68.000000,64.000000,624.69417953,0.000000,0.00000000,4.54491840,0.000000,326.07850893,290.88053188,0.60765080,0.00000000,2.44387037,0.13562970,0.00280216,0.00026728,7.54521428,0.05579394,0.01602072,0.01903924,0.00639722,3.14067686,3.72644567,0.58084062,0.00464949,0.00801036,0.00761570,0.01279445,11.61681249,1.86322284,3.92584607
12.600,2,1,1,-527.395,192.666,45.473,0.632004,-3.360575,-3.360575,-3.992579,-1.231859,nan,0.656483,-1.134410,0.071620,1.094005,1.114141,-0.308004,-0.128916,0.504814,1.456527,66.000000,-2.000000,68.000000,64.000000,621.24856452,0.000000,0.00000000,3.97216471,0.000000,324.75515390,289.50353823,0.47822619,0.00000000,2.40107619,0.13527347,0.00287426,0.00025757,7.55092431,0.05626430,0.01602650,0.01903963,0.00639748,3.14106528,3.72693100,0.58520013,0.00468869,0.00801325,0.00761585,0.01279495,11.70400256,1.86346550,3.92633160
12.700,2,1,1,-527.329,192.671,45.408,0.486921,-3.371723,-3.371723,-3.858644,-1.962380,nan,0.685582,-1.116312,-0.630254,1.123750,1.114159,-0.218686,0.587282,0.415022,1.450812,66.000000,-2.000000,68.000000,64.000000,617.93628824,0.000000,0.00000000,3.45914842,0.000000,323.46407641,288.16765290,0.35959371,0.00000000,2.34765214,0.13495752,0.00294394,0.00026321,7.55660360,0.05672055,0.01602942,0.01906993,0.00640274,3.14142870,3.72738511,0.58956716,0.00472671,0.00801471,0.00762797,0.01280547,11.79134317,1.86369255,3.92678588
12.907,2,1,1,-527.329,192.671,45.408,0.486921,-3.371723,-3.371723,-3.858644,-1.962380,nan,0.685582,-1.116312,-0.630254,1.123750,1.114194,-0.218686,0.587282,0.415022,1.439240,66.000000,-2.000000,68.000000,64.000000,617.93628824,0.000000,0.00000000,3.45914842,0.000000,323.46407641,288.16765290,0.35959371,0.00000000,2.34765214,0.13495752,0.00294394,0.00026321,7.56831771,0.05766162,0.01603544,0.01913242,0.00641359,3.14217830,3.72832175,0.59857459,0.00480513,0.00801772,0.00765297,0.01282718,11.97149176,1.86416088,3.92772288
13.000,2,1,1,-527.132,192.681,45.211,0.074432,-3.400080,-3.400080,-3.474512,-2.220211,nan,0.645010,-0.969554,0.716197,1.089709,1.113208,0.069445,0.558634,0.263837,1.434000,66.000000,-2.000000,68.000000,64.000000,611.58689245,0.000000,0.00000000,2.85727078,0.000000,320.66077952,285.45561467,0.24854044,0.00000000,2.22631728,0.13525880,0.00287186,0.00023911,7.57336172,0.05798202,0.01603571,0.01916885,0.00641802,3.14245262,3.72866454,0.60263997,0.00483184,0.00801785,0.00766754,0.01283604,12.05279943,1.86433227,3.92806577
13.100,2,1,1,-527.065,192.684,45.145,-0.056806,-3.407883,-3.407883,-3.351077,-1.461042,nan,0.667746,-0.892622,-0.315127,1.044986,1.111666,0.168832,0.415394,0.192412,1.428509,66.000000,-2.000000,68.000000,64.000000,608.63555429,0.000000,0.00000000,2.40625371,0.000000,319.43563282,284.19843298,0.27440208,0.00000000,2.18267865,0.13503113,0.00292346,0.00019947,7.57864050,0.05827327,0.01603745,0.01917641,0.00642065,3.14272627,3.72900652,0.60699993,0.00485611,0.00801872,0.00767056,0.01284130,12.13999864,1.86450326,3.92840784
13.200,2,1,1,-526.999,192.685,45.079,-0.185474,-3.414902,-3.414902,-3.229428,-1.174563,nan,0.687102,-0.803413,0.114592,0.981829,1.109622,0.268388,0.558634,0.159792,1.423198,66.000000,-2.000000,68.000000,64.000000,605.82353290,0.000000,0.00000000,2.00461327,0.000000,318.21548375,282.95046656,0.26873255,0.00000000,2.24627359,0.13480475,0.00297766,0.00018077,7.58381869,0.05850923,0.01604183,0.01917741,0.00642540,3.14298045,3.72932415,0.61136022,0.00487577,0.00802092,0.00767096,0.01285081,12.22720443,1.86466207,3.92872556
13.300,2,1,1,-526.933,192.686,45.013,-0.311856,-3.421155,-3.421155,-3.109300,-1.432394,nan,0.686177,-0.702654,0.214859,0.903810,1.107082,0.367342,0.272155,0.197818,1.418118,66.000000,-2.000000,68.000000,64.000000,603.26976881,0.000000,0.00000000,1.63701624,0.000000,317.11014018,281.83962323,0.22312314,0.00000000,2.32197474,0.13471161,0.00300113,0.00017854,7.58890281,0.05868974,0.01605006,0.01918092,0.00642653,3.14321608,3.72961861,0.61572087,0.00489081,0.00802503,0.00767237,0.01285306,12.31441745,1.86480931,3.92902010
13.400,2,1,1,-526.867,192.687,44.947,-0.436201,-3.426664,-3.426664,-2.990463,-1.117268,nan,0.687433,-0.591460,1.418071,0.820356,1.104081,0.465003,1.002676,0.280385,1.413316,66.000000,-2.000000,68.000000,64.000000,600.84565176,0.000000,0.00000000,1.33317726,0.000000,316.01508220,280.74306684,0.21980009,0.00000000,2.39671734,0.13462754,0.00302079,0.00015970,7.59406303,0.05881762,0.01606323,0.01933408,0.00644185,3.14343403,3.72989099,0.62008124,0.00490147,0.00803162,0.00773363,0.01288369,12.40162481,1.86494549,3.92929254
13.662,2,1,1,-526.867,192.687,44.947,-0.436201,-3.426664,-3.426664,-2.990463,-1.117268,nan,0.687433,-0.591460,1.418071,0.820356,1.096383,0.465003,1.002676,0.280385,1.400981,66.000000,-2.000000,68.000000,64.000000,600.84565176,0.000000,0.00000000,1.33317726,0.000000,316.01508220,280.74306684,0.21980009,0.00000000,2.39671734,0.13462754,0.00302079,0.00015970,7.60759988,0.05915311,0.01609779,0.01973585,0.00648202,3.14400578,3.73060552,0.63151982,0.00492943,0.00804890,0.00789434,0.01296404,12.63039641,1.86530276,3.93000722
13.700,2,1,1,-526.668,192.684,44.748,-0.789600,-3.439143,-3.439143,-2.649543,-1.546986,nan,0.542484,-0.224441,0.916732,0.672800,1.094918,0.737345,-0.300803,0.449889,1.399569,66.000000,-2.000000,68.000000,64.000000,596.71322132,0.000000,0.00000000,1.16811152,0.000000,313.88066861,278.83766007,0.13750817,0.00000000,2.55064253,0.13571019,0.00276882,0.00015141,7.60942953,0.05916004,0.01611026,0.01975993,0.00648254,3.14407016,3.73068598,0.63316063,0.00493000,0.00805513,0.00790397,0.01296507,12.66321254,1.86534299,3.93008770
13.800,2,1,1,-526.602,192.683,44.682,-0.907874,-3.442114,-3.442114,-2.534240,-1.045648,nan,0.657706,-0.090085,0.358099,0.538303,1.090912,0.824721,-0.358099,0.575155,1.396205,66.000000,-2.000000,68.000000,64.000000,593.05699055,0.000000,0.00000000,0.85779490,0.000000,312.20820437,277.06446573,0.14097245,0.00000000,2.64756084,0.13491226,0.00295371,0.00012628,7.61419848,0.05916300,0.01615170,0.01976970,0.00648449,3.14422669,3.73088161,0.63752128,0.00493025,0.00807585,0.00790788,0.01296898,12.75042554,1.86544081,3.93028337
