t,controller_id,state_code,wp_idx,x,y,dist,yaw_deg,yaw_to_wp_deg,yaw_ref_deg,yaw_err_deg,yaw_rate_deg_s,speed_ref,speed_meas,roll_deg,roll_rate_deg_s,roll_rms_window_deg,roll_rms_total_deg,pitch_deg,pitch_rate_deg_s,pitch_rms_window_deg,pitch_rms_total_deg,base_cmd,diff_cmd,T_left,T_right,J_inst,J_goal,J_wave_roll,J_progress,J_smooth,J_mpc_distance,J_mpc_final,J_mpc_heading,J_mpc_wrong_way,J_mpc_pitch,J_mpc_control,J_mpc_slew,J_mpc_turn,J_total,J_roll,J_pitch,J_roll_rate,J_pitch_rate,J_goal_heading,J_no_progress,J_control,I_roll,I_pitch,I_roll_rate,I_pitch_rate,I_control,I_no_progress,I_goal_heading
0.200,1,1,1,-531.998,190.000,49.998,57.296613,-0.000354,-0.000354,-57.296968,0.000000,0.402715,0.000000,0.084072,1.074296,0.046942,0.000000,0.613425,0.315127,0.572130,0.000000,0.000000,-5.000000,5.000000,-5.000000,0.00000000,0.00000000,0.00000000,0.00000000,0.00000000,0.000000,0.000000,0.000000,0.000000,0.000000,0.000000,0.000000,0.000000,0.00000000,0.00000000,0.00000000,0.00000000,0.00000000,0.00000000,0.00000000,0.00000000,0.00000000,0.00000000,0.00000000,0.00000000,0.00000000,0.00000000,0.00000000
0.337,1,1,1,-531.998,190.000,49.998,57.296613,-0.000354,-0.000354,-57.296968,0.000000,0.402715,0.000000,0.084072,1.074296,0.046942,0.084072,0.613425,0.315127,0.572130,0.613425,0.000000,-10.000000,10.000000,-10.000000,0.00000000,0.00000000,0.00000000,0.00000000,0.00000000,0.000000,0.000000,0.000000,0.000000,0.000000,0.000000,0.000000,0.000000,0.00029471,0.00000354,0.00003144,0.00012053,0.00000207,0.00000000,0.00000000,0.00013713,0.00000030,0.00001572,0.00004821,0.00000415,0.00274265,0.00000000,0.00000000
0.400,1,1,1,-531.995,190.001,49.995,57.279260,-0.001704,-0.001704,-57.280964,0.000000,0.398734,0.006664,0.190069,0.401070,0.106475,0.127284,0.753669,-0.458366,0.628948,0.660720,1.619786,-13.380214,15.000000,-11.760427,0.00000000,0.00000000,0.00000000,0.00000000,0.00000000,0.000000,0.000000,0.000000,0.000000,0.000000,0.000000,0.000000,0.000000,0.00044866,0.00001184,0.00005319,0.00012823,0.00000409,0.00000000,0.00000000,0.00025132,0.00000099,0.00002659,0.00005129,0.00000817,0.00502634,0.00000000,0.00000000
0.500,1,1,1,-531.994,190.003,49.994,57.249236,-0.002960,-0.002960,-57.252196,0.000000,0.396580,0.012047,0.248485,1.246183,0.141983,0.177147,0.847044,0.028648,0.674504,0.728139,4.000662,-15.999338,20.000000,-11.998676,0.00000000,0.00000000,0.00000000,0.00000000,0.00000000,0.000000,0.000000,0.000000,0.000000,0.000000,0.000000,0.000000,0.000000,0.00090512,0.00003441,0.00009689,0.00024647,0.00000410,0.00000000,0.00000000,0.00052325,0.00000287,0.00004845,0.00009859,0.00000820,0.01046496,0.00000000,0.00000000
0.600,1,1,1,-531.992,190.004,49.992,57.203569,-0.004223,-0.004223,-57.207793,0.000000,0.393816,0.014037,0.297236,1.504014,0.188083,0.213603,0.911537,0.673225,0.742325,0.778064,6.470249,-18.529751,25.000000,-12.059501,0.00000000,0.00000000,0.00000000,0.00000000,0.00000000,0.000000,0.000000,0.000000,0.000000,0.000000,0.000000,0.000000,0.000000,0.00155257,0.00006671,0.00014753,0.00041877,0.00001100,0.00000000,0.00000000,0.00090855,0.00000556,0.00007376,0.00016751,0.00002201,0.01817101,0.00000000,0.00000000
0.700,1,1,1,-531.992,190.005,49.992,57.132436,-0.005276,-0.005276,-57.137712,0.000000,0.391091,0.012780,0.340980,0.888085,0.239757,0.244448,0.938272,-1.532662,0.815320,0.812636,9.037385,-20.962615,30.000000,-11.925230,0.00000000,0.00000000,0.00000000,0.00000000,0.00000000,0.000000,0.000000,0.000000,0.000000,0.000000,0.000000,0.000000,0.000000,0.00226565,0.00010921,0.00020116,0.00047884,0.00004678,0.00000000,0.00000000,0.00142966,0.00000910,0.00010058,0.00019153,0.00009356,0.02859313,0.00000000,0.00000000
0.800,1,1,1,-531.991,190.006,49.991,57.037277,-0.006404,-0.006404,-57.043681,0.000000,0.389180,0.011657,0.377649,1.002676,0.287292,0.271225,0.931979,-0.472690,0.871795,0.833710,11.616731,-23.383269,35.000000,-11.766537,0.00000000,0.00000000,0.00000000,0.00000000,0.00000000,0.000000,0.000000,0.000000,0.000000,0.000000,0.000000,0.000000,0.000000,0.00313218,0.00016133,0.00025406,0.00055538,0.00005018,0.00000000,0.00000000,0.00211122,0.00001344,0.00012703,0.00022215,0.00010037,0.04222431,0.00000000,0.00000000
0.900,1,1,1,-531.991,190.007,49.991,56.916935,-0.008308,-0.008308,-56.925243,0.000000,0.388093,0.013803,0.411801,-0.415394,0.330953,0.295433,0.927844,0.343775,0.908917,0.847799,13.825068,-25.471558,39.296627,-11.646490,0.00000001,0.00000000,0.00000001,0.00000000,0.00000000,0.000000,0.000000,0.000000,0.000000,0.000000,0.000000,0.000000,0.000000,0.00410151,0.00022332,0.00030651,0.00056852,0.00005198,0.00000000,0.00000000,0.00295117,0.00001861,0.00015326,0.00022741,0.00010397,0.05902341,0.00000000,0.00000000
1.000,1,1,1,-531.990,190.010,49.990,56.770714,-0.011627,-0.011627,-56.782341,0.000000,0.387834,0.026159,0.443279,-0.214859,0.370106,0.317699,0.951996,0.257831,0.929453,0.861513,13.284205,-25.235593,38.519798,-11.951388,0.00000002,0.00000000,0.00000002,0.00000000,0.00000000,0.000000,0.000000,0.000000,0.000000,0.000000,0.000000,0.000000,0.000000,0.00504638,0.00029515,0.00036173,0.00057204,0.00005300,0.00000000,0.00000000,0.00376447,0.00002460,0.00018086,0.00022881,0.00010599,0.07528942,0.00000000,0.00000000
1.100,1,1,1,-531.989,190.014,49.989,56.600236,-0.016442,-0.016442,-56.616678,0.000000,0.388283,0.033830,0.467685,0.214859,0.404474,0.337674,1.000605,-0.272155,0.944141,0.878060,12.999855,-25.017001,38.016856,-12.017146,0.00000004,0.00000000,0.00000004,0.00000000,0.00000000,0.000000,0.000000,0.000000,0.000000,0.000000,0.000000,0.000000,0.000000,0.00598700,0.00037512,0.00042274,0.00057555,0.00005412,0.00000000,0.00000000,0.00455947,0.00003126,0.00021137,0.00023022,0.00010825,0.09118938,0.00000000,0.00000000
1.200,1,1,1,-531.987,190.019,49.987,56.408662,-0.022322,-0.022322,-56.430984,0.000000,0.389321,0.041997,0.480121,-0.014324,0.433348,0.354501,1.048316,0.902409,0.964862,0.896538,12.739763,-24.786442,37.526205,-12.046680,0.00000007,0.00000000,0.00000007,0.00000000,0.00000000,0.000000,0.000000,0.000000,0.000000,0.000000,0.000000,0.000000,0.000000,0.00692709,0.00045936,0.00048968,0.00057557,0.00006652,0.00000000,0.00000000,0.00533596,0.00003828,0.00024484,0.00023023,0.00013305,0.10671923,0.00000000,0.00000000
1.300,1,1,1,-531.986,190.025,49.986,56.198790,-0.028794,-0.028794,-56.227584,0.000000,0.390963,0.048806,0.481536,1.074296,0.455429,0.367868,1.072955,-0.229183,0.994798,0.913986,12.576625,-24.605348,37.181972,-12.028723,0.00000013,0.00000000,0.00000013,0.00000000,0.00000000,0.000000,0.000000,0.000000,0.000000,0.000000,0.000000,0.000000,0.000000,0.00793437,0.00054413,0.00055982,0.00066347,0.00006732,0.00000000,0.00000000,0.00609962,0.00004534,0.00027991,0.00026539,0.00013465,0.12199247,0.00000000,0.00000000
1.400,1,1,1,-531.985,190.031,49.985,55.973099,-0.035656,-0.035656,-56.008755,0.000000,0.393325,0.053967,0.476448,0.157563,0.469595,0.378109,1.071295,0.587282,1.026603,0.928113,12.521092,-24.368312,36.889404,-11.847221,0.00000020,0.00000000,0.00000020,0.00000000,0.00000000,0.000000,0.000000,0.000000,0.000000,0.000000,0.000000,0.000000,0.000000,0.00884492,0.00062710,0.00062973,0.00066536,0.00007258,0.00000000,0.00000000,0.00685015,0.00005226,0.00031487,0.00026614,0.00014515,0.13700298,0.00000000,0.00000000
1.500,1,1,1,-531.984,190.038,49.984,55.733819,-0.043000,-0.043000,-55.776819,0.000000,0.396502,0.058400,0.467063,1.260507,0.475529,0.385684,1.054118,-0.315127,1.049939,0.938412,12.534339,-24.203709,36.738048,-11.669370,0.00000030,0.00000000,0.00000029,0.00000000,0.00000000,0.000000,0.000000,0.000000,0.000000,0.000000,0.000000,0.000000,0.000000,0.00985832,0.00070689,0.00069746,0.00078642,0.00007409,0.00000000,0.00000000,0.00759346,0.00005891,0.00034873,0.00031457,0.00014818,0.15186928,0.00000000,0.00000000
1.600,1,1,1,-531.983,190.044,49.983,55.513570,-0.050990,-0.050990,-55.564560,0.000000,0.399983,0.069165,0.453457,0.716197,0.474144,0.390915,1.034153,-1.102944,1.058290,0.945572,12.301204,-24.007961,36.309165,-11.706757,0.00000041,0.00000000,0.00000041,0.00000000,0.00000000,0.000000,0.000000,0.000000,0.000000,0.000000,0.000000,0.000000,0.000000,0.01078391,0.00078205,0.00076262,0.00082548,0.00009262,0.00000000,0.00000000,0.00832115,0.00006517,0.00038131,0.00033019,0.00018524,0.16642296,0.00000000,0.00000000
1.700,1,1,1,-531.982,190.052,49.982,55.253801,-0.059662,-0.059662,-55.313462,0.000000,0.404708,0.073687,0.428947,-0.200535,0.465750,0.393565,1.007410,-1.389423,1.052775,0.949820,12.385475,-23.793958,36.179433,-11.408484,0.00000056,0.00000000,0.00000055,0.00000000,0.00000001,0.000000,0.000000,0.000000,0.000000,0.000000,0.000000,0.000000,0.000000,0.01166507,0.00084931,0.00082445,0.00082854,0.00012202,0.00000000,0.00000000,0.00904074,0.00007078,0.00041223,0.00033142,0.00024405,0.18081477,0.00000000,0.00000000
1.800,1,1,1,-531.981,190.060,49.981,54.985406,-0.068944,-0.068944,-55.054350,0.000000,0.410177,0.076892,0.394381,-1.002676,0.450397,0.393616,0.973805,-1.160240,1.034822,0.951336,12.552428,-23.591272,36.143699,-11.038844,0.00000072,0.00000000,0.00000071,0.00000000,0.00000001,0.000000,0.000000,0.000000,0.000000,0.000000,0.000000,0.000000,0.000000,0.01259070,0.00090615,0.00088221,0.00090509,0.00014252,0.00000000,0.00000000,0.00975472,0.00007551,0.00044111,0.00036204,0.00028504,0.19509433,0.00000000,0.00000000
1.900,1,1,1,-531.980,190.069,49.980,54.709758,-0.078791,-0.078791,-54.788549,0.000000,0.416359,0.081183,0.352959,0.673225,0.427866,0.391340,0.933865,-0.071620,1.008544,0.950317,12.699810,-23.471229,36.171039,-10.771419,0.00000089,0.00000000,0.00000088,0.00000000,0.00000001,0.000000,0.000000,0.000000,0.000000,0.000000,0.000000,0.000000,0.000000,0.01343649,0.00095171,0.00093537,0.00093962,0.00014260,0.00000000,0.00000000,0.01046719,0.00007931,0.00046768,0.00037585,0.00028520,0.20934376,0.00000000,0.00000000
2.000,1,1,1,-531.979,190.078,49.979,54.427991,-0.089232,-0.089232,-54.517223,0.000000,0.423234,0.086968,0.308040,0.100268,0.398051,0.387183,0.892587,0.014324,0.976760,0.947203,12.811360,-23.282560,36.093920,-10.471200,0.00000106,0.00000000,0.00000105,0.00000000,0.00000001,0.000000,0.000000,0.000000,0.000000,0.000000,0.000000,0.000000,0.000000,0.01422661,0.00098639,0.00098390,0.00094039,0.00014260,0.00000000,0.00000000,0.01117332,0.00008220,0.00049195,0.00037616,0.00028521,0.22346646,0.00000000,0.00000000
2.100,1,1,1,-531.977,190.087,49.978,54.141076,-0.100296,-0.100296,-54.241373,0.000000,0.428895,0.091811,0.259952,-0.315127,0.361533,0.381547,0.853073,-0.902409,0.941015,0.942483,12.910488,-23.105262,36.015750,-10.194773,0.00000130,0.00000000,0.00000129,0.00000000,0.00000001,0.000000,0.000000,0.000000,0.000000,0.000000,0.000000,0.000000,0.000000,0.01501610,0.00101109,0.00102823,0.00094795,0.00015501,0.00000000,0.00000000,0.01187381,0.00008426,0.00051412,0.00037918,0.00031001,0.23747630,0.00000000,0.00000000
2.200,1,1,1,-531.976,190.098,49.976,53.849920,-0.111916,-0.111916,-53.961836,0.000000,0.433998,0.097400,0.207002,-0.401070,0.319549,0.374756,0.811298,-0.744845,0.902275,0.936361,12.955286,-22.943169,35.898455,-9.987882,0.00000160,0.00000000,0.00000159,0.00000000,0.00000001,0.000000,0.000000,0.000000,0.000000,0.000000,0.000000,0.000000,0.000000,0.01578672,0.00102676,0.00106833,0.00096020,0.00016345,0.00000000,0.00000000,0.01256798,0.00008556,0.00053417,0.00038408,0.00032691,0.25135957,0.00000000,0.00000000
2.300,1,1,1,-531.974,190.108,49.974,53.555299,-0.123942,-0.123942,-53.679241,0.000000,0.439260,0.101326,0.148786,0.386747,0.273545,0.367163,0.759297,-0.558634,0.860713,0.928696,13.076199,-22.811369,35.887569,-9.735170,0.00000192,0.00000000,0.00000191,0.00000000,0.00000001,0.000000,0.000000,0.000000,0.000000,0.000000,0.000000,0.000000,0.000000,0.01653737,0.00103485,0.00110345,0.00097159,0.00016821,0.00000000,0.00000000,0.01325927,0.00008624,0.00055173,0.00038864,0.00033642,0.26518548,0.00000000,0.00000000
2.400,1,1,1,-531.973,190.119,49.973,53.257867,-0.136273,-0.136273,-53.394140,0.000000,0.444651,0.104922,0.087429,-0.458366,0.224769,0.359204,0.693522,-0.515662,0.815137,0.919310,13.214765,-22.630920,35.845685,-9.416154,0.00000228,0.00000000,0.00000227,0.00000000,0.00000001,0.000000,0.000000,0.000000,0.000000,0.000000,0.000000,0.000000,0.000000,0.01727649,0.00103764,0.00113276,0.00098759,0.00017226,0.00000000,0.00000000,0.01394624,0.00008647,0.00056638,0.00039504,0.00034452,0.27892479,0.00000000,0.00000000
2.500,1,1,1,-531.971,190.130,49.971,52.958211,-0.148946,-0.148946,-53.107157,0.000000,0.450134,0.108564,0.025837,0.315127,0.174591,0.351351,0.619302,-1.518338,0.763498,0.908331,13.353634,-22.505911,35.859545,-9.152278,0.00000266,0.00000000,0.00000265,0.00000000,0.00000001,0.000000,0.000000,0.000000,0.000000,0.000000,0.000000,0.000000,0.000000,0.01802746,0.00103789,0.00115612,0.00099515,0.00020736,0.00000000,0.00000000,0.01463093,0.00008649,0.00057806,0.00039806,0.00041473,0.29261868,0.00000000,0.00000000
2.600,1,1,1,-531.969,190.141,49.969,52.656841,-0.162102,-0.162102,-52.818944,0.000000,0.455663,0.112054,-0.034649,0.071620,0.125978,0.344024,0.546948,0.171887,0.704635,0.896184,13.499444,-22.351083,35.850527,-8.851639,0.00000308,0.00000000,0.00000307,0.00000000,0.00000001,0.000000,0.000000,0.000000,0.000000,0.000000,0.000000,0.000000,0.000000,0.01872902,0.00103832,0.00117436,0.00099554,0.00020781,0.00000000,0.00000000,0.01531298,0.00008653,0.00058718,0.00039822,0.00041563,0.30625960,0.00000000,0.00000000
2.700,1,1,1,-531.966,190.153,49.966,52.354178,-0.175848,-0.175848,-52.530026,0.000000,0.461194,0.117145,-0.094424,0.916732,0.087828,0.337604,0.483528,-0.673225,0.639821,0.883391,13.578231,-22.233541,35.811772,-8.655310,0.00000355,0.00000000,0.00000353,0.00000000,0.00000001,0.000000,0.000000,0.000000,0.000000,0.000000,0.000000,0.000000,0.000000,0.01949585,0.00104158,0.00118859,0.00105952,0.00021471,0.00000000,0.00000000,0.01599143,0.00008680,0.00059430,0.00042381,0.00042943,0.31982867,0.00000000,0.00000000
2.800,1,1,1,-531.963,190.166,49.964,52.050594,-0.190159,-0.190159,-52.240753,0.000000,0.466685,0.122933,-0.153658,0.243507,0.081594,0.332417,0.428451,-0.186211,0.572785,0.870304,13.627705,-22.070376,35.698081,-8.442671,0.00000407,0.00000000,0.00000406,0.00000000,0.00000002,0.000000,0.000000,0.000000,0.000000,0.000000,0.000000,0.000000,0.000000,0.02019341,0.00105021,0.00119978,0.00106404,0.00021524,0.00000000,0.00000000,0.01666414,0.00008752,0.00059989,0.00042561,0.00043049,0.33328285,0.00000000,0.00000000
2.900,1,1,1,-531.960,190.179,49.960,51.746415,-0.204916,-0.204916,-51.951331,0.000000,0.472102,0.137090,-0.211061,-0.343775,0.113051,0.328717,0.376429,-0.444042,0.507949,0.857083,13.331330,-21.914942,35.246272,-8.583612,0.00000465,0.00000000,0.00000464,0.00000000,0.00000002,0.000000,0.000000,0.000000,0.000000,0.000000,0.000000,0.000000,0.000000,0.02088940,0.00106652,0.00120842,0.00107305,0.00021825,0.00000000,0.00000000,0.01732315,0.00008888,0.00060421,0.00042922,0.00043650,0.34646306,0.00000000,0.00000000
3.000,1,1,1,-531.957,190.192,49.957,51.441958,-0.220001,-0.220001,-51.661959,0.000000,0.477418,0.136615,-0.264421,0.716197,0.159986,0.326642,0.323808,0.487014,0.447988,0.843879,13.644898,-21.814122,35.459020,-8.169223,0.00000530,0.00000000,0.00000529,0.00000000,0.00000002,0.000000,0.000000,0.000000,0.000000,0.000000,0.000000,0.000000,0.000000,0.02162499,0.00109204,0.00121480,0.00111206,0.00022186,0.00000000,0.00000000,0.01798423,0.00009100,0.00060740,0.00044482,0.00044372,0.35968464,0.00000000,0.00000000
3.100,1,1,1,-531.953,190.205,49.953,51.137454,-0.235396,-0.235396,-51.372849,0.000000,0.482611,0.138054,-0.312855,-0.974028,0.210217,0.326176,0.271487,-1.360775,0.392842,0.830732,13.866058,-21.628977,35.495035,-7.762919,0.00000603,0.00000000,0.00000601,0.00000000,0.00000002,0.000000,0.000000,0.000000,0.000000,0.000000,0.000000,0.000000,0.000000,0.02242586,0.00112782,0.00121929,0.00118431,0.00025006,0.00000000,0.00000000,0.01864437,0.00009399,0.00060965,0.00047372,0.00050013,0.37288742,0.00000000,0.00000000
3.200,1,1,1,-531.949,190.219,49.949,50.833122,-0.251151,-0.251151,-51.084273,0.000000,0.487676,0.140689,-0.356104,0.730521,0.259498,0.327218,0.223073,-1.102944,0.340942,0.817783,14.028477,-21.554844,35.583320,-7.526367,0.00000686,0.00000000,0.00000684,0.00000000,0.00000002,0.000000,0.000000,0.000000,0.000000,0.000000,0.000000,0.000000,0.000000,0.02319588,0.00117418,0.00122232,0.00122496,0.00026859,0.00000000,0.00000000,0.01930583,0.00009785,0.00061116,0.00048998,0.00053719,0.38611653,0.00000000,0.00000000
3.300,1,1,1,-531.944,190.233,49.945,50.529135,-0.267304,-0.267304,-50.796439,0.000000,0.492610,0.143827,-0.394094,-0.343775,0.305844,0.329594,0.181559,0.114592,0.291243,0.805111,14.163350,-21.393296,35.556646,-7.229946,0.00000779,0.00000000,0.00000777,0.00000000,0.00000002,0.000000,0.000000,0.000000,0.000000,0.000000,0.000000,0.000000,0.000000,0.02392418,0.00123111,0.00122434,0.00123398,0.00026879,0.00000000,0.00000000,0.01996596,0.00010259,0.00061217,0.00049359,0.00053759,0.39931911,0.00000000,0.00000000
3.400,1,1,1,-531.940,190.247,49.940,50.225623,-0.283849,-0.283849,-50.509472,0.000000,0.495944,0.147617,-0.426329,0.615930,0.348063,0.333033,0.147772,-0.401070,0.244263,0.792893,14.204663,-21.299225,35.503888,-7.094563,0.00000934,0.00000000,0.00000932,0.00000000,0.00000002,0.000000,0.000000,0.000000,0.000000,0.000000,0.000000,0.000000,0.000000,0.02467680,0.00129738,0.00122566,0.00126280,0.00027124,0.00000000,0.00000000,0.02061972,0.00010812,0.00061283,0.00050512,0.00054247,0.41239433,0.00000000,0.00000000
3.500,1,1,1,-531.934,190.262,49.935,49.922716,-0.300758,-0.300758,-50.223474,0.000000,0.497897,0.152540,-0.451840,0.286479,0.385351,0.337247,0.121751,0.085944,0.201695,0.781081,14.144988,-21.165330,35.310318,-7.020342,0.00001160,0.00000000,0.00001158,0.00000000,0.00000002,0.000000,0.000000,0.000000,0.000000,0.000000,0.000000,0.000000,0.000000,0.02540638,0.00137198,0.00122657,0.00126905,0.00027135,0.00000000,0.00000000,0.02126744,0.00011433,0.00061328,0.00050762,0.00054270,0.42534888,0.00000000,0.00000000
3.600,1,1,1,-531.928,190.277,49.929,49.620504,-0.318018,-0.318018,-49.938522,0.000000,0.500228,0.156360,-0.469972,0.272155,0.417031,0.341886,0.104467,-0.100268,0.165399,0.769719,14.151300,-21.044454,35.195755,-6.893154,0.00001404,0.00000000,0.00001401,0.00000000,0.00000002,0.000000,0.000000,0.000000,0.000000,0.000000,0.000000,0.000000,0.000000,0.02613657,0.00145270,0.00122723,0.00127468,0.00027150,0.00000000,0.00000000,0.02191045,0.00012106,0.00061362,0.00050987,0.00054301,0.43820904,0.00000000,0.00000000
3.700,1,1,1,-531.922,190.292,49.923,49.319086,-0.335631,-0.335631,-49.654717,0.000000,0.502995,0.160160,-0.480809,-0.028648,0.442536,0.346627,0.097435,0.802141,0.136767,0.758826,14.178507,-20.917018,35.095524,-6.738511,0.00001659,0.00000000,0.00001656,0.00000000,0.00000002,0.000000,0.000000,0.000000,0.000000,0.000000,0.000000,0.000000,0.000000,0.02686985,0.00153718,0.00122781,0.00127475,0.00028130,0.00000000,0.00000000,0.02254882,0.00012810,0.00061390,0.00050990,0.00056260,0.45097632,0.00000000,0.00000000
3.800,1,1,1,-531.916,190.308,49.917,49.018554,-0.353587,-0.353587,-49.372141,0.000000,0.506247,0.164049,-0.484658,0.200535,0.461445,0.351196,0.100921,-0.085944,0.116909,0.748398,14.223043,-20.808559,35.031602,-6.585516,0.00001919,0.00000000,0.00001917,0.00000000,0.00000002,0.000000,0.000000,0.000000,0.000000,0.000000,0.000000,0.000000,0.000000,0.02759499,0.00162306,0.00122843,0.00127781,0.00028141,0.00000000,0.00000000,0.02318427,0.00013526,0.00061422,0.00051112,0.00056282,0.46368539,0.00000000,0.00000000
3.900,1,1,1,-531.912,190.316,49.913,48.742899,-0.363047,-0.363047,-49.105945,0.000000,0.509845,0.161212,-0.482062,0.057296,0.472610,0.355368,0.111917,-0.701873,0.107514,0.738442,14.559303,-20.697121,35.256424,-6.137818,0.00002071,0.00000000,0.00002070,0.00000000,0.00000001,0.000000,0.000000,0.000000,0.000000,0.000000,0.000000,0.000000,0.000000,0.02832900,0.00170803,0.00122919,0.00127806,0.00028892,0.00000000,0.00000000,0.02382479,0.00014234,0.00061460,0.00051122,0.00057784,0.47649587,0.00000000,0.00000000
4.000,1,1,1,-531.905,190.332,49.906,48.480015,-0.381437,-0.381437,-48.861453,0.000000,0.513541,0.161517,-0.474049,1.031324,0.478155,0.358994,0.127465,-0.658901,0.106637,0.728956,14.761858,-20.631549,35.393407,-5.869690,0.00002314,0.00000000,0.00002312,0.00000000,0.00000003,0.000000,0.000000,0.000000,0.000000,0.000000,0.000000,0.000000,0.000000,0.02914314,0.00179016,0.00123018,0.00135904,0.00029553,0.00000000,0.00000000,0.02446822,0.00014918,0.00061509,0.00054362,0.00059106,0.48936447,0.00000000,0.00000000
4.100,1,1,1,-531.897,190.348,49.898,48.206016,-0.400064,-0.400064,-48.606080,0.000000,0.517882,0.160668,-0.459652,0.429718,0.478104,0.361929,0.147895,0.028648,0.113597,0.719927,15.035892,-20.510701,35.546593,-5.474809,0.00002545,0.00000000,0.00002543,0.00000000,0.00000003,0.000000,0.000000,0.000000,0.000000,0.000000,0.000000,0.000000,0.000000,0.02988361,0.00186750,0.00123152,0.00137313,0.00029554,0.00000000,0.00000000,0.02511592,0.00015563,0.00061576,0.00054925,0.00059108,0.50231846,0.00000000,0.00000000
4.200,1,1,1,-531.893,190.356,49.895,48.004060,-0.409088,-0.409088,-48.413148,0.000000,0.521518,0.151731,-0.445241,0.802141,0.474217,0.364242,0.166033,-0.587282,0.123554,0.711363,15.609883,-20.451896,36.061779,-4.842013,0.00002638,0.00000000,0.00002637,0.00000000,0.00000001,0.000000,0.000000,0.000000,0.000000,0.000000,0.000000,0.000000,0.000000,0.03067325,0.00193990,0.00123320,0.00142208,0.00030079,0.00000000,0.00000000,0.02577728,0.00016166,0.00061660,0.00056883,0.00060158,0.51554565,0.00000000,0.00000000
4.300,1,1,1,-531.885,190.373,49.886,47.707956,-0.428084,-0.428084,-48.136040,0.000000,0.527186,0.162999,-0.418812,1.905085,0.462915,0.365669,0.198769,-0.472690,0.143671,0.703323,15.423157,-20.374548,35.797705,-4.951391,0.00002822,0.00000000,0.00002819,0.00000000,0.00000003,0.000000,0.000000,0.000000,0.000000,0.000000,0.000000,0.000000,0.000000,0.03167223,0.00200400,0.00123560,0.00169838,0.00030419,0.00000000,0.00000000,0.02643006,0.00016700,0.00061780,0.00067935,0.00060838,0.52860110,0.00000000,0.00000000
4.400,1,1,1,-531.876,190.389,49.878,47.412882,-0.447384,-0.447384,-47.860265,0.000000,0.533422,0.170552,-0.386360,1.346451,0.445021,0.366175,0.240320,0.587282,0.170459,0.695889,15.425550,-20.245298,35.670848,-4.819749,0.00002963,0.00000000,0.00002960,0.00000000,0.00000003,0.000000,0.000000,0.000000,0.000000,0.000000,0.000000,0.000000,0.000000,0.03252135,0.00205856,0.00123912,0.00183642,0.00030944,0.00000000,0.00000000,0.02707780,0.00017155,0.00061956,0.00073457,0.00061889,0.54155606,0.00000000,0.00000000
4.500,1,1,1,-531.867,190.406,49.869,47.118864,-0.466989,-0.466989,-47.585853,0.000000,0.540207,0.182038,-0.348875,0.085944,0.420862,0.365782,0.290823,1.346451,0.204416,0.689178,15.293435,-20.098174,35.391609,-4.804740,0.00003053,0.00000000,0.00003050,0.00000000,0.00000003,0.000000,0.000000,0.000000,0.000000,0.000000,0.000000,0.000000,0.000000,0.03323705,0.00210305,0.00124427,0.00183699,0.00033706,0.00000000,0.00000000,0.02771568,0.00017525,0.00062214,0.00073479,0.00067412,0.55431360,0.00000000,0.00000000
4.600,1,1,1,-531.858,190.424,49.859,46.826001,-0.486869,-0.486869,-47.312869,0.000000,0.547505,0.184449,-0.306951,1.059972,0.390995,0.364551,0.348214,1.733197,0.245918,0.683320,15.564120,-20.024155,35.588276,-4.460035,0.00003083,0.00000000,0.00003080,0.00000000,0.00000003,0.000000,0.000000,0.000000,0.000000,0.000000,0.000000,0.000000,0.000000,0.03405346,0.00213750,0.00125166,0.00192256,0.00038282,0.00000000,0.00000000,0.02835893,0.00017812,0.00062583,0.00076902,0.00076563,0.56717866,0.00000000,0.00000000
4.700,1,1,1,-531.848,190.441,49.850,46.534233,-0.506969,-0.506969,-47.041202,0.000000,0.554509,0.191552,-0.261248,1.088620,0.356102,0.362575,0.409626,0.472690,0.294522,0.678439,15.623980,-19.919369,35.543349,-4.295389,0.00003116,0.00000000,0.00003113,0.00000000,0.00000003,0.000000,0.000000,0.000000,0.000000,0.000000,0.000000,0.000000,0.000000,0.03482308,0.00216244,0.00126188,0.00201280,0.00038622,0.00000000,0.00000000,0.02899975,0.00018020,0.00063094,0.00080512,0.00077244,0.57999494,0.00000000,0.00000000
4.800,1,1,1,-531.837,190.459,49.840,46.243715,-0.527252,-0.527252,-46.770966,0.000000,0.559304,0.195179,-0.211808,0.873761,0.316836,0.359970,0.472974,1.045648,0.348972,0.674639,15.737854,-19.808345,35.546200,-4.070491,0.00003352,0.00000000,0.00003349,0.00000000,0.00000003,0.000000,0.000000,0.000000,0.000000,0.000000,0.000000,0.000000,0.000000,0.03556786,0.00217884,0.00127551,0.00207093,0.00040287,0.00000000,0.00000000,0.02963972,0.00018157,0.00063775,0.00082837,0.00080574,0.59279435,0.00000000,0.00000000
4.900,1,1,1,-531.827,190.476,49.829,45.954186,-0.547692,-0.547692,-46.501878,0.000000,0.564125,0.175876,-0.159479,0.916732,0.273975,0.356878,0.537437,0.716197,0.407694,0.672010,16.797538,-19.706754,36.504292,-2.909216,0.00003591,0.00000000,0.00003588,0.00000000,0.00000003,0.000000,0.000000,0.000000,0.000000,0.000000,0.000000,0.000000,0.000000,0.03633730,0.00218814,0.00129311,0.00213495,0.00041068,0.00000000,0.00000000,0.03031042,0.00018234,0.00064656,0.00085398,0.00082137,0.60620843,0.00000000,0.00000000
5.000,1,1,1,-531.816,190.494,49.819,45.665988,-0.568301,-0.568301,-46.234290,0.000000,0.568953,0.187879,-0.106506,-0.057296,0.228456,0.353476,0.602267,0.272155,0.469183,0.670632,16.540148,-19.574701,36.114848,-3.034553,0.00003833,0.00000000,0.00003830,0.00000000,0.00000003,0.000000,0.000000,0.000000,0.000000,0.000000,0.000000,0.000000,0.000000,0.03702156,0.00219228,0.00131521,0.00213520,0.00041181,0.00000000,0.00000000,0.03096706,0.00018269,0.00065760,0.00085408,0.00082362,0.61934129,0.00000000,0.00000000
5.100,1,1,1,-531.805,190.512,49.808,45.379009,-0.589104,-0.589104,-45.968113,0.000000,0.573773,0.200204,-0.051906,1.346451,0.181477,0.349928,0.666820,0.444042,0.532157,0.670554,16.285719,-19.518658,35.804377,-3.232939,0.00004080,0.00000000,0.00004076,0.00000000,0.00000003,0.000000,0.000000,0.000000,0.000000,0.000000,0.000000,0.000000,0.000000,0.03783713,0.00219327,0.00134230,0.00227330,0.00041482,0.00000000,0.00000000,0.03161345,0.00018277,0.00067115,0.00090932,0.00082963,0.63226895,0.00000000,0.00000000
5.200,1,1,1,-531.794,190.530,49.796,45.093097,-0.610062,-0.610062,-45.703159,0.000000,0.578573,0.205947,0.003032,0.401070,0.135030,0.346413,0.730865,-0.171887,0.595775,0.671813,16.314790,-19.387226,35.702016,-3.072436,0.00004331,0.00000000,0.00004328,0.00000000,0.00000003,0.000000,0.000000,0.000000,0.000000,0.000000,0.000000,0.000000,0.000000,0.03852402,0.00219327,0.00137483,0.00228554,0.00041527,0.00000000,0.00000000,0.03225511,0.00018277,0.00068741,0.00091422,0.00083053,0.64510229,0.00000000,0.00000000
5.300,1,1,1,-531.782,190.548,49.785,44.808365,-0.631173,-0.631173,-45.439538,0.000000,0.583332,0.209685,0.056483,1.360775,0.093850,0.343091,0.793819,0.415394,0.659459,0.674417,16.427390,-19.317204,35.744595,-2.889814,0.00004589,0.00000000,0.00004586,0.00000000,0.00000003,0.000000,0.000000,0.000000,0.000000,0.000000,0.000000,0.000000,0.000000,0.03935034,0.00219444,0.00141322,0.00242657,0.00041789,0.00000000,0.00000000,0.03289821,0.00018287,0.00070661,0.00097063,0.00083579,0.65796416,0.00000000,0.00000000
5.400,1,1,1,-531.770,190.567,49.773,44.524997,-0.652436,-0.652436,-45.177432,0.000000,0.587313,0.214862,0.108285,0.759169,0.070652,0.340108,0.854677,0.630254,0.722599,0.678336,16.448230,-19.197237,35.645467,-2.749007,0.00004856,0.00000000,0.00004853,0.00000000,0.00000003,0.000000,0.000000,0.000000,0.000000,0.000000,0.000000,0.000000,0.000000,0.04008822,0.00219873,0.00145773,0.00247047,0.00042394,0.00000000,0.00000000,0.03353735,0.00018323,0.00072887,0.00098819,0.00084789,0.67074700,0.00000000,0.00000000
5.500,1,1,1,-531.758,190.585,49.762,44.242822,-0.673818,-0.673818,-44.916640,0.000000,0.591067,0.191730,0.158088,0.487014,0.082107,0.337583,0.912062,0.042972,0.784467,0.683487,17.628334,-19.089578,36.717911,-1.461244,0.00005135,0.00000000,0.00005131,0.00000000,0.00000003,0.000000,0.000000,0.000000,0.000000,0.000000,0.000000,0.000000,0.000000,0.04084135,0.00220786,0.00150841,0.00248853,0.00042397,0.00000000,0.00000000,0.03421256,0.00018399,0.00075421,0.00099541,0.00084795,0.68425129,0.00000000,0.00000000
5.600,1,1,1,-531.746,190.604,49.750,43.961739,-0.695298,-0.695298,-44.657037,0.000000,0.594780,0.209714,0.204365,0.945380,0.117174,0.335595,0.963805,-0.501338,0.844059,0.689719,17.081093,-19.005016,36.086109,-1.923923,0.00005426,0.00000000,0.00005423,0.00000000,0.00000004,0.000000,0.000000,0.000000,0.000000,0.000000,0.000000,0.000000,0.000000,0.04163866,0.00222314,0.00156505,0.00255665,0.00042780,0.00000000,0.00000000,0.03486602,0.00018526,0.00078253,0.00102266,0.00085561,0.69732035,0.00000000,0.00000000
5.700,1,1,1,-531.734,190.622,49.738,43.704351,-0.716873,-0.716873,-44.421224,0.000000,0.598168,0.214932,0.245672,0.315127,0.155120,0.334177,1.005077,0.042972,0.894625,0.696721,17.071213,-18.896735,35.967948,-1.825523,0.00005734,0.00000000,0.00005731,0.00000000,0.00000004,0.000000,0.000000,0.000000,0.000000,0.000000,0.000000,0.000000,0.000000,0.04237771,0.00224518,0.00162654,0.00256420,0.00042783,0.00000000,0.00000000,0.03551395,0.00018710,0.00081327,0.00102568,0.00085566,0.71027909,0.00000000,0.00000000
5.800,1,1,1,-531.721,190.641,49.725,43.403372,-0.738528,-0.738528,-44.141900,0.000000,0.602136,0.219741,0.289084,1.604282,0.202547,0.333426,1.045425,0.429718,0.950925,0.704462,17.106559,-18.827813,35.934372,-1.721254,0.00006060,0.00000000,0.00006057,0.00000000,0.00000004,0.000000,0.000000,0.000000,0.000000,0.000000,0.000000,0.000000,0.000000,0.04332059,0.00227573,0.00169311,0.00276016,0.00043064,0.00000000,0.00000000,0.03616095,0.00018964,0.00084656,0.00110407,0.00086129,0.72321896,0.00000000,0.00000000
5.900,1,1,1,-531.709,190.660,49.713,43.126059,-0.760271,-0.760271,-43.886331,0.000000,0.605807,0.223358,0.323484,0.200535,0.243786,0.333254,1.075055,-0.343775,0.995745,0.712627,17.181177,-18.683643,35.864820,-1.502466,0.00006408,0.00000000,0.00006404,0.00000000,0.00000004,0.000000,0.000000,0.000000,0.000000,0.000000,0.000000,0.000000,0.000000,0.04407845,0.00231398,0.00176353,0.00276323,0.00043244,0.00000000,0.00000000,0.03680527,0.00019283,0.00088176,0.00110529,0.00086489,0.73610544,0.00000000,0.00000000
6.000,1,1,1,-531.696,190.678,49.701,42.849856,-0.782098,-0.782098,-43.631954,0.000000,0.609499,0.227561,0.351822,0.257831,0.281634,0.333583,1.097578,0.873761,1.033703,0.721007,17.233239,-18.588141,35.821380,-1.354902,0.00006777,0.00000000,0.00006773,0.00000000,0.00000004,0.000000,0.000000,0.000000,0.000000,0.000000,0.000000,0.000000,0.000000,0.04485626,0.00235922,0.00183692,0.00276829,0.00044407,0.00000000,0.00000000,0.03744776,0.00019660,0.00091846,0.00110732,0.00088814,0.74895516,0.00000000,0.00000000
6.100,1,1,1,-531.684,190.697,49.689,42.574918,-0.803999,-0.803999,-43.378917,0.000000,0.613223,0.228422,0.375564,1.274831,0.315369,0.334339,1.112989,0.200535,1.064518,0.729415,17.425652,-18.521635,35.947286,-1.095983,0.00007169,0.00000000,0.00007165,0.00000000,0.00000004,0.000000,0.000000,0.000000,0.000000,0.000000,0.000000,0.000000,0.000000,0.04575513,0.00241083,0.00191245,0.00289216,0.00044468,0.00000000,0.00000000,0.03809501,0.00020090,0.00095623,0.00115686,0.00088937,0.76190015,0.00000000,0.00000000
6.200,1,1,1,-531.671,190.716,49.677,42.323172,-0.825965,-0.825965,-43.149137,0.000000,0.615915,0.203626,0.393629,-0.372423,0.341791,0.335413,1.120401,-0.472690,1.086100,0.737630,18.629575,-18.381536,37.011111,0.248039,0.00007752,0.00000000,0.00007748,0.00000000,0.00000004,0.000000,0.000000,0.000000,0.000000,0.000000,0.000000,0.000000,0.000000,0.04658702,0.00246746,0.00198892,0.00290272,0.00044809,0.00000000,0.00000000,0.03877984,0.00020562,0.00099446,0.00116109,0.00089617,0.77559686,0.00000000,0.00000000
6.300,1,1,1,-531.659,190.735,49.664,42.050632,-0.848024,-0.848024,-42.898656,0.000000,0.617399,0.214439,0.405126,-0.171887,0.366158,0.336671,1.119980,0.529986,1.103050,0.745477,18.284617,-18.291597,36.576214,-0.006980,0.00008753,0.00000000,0.00008750,0.00000000,0.00000004,0.000000,0.000000,0.000000,0.000000,0.000000,0.000000,0.000000,0.000000,0.04739848,0.00252742,0.00206530,0.00290497,0.00045236,0.00000000,0.00000000,0.03944843,0.00021062,0.00103265,0.00116199,0.00090473,0.78896855,0.00000000,0.00000000
6.400,1,1,1,-531.646,190.754,49.652,41.779449,-0.870149,-0.870149,-42.649598,0.000000,0.619469,0.221301,0.414318,0.143239,0.385336,0.338065,1.110288,-0.444042,1.112216,0.752766,18.146520,-18.204622,36.351143,-0.058102,0.00009699,0.00000000,0.00009695,0.00000000,0.00000004,0.000000,0.000000,0.000000,0.000000,0.000000,0.000000,0.000000,0.000000,0.04820168,0.00259018,0.00214041,0.00290653,0.00045537,0.00000000,0.00000000,0.04010920,0.00021585,0.00107020,0.00116261,0.00091073,0.80218391,0.00000000,0.00000000
6.500,1,1,1,-531.634,190.773,49.640,41.509502,-0.892333,-0.892333,-42.401836,0.000000,0.622106,0.223653,0.418127,0.000000,0.399731,0.339485,1.092235,-1.031324,1.113238,0.759345,18.227616,-18.102569,36.330185,0.125047,0.00010580,0.00000000,0.00010576,0.00000000,0.00000004,0.000000,0.000000,0.000000,0.000000,0.000000,0.000000,0.000000,0.000000,0.04901489,0.00265412,0.00221313,0.00290653,0.00047158,0.00000000,0.00000000,0.04076953,0.00022118,0.00110657,0.00116261,0.00094315,0.81539059,0.00000000,0.00000000
6.600,1,1,1,-531.621,190.792,49.627,41.240729,-0.914652,-0.914652,-42.155381,0.000000,0.625397,0.225440,0.412262,0.372423,0.408602,0.340741,1.066800,-0.042972,1.105974,0.765098,18.360585,-18.016086,36.376671,0.344499,0.00011362,0.00000000,0.00011359,0.00000000,0.00000004,0.000000,0.000000,0.000000,0.000000,0.000000,0.000000,0.000000,0.000000,0.04981847,0.00271624,0.00228245,0.00291709,0.00047160,0.00000000,0.00000000,0.04143108,0.00022635,0.00114123,0.00116684,0.00094321,0.82862169,0.00000000,0.00000000
6.700,1,1,1,-531.608,190.811,49.615,40.973209,-0.937097,-0.937097,-41.910306,0.000000,0.629425,0.227360,0.399644,0.615930,0.411237,0.341724,1.034641,-1.131592,1.090562,0.769961,18.518401,-17.924560,36.442961,0.593841,0.00012004,0.00000000,0.00012000,0.00000000,0.00000004,0.000000,0.000000,0.000000,0.000000,0.000000,0.000000,0.000000,0.000000,0.05065488,0.00277463,0.00234769,0.00294599,0.00049111,0.00000000,0.00000000,0.04209546,0.00023122,0.00117384,0.00117840,0.00098222,0.84190920,0.00000000,0.00000000
6.800,1,1,1,-531.596,190.831,49.603,40.706998,-0.959611,-0.959611,-41.666609,0.000000,0.634145,0.204759,0.383897,0.730521,0.408154,0.342402,0.996119,-0.114592,1.067497,0.773881,19.714281,-17.828997,37.543278,1.885285,0.00012493,0.00000000,0.00012489,0.00000000,0.00000004,0.000000,0.000000,0.000000,0.000000,0.000000,0.000000,0.000000,0.000000,0.05151655,0.00282850,0.00240814,0.00298663,0.00049131,0.00000000,0.00000000,0.04280197,0.00023571,0.00120407,0.00119465,0.00098262,0.85603937,0.00000000,0.00000000
6.900,1,1,1,-531.583,190.850,49.590,40.442017,-0.982200,-0.982200,-41.424217,0.000000,0.639567,0.216422,0.364390,0.257831,0.399304,0.342741,0.951138,-1.274831,1.037403,0.776825,19.496686,-17.715725,37.212412,1.780961,0.00012804,0.00000000,0.00012800,0.00000000,0.00000004,0.000000,0.000000,0.000000,0.000000,0.000000,0.000000,0.000000,0.000000,0.05234425,0.00287706,0.00246327,0.00299169,0.00051607,0.00000000,0.00000000,0.04349616,0.00023975,0.00123163,0.00119668,0.00103215,0.86992326,0.00000000,0.00000000
7.000,1,1,1,-531.570,190.869,49.578,40.178222,-1.004911,-1.004911,-41.183133,0.000000,0.645661,0.223079,0.340910,0.071620,0.385061,0.342714,0.900244,-0.787817,1.000736,0.778782,19.529707,-17.612934,37.142641,1.916773,0.00012925,0.00000000,0.00012921,0.00000000,0.00000004,0.000000,0.000000,0.000000,0.000000,0.000000,0.000000,0.000000,0.000000,0.05313759,0.00291954,0.00251264,0.00299208,0.00052553,0.00000000,0.00000000,0.04418780,0.00024330,0.00125632,0.00119683,0.00105105,0.88375599,0.00000000,0.00000000
7.100,1,1,1,-531.557,190.889,49.565,39.915692,-1.027770,-1.027770,-40.943462,0.000000,0.652334,0.227815,0.311320,0.444042,0.366330,0.342280,0.844943,-0.257831,0.957995,0.779780,19.672111,-17.527684,37.199795,2.144426,0.00012862,0.00000000,0.00012858,0.00000000,0.00000004,0.000000,0.000000,0.000000,0.000000,0.000000,0.000000,0.000000,0.000000,0.05392667,0.00295496,0.00255613,0.00300710,0.00052654,0.00000000,0.00000000,0.04488193,0.00024625,0.00127807,0.00120284,0.00105308,0.89763862,0.00000000,0.00000000
7.200,1,1,1,-531.544,190.909,49.552,39.685768,-1.050797,-1.050797,-40.736565,0.000000,0.658689,0.230192,0.280651,-0.085944,0.345827,0.341477,0.793709,-0.329451,0.914890,0.779981,19.900661,-17.429688,37.330349,2.470973,0.00012692,0.00000000,0.00012688,0.00000000,0.00000004,0.000000,0.000000,0.000000,0.000000,0.000000,0.000000,0.000000,0.000000,0.05469598,0.00298376,0.00259452,0.00300766,0.00052819,0.00000000,0.00000000,0.04558185,0.00024865,0.00129726,0.00120306,0.00105638,0.91163696,0.00000000,0.00000000
7.300,1,1,1,-531.531,190.929,49.539,39.425613,-1.073982,-1.073982,-40.499595,0.000000,0.664015,0.224516,0.241900,0.716197,0.318817,0.340278,0.733481,-1.174563,0.862539,0.779346,20.417879,-17.358080,37.775960,3.059799,0.00013092,0.00000000,0.00013088,0.00000000,0.00000004,0.000000,0.000000,0.000000,0.000000,0.000000,0.000000,0.000000,0.000000,0.05552817,0.00300514,0.00262729,0.00304671,0.00054920,0.00000000,0.00000000,0.04629984,0.00025043,0.00131364,0.00121868,0.00109840,0.92599670,0.00000000,0.00000000
7.400,1,1,1,-531.517,190.948,49.526,39.166712,-1.097306,-1.097306,-40.264018,0.000000,0.669058,0.266903,0.202036,0.229183,0.287627,0.338744,0.671721,-1.546986,0.806493,0.777953,18.934389,-17.245493,36.179882,1.688896,0.00013619,0.00000000,0.00013614,0.00000000,0.00000004,0.000000,0.000000,0.000000,0.000000,0.000000,0.000000,0.000000,0.000000,0.05626691,0.00302006,0.00265477,0.00305071,0.00058565,0.00000000,0.00000000,0.04695571,0.00025167,0.00132739,0.00122028,0.00117129,0.93911422,0.00000000,0.00000000
7.500,1,1,1,-531.503,190.968,49.513,38.909078,-1.120726,-1.120726,-40.029804,0.000000,0.673657,0.253065,0.163043,0.028648,0.252890,0.336957,0.609735,-0.902409,0.747864,0.775895,19.800459,-17.144072,36.944531,2.656388,0.00014142,0.00000000,0.00014138,0.00000000,0.00000004,0.000000,0.000000,0.000000,0.000000,0.000000,0.000000,0.000000,0.000000,0.05699761,0.00302978,0.00267742,0.00305077,0.00059805,0.00000000,0.00000000,0.04764159,0.00025248,0.00133871,0.00122031,0.00119610,0.95283177,0.00000000,0.00000000
7.600,1,1,1,-531.490,190.988,49.499,38.652709,-1.144266,-1.144266,-39.796975,0.000000,0.677811,0.246502,0.119965,0.200535,0.215584,0.334963,0.548512,0.085944,0.687745,0.773269,20.321145,-17.054741,37.375885,3.266404,0.00014664,0.00000000,0.00014660,0.00000000,0.00000004,0.000000,0.000000,0.000000,0.000000,0.000000,0.000000,0.000000,0.000000,0.05772813,0.00303504,0.00269575,0.00305384,0.00059816,0.00000000,0.00000000,0.04834535,0.00025292,0.00134787,0.00122153,0.00119632,0.96690699,0.00000000,0.00000000
7.700,1,1,1,-531.476,191.009,49.486,38.397606,-1.167976,-1.167976,-39.565582,0.000000,0.681977,0.244089,0.072979,-1.017000,0.176806,0.332830,0.488117,-0.701873,0.627002,0.770162,20.659433,-16.922661,37.582093,3.736772,0.00015188,0.00000000,0.00015184,0.00000000,0.00000004,0.000000,0.000000,0.000000,0.000000,0.000000,0.000000,0.000000,0.000000,0.05854385,0.00303699,0.00271026,0.00313258,0.00060566,0.00000000,0.00000000,0.04905836,0.00025308,0.00135513,0.00125303,0.00121132,0.98116728,0.00000000,0.00000000
7.800,1,1,1,-531.461,191.029,49.472,38.143846,-1.191840,-1.191840,-39.335685,0.000000,0.686144,0.246943,0.025820,0.458366,0.137876,0.330646,0.429213,-0.143239,0.566376,0.766661,20.776713,-16.876786,37.653499,3.899927,0.00015714,0.00000000,0.00015710,0.00000000,0.00000004,0.000000,0.000000,0.000000,0.000000,0.000000,0.000000,0.000000,0.000000,0.05928820,0.00303723,0.00272149,0.00314858,0.00060597,0.00000000,0.00000000,0.04977493,0.00025310,0.00136074,0.00125943,0.00121195,0.99549851,0.00000000,0.00000000
7.900,1,1,1,-531.447,191.049,49.458,37.893126,-1.215815,-1.215815,-39.108941,0.000000,0.690274,0.247188,-0.018454,0.028648,0.100640,0.328499,0.373045,-1.045648,0.506674,0.762852,21.003217,-16.770122,37.773339,4.233095,0.00016245,0.00000000,0.00016241,0.00000000,0.00000004,0.000000,0.000000,0.000000,0.000000,0.000000,0.000000,0.000000,0.000000,0.06003580,0.00303735,0.00272996,0.00314865,0.00062262,0.00000000,0.00000000,0.05049721,0.00025311,0.00136498,0.00125946,0.00124525,1.00994419,0.00000000,0.00000000
8.000,1,1,1,-531.432,191.070,49.443,37.639945,-1.239909,-1.239909,-38.879854,0.000000,0.694448,0.248019,-0.060898,-0.200535,0.069394,0.326460,0.321041,-0.759169,0.448657,0.758818,21.207012,-16.670001,37.877014,4.537011,0.00016786,0.00000000,0.00016781,0.00000000,0.00000004,0.000000,0.000000,0.000000,0.000000,0.000000,0.000000,0.000000,0.000000,0.06078272,0.00303871,0.00273624,0.00315171,0.00063140,0.00000000,0.00000000,0.05122466,0.00025323,0.00136812,0.00126068,0.00126280,1.02449325,0.00000000,0.00000000
8.100,1,1,1,-531.417,191.091,49.429,37.385913,-1.264179,-1.264179,-38.650092,0.000000,0.698629,0.278224,-0.103683,0.444042,0.058108,0.324596,0.274435,-0.558634,0.393129,0.754632,20.201433,-16.596736,36.798169,3.604697,0.00017341,0.00000000,0.00017336,0.00000000,0.00000004,0.000000,0.000000,0.000000,0.000000,0.000000,0.000000,0.000000,0.000000,0.06149465,0.00304264,0.00274083,0.00316673,0.00063615,0.00000000,0.00000000,0.05190830,0.00025355,0.00137041,0.00126669,0.00127231,1.03816596,0.00000000,0.00000000
8.200,1,1,1,-531.401,191.111,49.413,37.141267,-1.288629,-1.288629,-38.429896,0.000000,0.702634,0.267249,-0.145871,0.673225,0.076629,0.322973,0.234578,0.386747,0.341152,0.750358,20.921001,-16.513641,37.434642,4.407361,0.00017915,0.00000000,0.00017911,0.00000000,0.00000005,0.000000,0.000000,0.000000,0.000000,0.000000,0.000000,0.000000,0.000000,0.06225309,0.00305042,0.00274418,0.00320125,0.00063843,0.00000000,0.00000000,0.05261881,0.00025420,0.00137209,0.00128050,0.00127687,1.05237623,0.00000000,0.00000000
8.300,1,1,1,-531.385,191.132,49.398,36.899969,-1.313223,-1.313223,-38.213193,0.000000,0.706558,0.267486,-0.186706,0.444042,0.109926,0.321643,0.201752,-1.203211,0.293892,0.746049,21.153590,-16.417904,37.571495,4.735686,0.00018512,0.00000000,0.00018508,0.00000000,0.00000005,0.000000,0.000000,0.000000,0.000000,0.000000,0.000000,0.000000,0.000000,0.06302230,0.00306316,0.00274666,0.00321626,0.00066048,0.00000000,0.00000000,0.05333574,0.00025526,0.00137333,0.00128650,0.00132096,1.06671473,0.00000000,0.00000000
8.400,1,1,1,-531.369,191.153,49.382,36.667095,-1.337914,-1.337914,-38.005009,0.000000,0.710308,0.263927,-0.220954,1.260507,0.143170,0.320605,0.177161,0.057296,0.256131,0.741740,21.532315,-16.359811,37.892127,5.172504,0.00019136,0.00000000,0.00019131,0.00000000,0.00000005,0.000000,0.000000,0.000000,0.000000,0.000000,0.000000,0.000000,0.000000,0.06389537,0.00308103,0.00274858,0.00333740,0.00066053,0.00000000,0.00000000,0.05406784,0.00025675,0.00137429,0.00133496,0.00132106,1.08135686,0.00000000,0.00000000
8.500,1,1,1,-531.352,191.174,49.366,36.430229,-1.362686,-1.362686,-37.792915,0.000000,0.714092,0.265742,-0.252872,-0.558634,0.179839,0.319874,0.156314,0.071620,0.220059,0.737460,21.684259,-16.217273,37.901532,5.466986,0.00019787,0.00000000,0.00019782,0.00000000,0.00000005,0.000000,0.000000,0.000000,0.000000,0.000000,0.000000,0.000000,0.000000,0.06467687,0.00310439,0.00275006,0.00336115,0.00066061,0.00000000,0.00000000,0.05480066,0.00025870,0.00137503,0.00134446,0.00132122,1.09601324,0.00000000,0.00000000
8.600,1,1,1,-531.335,191.195,49.350,36.177791,-1.387568,-1.387568,-37.565359,0.000000,0.718105,0.265008,-0.280916,0.587282,0.214522,0.319438,0.141589,-0.687549,0.190434,0.733219,21.952024,-16.163334,38.115358,5.788689,0.00020469,0.00000000,0.00020464,0.00000000,0.00000005,0.000000,0.000000,0.000000,0.000000,0.000000,0.000000,0.000000,0.000000,0.06548371,0.00313324,0.00275129,0.00338742,0.00066781,0.00000000,0.00000000,0.05554396,0.00026110,0.00137564,0.00135497,0.00133562,1.11087912,0.00000000,0.00000000
8.700,1,1,1,-531.318,191.216,49.333,35.924466,-1.412585,-1.412585,-37.337050,0.000000,0.722097,0.293160,-0.306935,0.630254,0.246494,0.319294,0.133653,-0.315127,0.167292,0.729037,21.026601,-16.071935,37.098535,4.954666,0.00021185,0.00000000,0.00021180,0.00000000,0.00000005,0.000000,0.000000,0.000000,0.000000,0.000000,0.000000,0.000000,0.000000,0.06625152,0.00316768,0.00275237,0.00341767,0.00066932,0.00000000,0.00000000,0.05624447,0.00026397,0.00137619,0.00136707,0.00133865,1.12488935,0.00000000,0.00000000
8.800,1,1,1,-531.300,191.237,49.315,35.693534,-1.437709,-1.437709,-37.131242,0.000000,0.725674,0.286141,-0.329492,0.644578,0.275309,0.319414,0.133714,-0.701873,0.150759,0.724929,21.566293,-15.990956,37.557249,5.575336,0.00021935,0.00000000,0.00021930,0.00000000,0.00000005,0.000000,0.000000,0.000000,0.000000,0.000000,0.000000,0.000000,0.000000,0.06705224,0.00320737,0.00275346,0.00344931,0.00067683,0.00000000,0.00000000,0.05696527,0.00026728,0.00137673,0.00137973,0.00135365,1.13930536,0.00000000,0.00000000
8.900,1,1,1,-531.282,191.259,49.298,35.465904,-1.462918,-1.462918,-36.928822,0.000000,0.729162,0.286118,-0.347652,-0.157563,0.300779,0.319753,0.142104,-0.759169,0.141439,0.720910,21.797912,-15.887046,37.684957,5.910866,0.00022720,0.00000000,0.00022715,0.00000000,0.00000005,0.000000,0.000000,0.000000,0.000000,0.000000,0.000000,0.000000,0.000000,0.06783620,0.00325156,0.00275469,0.00345121,0.00068561,0.00000000,0.00000000,0.05769313,0.00027096,0.00137735,0.00138048,0.00137121,1.15386259,0.00000000,0.00000000
9.000,1,1,1,-531.263,191.280,49.280,35.213857,-1.488194,-1.488194,-36.702051,0.000000,0.732691,0.284701,-0.360068,1.203211,0.322686,0.320240,0.157874,0.071620,0.140030,0.717001,22.084574,-15.839942,37.924515,6.244632,0.00023752,0.00000000,0.00023747,0.00000000,0.00000005,0.000000,0.000000,0.000000,0.000000,0.000000,0.000000,0.000000,0.000000,0.06873388,0.00329895,0.00275621,0.00356143,0.00068569,0.00000000,0.00000000,0.05843161,0.00027491,0.00137811,0.00142457,0.00137137,1.16863212,0.00000000,0.00000000
9.100,1,1,1,-531.244,191.301,49.261,34.960854,-1.513516,-1.513516,-36.474370,0.000000,0.734510,0.287672,-0.367095,1.117268,0.340493,0.320804,0.180201,0.529986,0.146812,0.713217,22.115237,-15.744835,37.860073,6.370402,0.00025922,0.00000000,0.00025918,0.00000000,0.00000005,0.000000,0.000000,0.000000,0.000000,0.000000,0.000000,0.000000,0.000000,0.06962163,0.00334822,0.00275819,0.00365652,0.00068996,0.00000000,0.00000000,0.05916875,0.00027902,0.00137910,0.00146261,0.00137993,1.18337492,0.00000000,0.00000000
9.200,1,1,1,-531.225,191.322,49.243,34.739002,-1.538881,-1.538881,-36.277883,0.000000,0.736330,0.290862,-0.369554,0.701873,0.353671,0.321387,0.208457,-0.343775,0.161373,0.709582,22.140608,-15.655898,37.796506,6.484710,0.00027835,0.00000000,0.00027831,0.00000000,0.00000005,0.000000,0.000000,0.000000,0.000000,0.000000,0.000000,0.000000,0.000000,0.07044918,0.00339816,0.00276084,0.00369405,0.00069177,0.00000000,0.00000000,0.05990437,0.00028318,0.00138042,0.00147762,0.00138353,1.19808730,0.00000000,0.00000000
9.300,1,1,1,-531.205,191.344,49.224,34.520411,-1.564303,-1.564303,-36.084714,0.000000,0.738642,0.310585,-0.368157,0.300803,0.362128,0.321937,0.241950,-0.386747,0.182801,0.706131,21.508052,-15.570424,37.078476,5.937628,0.00029450,0.00000000,0.00029445,0.00000000,0.00000005,0.000000,0.000000,0.000000,0.000000,0.000000,0.000000,0.000000,0.000000,0.07121591,0.00344767,0.00276440,0.00370093,0.00069404,0.00000000,0.00000000,0.06060887,0.00028731,0.00138220,0.00148037,0.00138808,1.21217732,0.00000000,0.00000000
9.400,1,1,1,-531.185,191.365,49.204,34.268543,-1.589757,-1.589757,-35.858300,0.000000,0.742056,0.305252,-0.362603,-0.028648,0.365950,0.322407,0.280301,-0.114592,0.210196,0.702890,21.975135,-15.472158,37.447293,6.502977,0.00030737,0.00000000,0.00030732,0.00000000,0.00000005,0.000000,0.000000,0.000000,0.000000,0.000000,0.000000,0.000000,0.000000,0.07199132,0.00349573,0.00276919,0.00370099,0.00069424,0.00000000,0.00000000,0.06133117,0.00029131,0.00138459,0.00148040,0.00138848,1.22662339,0.00000000,0.00000000
9.500,1,1,1,-531.165,191.386,49.184,34.015703,-1.615204,-1.615204,-35.630908,0.000000,0.746008,0.304287,-0.352858,-0.615930,0.365390,0.322749,0.323245,0.329451,0.242957,0.699908,22.269614,-15.366552,37.636165,6.903062,0.00031680,0.00000000,0.00031676,0.00000000,0.00000005,0.000000,0.000000,0.000000,0.000000,0.000000,0.000000,0.000000,0.000000,0.07280493,0.00354119,0.00277555,0.00372985,0.00069589,0.00000000,0.00000000,0.06206244,0.00029510,0.00138777,0.00149194,0.00139179,1.24124883,0.00000000,0.00000000
9.600,1,1,1,-531.144,191.408,49.164,33.802854,-1.640621,-1.640621,-35.443475,0.000000,0.749798,0.304121,-0.337716,0.128916,0.360587,0.322912,0.369978,1.160240,0.280518,0.697219,22.517796,-15.322812,37.840608,7.194983,0.00032256,0.00000000,0.00032251,0.00000000,0.00000005,0.000000,0.000000,0.000000,0.000000,0.000000,0.000000,0.000000,0.000000,0.07361881,0.00358290,0.00278389,0.00373112,0.00071640,0.00000000,0.00000000,0.06280450,0.00029857,0.00139195,0.00149245,0.00143280,1.25609009,0.00000000,0.00000000
9.700,1,1,1,-531.123,191.429,49.144,33.593260,-1.666016,-1.666016,-35.259276,0.000000,0.754061,0.302332,-0.317608,0.673225,0.351446,0.322857,0.419352,-0.085944,0.322251,0.694874,22.848172,-15.272111,38.120284,7.576061,0.00032419,0.00000000,0.00032414,0.00000000,0.00000005,0.000000,0.000000,0.000000,0.000000,0.000000,0.000000,0.000000,0.000000,0.07445605,0.00361976,0.00279460,0.00376562,0.00071651,0.00000000,0.00000000,0.06355955,0.00030165,0.00139730,0.00150625,0.00143303,1.27119099,0.00000000,0.00000000
9.800,1,1,1,-531.102,191.450,49.124,33.341522,-1.691414,-1.691414,-35.032936,0.000000,0.759575,0.302125,-0.294527,0.673225,0.337926,0.322575,0.470297,0.085944,0.367470,0.692910,23.159241,-15.182682,38.341923,7.976558,0.00032129,0.00000000,0.00032124,0.00000000,0.00000005,0.000000,0.000000,0.000000,0.000000,0.000000,0.000000,0.000000,0.000000,0.07530273,0.00365147,0.00280808,0.00380014,0.00071663,0.00000000,0.00000000,0.06432642,0.00030429,0.00140404,0.00152006,0.00143325,1.28652836,0.00000000,0.00000000
9.900,1,1,1,-531.081,191.471,49.103,33.088727,-1.716815,-1.716815,-34.805542,0.000000,0.765341,0.301861,-0.269146,0.014324,0.320298,0.322069,0.522305,-0.916732,0.415404,0.691365,23.479232,-15.073016,38.552249,8.406216,0.00031598,0.00000000,0.00031593,0.00000000,0.00000005,0.000000,0.000000,0.000000,0.000000,0.000000,0.000000,0.000000,0.000000,0.07613731,0.00367795,0.00282470,0.00380016,0.00072943,0.00000000,0.00000000,0.06510507,0.00030650,0.00141235,0.00152006,0.00145886,1.30210144,0.00000000,0.00000000
10.000,1,1,1,-531.059,191.492,49.082,32.936678,-1.742198,-1.742198,-34.678876,0.000000,0.767579,0.326136,-0.243550,1.059972,0.301236,0.321364,0.568674,0.071620,0.460183,0.690223,22.639696,-15.066192,37.705888,7.573504,0.00032488,0.00000000,0.00032483,0.00000000,0.00000005,0.000000,0.000000,0.000000,0.000000,0.000000,0.000000,0.000000,0.000000,0.07700441,0.00369965,0.00284441,0.00388577,0.00072951,0.00000000,0.00000000,0.06584506,0.00030830,0.00142221,0.00155431,0.00145902,1.31690129,0.00000000,0.00000000
10.100,1,1,1,-531.037,191.513,49.060,32.684837,-1.767539,-1.767539,-34.452375,0.000000,0.771525,0.316929,-0.211478,0.444042,0.276885,0.320443,0.621003,0.544310,0.511136,0.689558,23.281214,-14.957073,38.238287,8.324141,0.00033367,0.00000000,0.00033362,0.00000000,0.00000005,0.000000,0.000000,0.000000,0.000000,0.000000,0.000000,0.000000,0.000000,0.07782958,0.00371600,0.00286791,0.00390079,0.00073402,0.00000000,0.00000000,0.06661086,0.00030967,0.00143396,0.00156031,0.00146804,1.33221723,0.00000000,0.00000000
10.200,1,1,1,-531.014,191.534,49.038,32.431766,-1.792843,-1.792843,-34.224609,0.000000,0.775511,0.311882,-0.172837,0.515662,0.246732,0.319306,0.678948,0.042972,0.567938,0.689453,23.734875,-14.871080,38.605956,8.863795,0.00034230,0.00000000,0.00034225,0.00000000,0.00000005,0.000000,0.000000,0.000000,0.000000,0.000000,0.000000,0.000000,0.000000,0.07867251,0.00372691,0.00289597,0.00392102,0.00073405,0.00000000,0.00000000,0.06739456,0.00031058,0.00144798,0.00156841,0.00146810,1.34789130,0.00000000,0.00000000
10.300,1,1,1,-530.992,191.555,49.017,32.178741,-1.818116,-1.818116,-33.996857,0.000000,0.779513,0.309197,-0.137459,1.332127,0.216763,0.318016,0.728267,-0.515662,0.619414,0.689848,24.082962,-14.807178,38.890140,9.275783,0.00035077,0.00000000,0.00035072,0.00000000,0.00000005,0.000000,0.000000,0.000000,0.000000,0.000000,0.000000,0.000000,0.000000,0.07964996,0.00373381,0.00292827,0.00405613,0.00073810,0.00000000,0.00000000,0.06819364,0.00031115,0.00146414,0.00162245,0.00147620,1.36387289,0.00000000,0.00000000
10.400,1,1,1,-530.969,191.576,48.995,32.039118,-1.843345,-1.843345,-33.882463,0.000000,0.781606,0.308584,-0.104096,0.701873,0.188016,0.316619,0.769055,0.186211,0.664850,0.690669,24.263105,-14.751824,39.014929,9.511281,0.00035911,0.00000000,0.00035907,0.00000000,0.00000005,0.000000,0.000000,0.000000,0.000000,0.000000,0.000000,0.000000,0.000000,0.08053526,0.00373778,0.00296434,0.00409369,0.00073863,0.00000000,0.00000000,0.06900082,0.00031148,0.00148217,0.00163747,0.00147725,1.38001641,0.00000000,0.00000000
10.500,1,1,1,-530.946,191.597,48.972,31.786956,-1.868533,-1.868533,-33.655489,0.000000,0.785156,0.302316,-0.066025,0.658901,0.154603,0.315146,0.811497,0.472690,0.713560,0.691944,24.738000,-14.661447,39.399447,10.076554,0.00036737,0.00000000,0.00036733,0.00000000,0.00000005,0.000000,0.000000,0.000000,0.000000,0.000000,0.000000,0.000000,0.000000,0.08144016,0.00373937,0.00300445,0.00412674,0.00074203,0.00000000,0.00000000,0.06982756,0.00031161,0.00150223,0.00165070,0.00148406,1.39655128,0.00000000,0.00000000
10.600,1,1,1,-530.923,191.618,48.950,31.533676,-1.893701,-1.893701,-33.427377,0.000000,0.788286,0.314465,-0.027677,1.418071,0.120765,0.313636,0.849717,0.845113,0.759529,0.693634,24.430188,-14.595272,39.025460,9.834917,0.00037558,0.00000000,0.00037553,0.00000000,0.00000005,0.000000,0.000000,0.000000,0.000000,0.000000,0.000000,0.000000,0.000000,0.08245989,0.00373965,0.00304851,0.00428012,0.00075292,0.00000000,0.00000000,0.07063868,0.00031164,0.00152426,0.00171205,0.00150585,1.41277367,0.00000000,0.00000000
10.700,1,1,1,-530.900,191.638,48.927,31.344152,-1.918843,-1.918843,-33.262995,0.000000,0.790406,0.315001,0.011793,1.017000,0.088228,0.312144,0.883671,-0.444042,0.802001,0.695685,24.576191,-14.522809,39.099000,10.053382,0.00038377,0.00000000,0.00038372,0.00000000,0.00000005,0.000000,0.000000,0.000000,0.000000,0.000000,0.000000,0.000000,0.000000,0.08340259,0.00373970,0.00309600,0.00435875,0.00075592,0.00000000,0.00000000,0.07145221,0.00031164,0.00154800,0.00174350,0.00151185,1.42904420,0.00000000,0.00000000
10.800,1,1,1,-530.888,191.649,48.916,31.108234,-1.931902,-1.931902,-33.040136,0.000000,0.793660,0.295072,0.046629,1.432394,0.063266,0.310701,0.911163,-0.701873,0.836900,0.698030,25.613034,-14.447332,40.060366,11.165702,0.00038713,0.00000000,0.00038711,0.00000000,0.00000001,0.000000,0.000000,0.000000,0.000000,0.000000,0.000000,0.000000,0.000000,0.08448296,0.00374050,0.00314661,0.00451507,0.00076343,0.00000000,0.00000000,0.07231736,0.00031171,0.00157330,0.00180603,0.00152686,1.44634712,0.00000000,0.00000000
10.900,1,1,1,-530.864,191.670,48.893,30.983381,-1.957016,-1.957016,-32.940397,0.000000,0.794892,0.294876,0.080012,0.716197,0.050299,0.309343,0.933359,0.372423,0.868372,0.700593,25.728446,-14.396071,40.124517,11.332375,0.00039545,0.00000000,0.00039541,0.00000000,0.00000005,0.000000,0.000000,0.000000,0.000000,0.000000,0.000000,0.000000,0.000000,0.08544782,0.00374284,0.00319963,0.00455410,0.00076554,0.00000000,0.00000000,0.07318571,0.00031190,0.00159981,0.00182164,0.00153108,1.46371424,0.00000000,0.00000000
11.000,1,1,1,-530.841,191.690,48.870,30.730736,-1.982144,-1.982144,-32.712880,0.000000,0.798284,0.299412,0.115563,1.246183,0.059929,0.308109,0.953347,0.214859,0.899049,0.703350,25.744849,-14.322374,40.067223,11.422475,0.00040390,0.00000000,0.00040385,0.00000000,0.00000005,0.000000,0.000000,0.000000,0.000000,0.000000,0.000000,0.000000,0.000000,0.08649493,0.00374772,0.00325500,0.00467236,0.00076624,0.00000000,0.00000000,0.07405361,0.00031231,0.00162750,0.00186894,0.00153249,1.48107216,0.00000000,0.00000000
11.100,1,1,1,-530.817,191.711,48.847,30.476958,-2.007262,-2.007262,-32.484221,0.000000,0.801775,0.307377,0.149760,1.690225,0.086043,0.307027,0.967642,0.515662,0.924853,0.706224,25.632676,-14.244044,39.876720,11.388631,0.00041255,0.00000000,0.00041250,0.00000000,0.00000005,0.000000,0.000000,0.000000,0.000000,0.000000,0.000000,0.000000,0.000000,0.08764161,0.00375592,0.00331204,0.00488990,0.00077029,0.00000000,0.00000000,0.07491346,0.00031299,0.00165602,0.00195596,0.00154059,1.49826921,0.00000000,0.00000000
11.200,1,1,1,-530.793,191.731,48.823,30.314625,-2.032370,-2.032370,-32.346994,0.000000,0.803844,0.308763,0.180946,0.444042,0.114035,0.306115,0.975670,-0.243507,0.943672,0.709136,25.743910,-14.157410,39.901320,11.586500,0.00042145,0.00000000,0.00042140,0.00000000,0.00000005,0.000000,0.000000,0.000000,0.000000,0.000000,0.000000,0.000000,0.000000,0.08859109,0.00376789,0.00337006,0.00490493,0.00077120,0.00000000,0.00000000,0.07577702,0.00031399,0.00168503,0.00196197,0.00154239,1.51554036,0.00000000,0.00000000
11.300,1,1,1,-530.769,191.752,48.800,30.060630,-2.057490,-2.057490,-32.118120,0.000000,0.807498,0.407259,0.210020,0.257831,0.145794,0.305384,0.979357,-0.171887,0.959424,0.712029,21.921961,-14.061474,35.983435,7.860486,0.00043065,0.00000000,0.00043060,0.00000000,0.00000005,0.000000,0.000000,0.000000,0.000000,0.000000,0.000000,0.000000,0.000000,0.08934955,0.00378401,0.00342850,0.00490999,0.00077165,0.00000000,0.00000000,0.07645540,0.00031533,0.00171425,0.00196400,0.00154329,1.52910800,0.00000000,0.00000000
11.400,1,1,1,-530.744,191.773,48.777,29.885156,-2.082574,-2.082574,-31.967730,0.000000,0.809915,0.369755,0.238493,1.203211,0.176816,0.304852,0.978653,-0.630254,0.969738,0.714849,23.768675,-14.038608,37.807283,9.730067,0.00044016,0.00000000,0.00044011,0.00000000,0.00000005,0.000000,0.000000,0.000000,0.000000,0.000000,0.000000,0.000000,0.000000,0.09030690,0.00380480,0.00348684,0.00502022,0.00077770,0.00000000,0.00000000,0.07721733,0.00031707,0.00174342,0.00200809,0.00155539,1.54434668,0.00000000,0.00000000
11.500,1,1,1,-530.720,191.793,48.753,29.712792,-2.107583,-2.107583,-31.820374,0.000000,0.812359,0.346568,0.261795,0.601606,0.205889,0.304497,0.973640,0.329451,0.975043,0.717549,24.954339,-13.966125,38.920464,10.988214,0.00045000,0.00000000,0.00044996,0.00000000,0.00000005,0.000000,0.000000,0.000000,0.000000,0.000000,0.000000,0.000000,0.000000,0.09123665,0.00382985,0.00354459,0.00504779,0.00077935,0.00000000,0.00000000,0.07803506,0.00031915,0.00177230,0.00201911,0.00155870,1.56070125,0.00000000,0.00000000
11.600,1,1,1,-530.696,191.813,48.730,29.459501,-2.132529,-2.132529,-31.592031,0.000000,0.816249,0.333551,0.280139,0.300803,0.231978,0.304292,0.962209,-0.085944,0.975339,0.720057,25.741445,-13.864343,39.605787,11.877102,0.00046018,0.00000000,0.00046014,0.00000000,0.00000005,0.000000,0.000000,0.000000,0.000000,0.000000,0.000000,0.000000,0.000000,0.09218368,0.00385854,0.00360101,0.00505468,0.00077946,0.00000000,0.00000000,0.07888999,0.00032155,0.00180050,0.00202187,0.00155892,1.57779974,0.00000000,0.00000000
11.700,1,1,1,-530.672,191.834,48.706,29.205089,-2.157415,-2.157415,-31.362503,0.000000,0.820254,0.326747,0.296474,0.286479,0.255039,0.304225,0.943279,-0.458366,0.970231,0.722294,26.257546,-13.771536,40.029081,12.486010,0.00047067,0.00000000,0.00047062,0.00000000,0.00000005,0.000000,0.000000,0.000000,0.000000,0.000000,0.000000,0.000000,0.000000,0.09315824,0.00389066,0.00365519,0.00506093,0.00078266,0.00000000,0.00000000,0.07976880,0.00032422,0.00182760,0.00202437,0.00156532,1.59537593,0.00000000,0.00000000
