t,controller_id,state_code,wp_idx,x,y,dist,yaw_deg,yaw_to_wp_deg,yaw_ref_deg,yaw_err_deg,yaw_rate_deg_s,speed_ref,speed_meas,roll_deg,roll_rate_deg_s,roll_rms_window_deg,roll_rms_total_deg,pitch_deg,pitch_rate_deg_s,pitch_rms_window_deg,pitch_rms_total_deg,base_cmd,diff_cmd,T_left,T_right,J_inst,J_goal,J_wave_roll,J_progress,J_smooth,J_mpc_distance,J_mpc_final,J_mpc_heading,J_mpc_wrong_way,J_mpc_pitch,J_mpc_control,J_mpc_slew,J_mpc_turn,J_total,J_roll,J_pitch,J_roll_rate,J_pitch_rate,J_goal_heading,J_no_progress,J_control,I_roll,I_pitch,I_roll_rate,I_pitch_rate,I_control,I_no_progress,I_goal_heading
0.200,1,1,1,-531.999,189.992,49.999,56.073452,0.008900,0.008900,-56.064552,0.000000,0.390698,0.000000,-0.412508,1.532662,0.622902,0.000000,-0.001107,2.062648,0.190295,0.000000,0.000000,-5.000000,5.000000,-5.000000,0.00000002,0.00000000,0.00000002,0.00000000,0.00000001,0.000000,0.000000,0.000000,0.000000,0.000000,0.000000,0.000000,0.000000,0.00000000,0.00000000,0.00000000,0.00000000,0.00000000,0.00000000,0.00000000,0.00000000,0.00000000,0.00000000,0.00000000,0.00000000,0.00000000,0.00000000,0.00000000
0.315,1,1,1,-531.999,189.992,49.999,56.073452,0.008900,0.008900,-56.064552,0.000000,0.390698,0.000000,-0.412508,1.532662,0.622902,0.412508,-0.001107,2.062648,0.190295,0.001107,0.000000,-10.000000,10.000000,-10.000000,0.00000002,0.00000000,0.00000002,0.00000000,0.00000000,0.000000,0.000000,0.000000,0.000000,0.000000,0.000000,0.000000,0.000000,0.00046541,0.00007132,0.00000000,0.00020512,0.00007430,0.00000000,0.00000000,0.00011466,0.00000594,0.00000000,0.00008205,0.00014860,0.00229327,0.00000000,0.00000000
0.400,1,1,1,-531.994,189.983,49.994,55.959562,0.020023,0.020023,-55.939539,0.000000,0.402059,0.016530,0.047168,3.294507,0.477894,0.313840,0.413091,2.034000,0.219218,0.269858,1.789542,-13.210458,15.000000,-11.420917,0.00000007,0.00000000,0.00000006,0.00000000,0.00000001,0.000000,0.000000,0.000000,0.000000,0.000000,0.000000,0.000000,0.000000,0.00138602,0.00007202,0.00000887,0.00091067,0.00012809,0.00000000,0.00000000,0.00026636,0.00000600,0.00000444,0.00036427,0.00025618,0.00532727,0.00000000,0.00000000
0.500,1,1,1,-531.992,189.978,49.992,55.878553,0.025293,0.025293,-55.853260,0.000000,0.408285,0.030800,0.285317,3.495043,0.391282,0.304624,0.640274,2.435071,0.314044,0.430415,4.170543,-15.829457,20.000000,-11.658914,0.00000009,0.00000000,0.00000008,0.00000000,0.00000000,0.000000,0.000000,0.000000,0.000000,0.000000,0.000000,0.000000,0.000000,0.00273047,0.00010180,0.00003387,0.00184175,0.00021848,0.00000000,0.00000000,0.00053457,0.00000848,0.00001694,0.00073670,0.00043696,0.01069133,0.00000000,0.00000000
0.600,1,1,1,-531.990,189.974,49.990,55.777804,0.030196,0.030196,-55.747607,0.000000,0.413586,0.039432,0.515992,2.048324,0.314023,0.368950,0.874039,2.062648,0.470401,0.574293,6.697018,-18.302982,25.000000,-11.605965,0.00000010,0.00000000,0.00000010,0.00000000,0.00000000,0.000000,0.000000,0.000000,0.000000,0.000000,0.000000,0.000000,0.000000,0.00363786,0.00019906,0.00008038,0.00216104,0.00028324,0.00000000,0.00000000,0.00091415,0.00001659,0.00004019,0.00086442,0.00056647,0.01828299,0.00000000,0.00000000
0.700,1,1,1,-531.987,189.970,49.987,55.655546,0.034365,0.034365,-55.621181,0.000000,0.408993,0.041411,0.748143,2.320479,0.384196,0.469895,1.132221,2.306155,0.669923,0.721208,9.143049,-20.856951,30.000000,-11.713902,0.00000015,0.00000000,0.00000015,0.00000000,0.00000000,0.000000,0.000000,0.000000,0.000000,0.000000,0.000000,0.000000,0.000000,0.00492957,0.00040355,0.00015844,0.00257089,0.00036420,0.00000000,0.00000000,0.00143249,0.00003363,0.00007922,0.00102836,0.00072840,0.02864982,0.00000000,0.00000000
0.800,1,1,1,-531.984,189.967,49.984,55.510361,0.037626,0.037626,-55.472735,0.000000,0.397665,0.041129,0.981895,2.778845,0.556547,0.587092,1.411841,2.277507,0.897917,0.875012,11.507983,-23.492017,35.000000,-11.984035,0.00000026,0.00000000,0.00000026,0.00000000,0.00000000,0.000000,0.000000,0.000000,0.000000,0.000000,0.000000,0.000000,0.000000,0.00675459,0.00075593,0.00027986,0.00315889,0.00044319,0.00000000,0.00000000,0.00211672,0.00006299,0.00013993,0.00126355,0.00088638,0.04233436,0.00000000,0.00000000
0.900,1,1,1,-531.981,189.965,49.981,55.362415,0.040214,0.040214,-55.322201,0.000000,0.385670,0.038906,1.178040,3.452071,0.740091,0.702710,1.648730,1.733197,1.118220,1.022156,12.753066,-24.938969,37.692035,-12.185903,0.00000040,0.00000000,0.00000040,0.00000000,0.00000000,0.000000,0.000000,0.000000,0.000000,0.000000,0.000000,0.000000,0.000000,0.00916734,0.00126364,0.00044561,0.00406715,0.00048898,0.00000000,0.00000000,0.00290196,0.00010530,0.00022281,0.00162686,0.00097796,0.05803913,0.00000000,0.00000000
1.000,1,1,1,-531.980,189.964,49.980,55.211044,0.041342,0.041342,-55.169702,0.000000,0.374908,0.034424,1.339826,2.334803,0.908065,0.810185,1.833061,2.034000,1.317126,1.155031,12.490630,-24.665767,37.156397,-12.175137,0.00000052,0.00000000,0.00000052,0.00000000,0.00000000,0.000000,0.000000,0.000000,0.000000,0.000000,0.000000,0.000000,0.000000,0.01126999,0.00191958,0.00065024,0.00448213,0.00055197,0.00000000,0.00000000,0.00366607,0.00015997,0.00032512,0.00179285,0.00110394,0.07332149,0.00000000,0.00000000
1.100,1,1,1,-531.978,189.962,49.978,55.000251,0.043622,0.043622,-54.956630,0.000000,0.362121,0.031622,1.516677,1.618606,1.113290,0.915986,2.011051,1.389423,1.556152,1.278746,12.097724,-24.403776,36.501500,-12.306053,0.00000070,0.00000000,0.00000070,0.00000000,0.00000000,0.000000,0.000000,0.000000,0.000000,0.000000,0.000000,0.000000,0.000000,0.01332779,0.00276033,0.00089660,0.00468162,0.00058137,0.00000000,0.00000000,0.00440788,0.00023003,0.00044830,0.00187265,0.00116274,0.08815755,0.00000000,0.00000000
1.200,1,1,1,-531.977,189.960,49.977,54.768522,0.045752,0.045752,-54.722770,0.000000,0.350567,0.026734,1.669851,1.733197,1.306008,1.016833,2.149300,1.575634,1.772097,1.390536,11.863477,-24.176500,36.039977,-12.313023,0.00000091,0.00000000,0.00000091,0.00000000,0.00000000,0.000000,0.000000,0.000000,0.000000,0.000000,0.000000,0.000000,0.000000,0.01562010,0.00377950,0.00117801,0.00491036,0.00061918,0.00000000,0.00000000,0.00513305,0.00031496,0.00058900,0.00196414,0.00123836,0.10266099,0.00000000,0.00000000
1.300,1,1,1,-531.976,189.959,49.976,54.518899,0.047338,0.047338,-54.471561,0.000000,0.340552,0.021664,1.802552,1.446718,1.481144,1.111462,2.280420,1.145916,1.959190,1.493514,11.713273,-23.943782,35.657056,-12.230509,0.00000110,0.00000000,0.00000110,0.00000000,0.00000000,0.000000,0.000000,0.000000,0.000000,0.000000,0.000000,0.000000,0.000000,0.01801470,0.00496730,0.00149485,0.00506976,0.00063918,0.00000000,0.00000000,0.00584361,0.00041394,0.00074743,0.00202790,0.00127836,0.11687212,0.00000000,0.00000000
1.400,1,1,1,-531.976,189.958,49.976,54.253991,0.047998,0.047998,-54.205993,0.000000,0.332230,0.015570,1.909214,1.761845,1.635116,1.198414,2.418149,0.587282,2.120283,1.591240,11.683218,-23.736328,35.419546,-12.053109,0.00000125,0.00000000,0.00000125,0.00000000,0.00000000,0.000000,0.000000,0.000000,0.000000,0.000000,0.000000,0.000000,0.000000,0.02064546,0.00630000,0.00185117,0.00530620,0.00064443,0.00000000,0.00000000,0.00654366,0.00052500,0.00092559,0.00212248,0.00128887,0.13087314,0.00000000,0.00000000
1.500,1,1,1,-531.976,189.958,49.976,53.975894,0.047767,0.047767,-53.928127,0.000000,0.325708,0.010160,1.980648,1.145916,1.764960,1.275708,2.545231,0.372423,2.262711,1.683896,11.702187,-23.503877,35.206064,-11.801690,0.00000134,0.00000000,0.00000134,0.00000000,0.00000000,0.000000,0.000000,0.000000,0.000000,0.000000,0.000000,0.000000,0.000000,0.02326485,0.00773358,0.00224573,0.00540617,0.00064655,0.00000000,0.00000000,0.00723283,0.00064446,0.00112286,0.00216247,0.00129309,0.14465653,0.00000000,0.00000000
1.600,1,1,1,-531.976,189.959,49.976,53.686324,0.047079,0.047079,-53.639245,0.000000,0.321154,0.009968,2.013873,1.160240,1.867720,1.341967,2.632063,-0.085944,2.390453,1.768561,11.588323,-23.295698,34.884021,-11.707376,0.00000138,0.00000000,0.00000138,0.00000000,0.00000000,0.000000,0.000000,0.000000,0.000000,0.000000,0.000000,0.000000,0.000000,0.02594901,0.00921608,0.00266779,0.00550868,0.00064666,0.00000000,0.00000000,0.00790980,0.00076801,0.00133389,0.00220347,0.00129332,0.15819595,0.00000000,0.00000000
1.700,1,1,1,-531.978,189.960,49.978,53.386881,0.046385,0.046385,-53.340496,0.000000,0.318816,0.009980,2.013501,0.372423,1.940602,1.396814,2.662217,-0.544310,2.499006,1.841675,11.562008,-23.065992,34.628001,-11.503984,0.00000139,0.00000000,0.00000139,0.00000000,0.00000000,0.000000,0.000000,0.000000,0.000000,0.000000,0.000000,0.000000,0.000000,0.02854341,0.01069797,0.00309955,0.00551925,0.00065117,0.00000000,0.00000000,0.00857548,0.00089150,0.00154978,0.00220770,0.00130234,0.17150960,0.00000000,0.00000000
1.800,1,1,1,-531.981,189.960,49.981,53.079110,0.045827,0.045827,-53.033283,0.000000,0.318944,0.018451,1.984186,-1.360775,1.981689,1.440553,2.640362,-1.102944,2.577861,1.901440,11.289944,-22.812682,34.102626,-11.522737,0.00000138,0.00000000,0.00000138,0.00000000,0.00000000,0.000000,0.000000,0.000000,0.000000,0.000000,0.000000,0.000000,0.000000,0.03121433,0.01213690,0.00352422,0.00566024,0.00066970,0.00000000,0.00000000,0.00922327,0.00101141,0.00176211,0.00226410,0.00133939,0.18446546,0.00000000,0.00000000
1.900,1,1,1,-531.985,189.961,49.985,52.764448,0.045234,0.045234,-52.719214,0.000000,0.321698,0.027121,1.925252,-0.358099,1.990483,1.473485,2.580741,-1.446718,2.617373,1.947968,11.125941,-22.649969,33.775911,-11.524028,0.00000135,0.00000000,0.00000135,0.00000000,0.00000000,0.000000,0.000000,0.000000,0.000000,0.000000,0.000000,0.000000,0.000000,0.03365345,0.01349180,0.00392998,0.00567001,0.00070157,0.00000000,0.00000000,0.00986008,0.00112432,0.00196499,0.00226800,0.00140315,0.19720152,0.00000000,0.00000000
2.000,1,1,1,-531.990,189.961,49.990,52.444051,0.044384,0.044384,-52.399667,0.000000,0.327130,0.035548,1.832937,-0.429718,1.967620,1.495722,2.491652,-1.017000,2.613728,1.982088,11.085472,-22.452789,33.538262,-11.367317,0.00000129,0.00000000,0.00000129,0.00000000,0.00000000,0.000000,0.000000,0.000000,0.000000,0.000000,0.000000,0.000000,0.000000,0.03591650,0.01471984,0.00430820,0.00568407,0.00071733,0.00000000,0.00000000,0.01048706,0.00122665,0.00215410,0.00227363,0.00143465,0.20974130,0.00000000,0.00000000
2.100,1,1,1,-531.995,189.962,49.995,52.118845,0.043226,0.043226,-52.075619,0.000000,0.335245,0.044641,1.707030,-1.174563,1.913984,1.507584,2.371873,-2.034000,2.569117,2.004497,11.126861,-22.236661,33.363521,-11.109800,0.00000119,0.00000000,0.00000119,0.00000000,0.00000000,0.000000,0.000000,0.000000,0.000000,0.000000,0.000000,0.000000,0.000000,0.03811111,0.01578518,0.00465100,0.00578915,0.00078035,0.00000000,0.00000000,0.01110544,0.00131543,0.00232550,0.00231566,0.00156070,0.22210878,0.00000000,0.00000000
2.200,1,1,1,-532.001,189.963,50.001,51.789702,0.041848,0.041848,-51.747854,0.000000,0.346050,0.052884,1.552566,-0.358099,1.830258,1.509865,2.218788,-1.948057,2.488485,2.015753,11.310595,-22.071932,33.382527,-10.761337,0.00000107,0.00000000,0.00000107,0.00000000,0.00000000,0.000000,0.000000,0.000000,0.000000,0.000000,0.000000,0.000000,0.000000,0.03997494,0.01666636,0.00495094,0.00579891,0.00083815,0.00000000,0.00000000,0.01172058,0.00138886,0.00247547,0.00231957,0.00167630,0.23441151,0.00000000,0.00000000
2.300,1,1,1,-532.008,189.965,50.008,51.457394,0.040306,0.040306,-51.417089,0.000000,0.359548,0.060443,1.375446,-2.034000,1.717386,1.503737,2.035320,-2.105620,2.376120,2.016689,11.626381,-21.830783,33.457163,-10.204402,0.00000093,0.00000000,0.00000093,0.00000000,0.00000000,0.000000,0.000000,0.000000,0.000000,0.000000,0.000000,0.000000,0.000000,0.04191300,0.01735783,0.00520329,0.00611394,0.00090567,0.00000000,0.00000000,0.01233226,0.00144649,0.00260165,0.00244558,0.00181135,0.24664525,0.00000000,0.00000000
2.400,1,1,1,-532.015,189.966,50.015,51.122632,0.038538,0.038538,-51.084094,0.000000,0.375686,0.056304,1.178568,-2.334803,1.577351,1.490498,1.827963,-2.678578,2.234535,2.008496,12.523276,-21.638503,34.161779,-9.115227,0.00000078,0.00000000,0.00000078,0.00000000,0.00000000,0.000000,0.000000,0.000000,0.000000,0.000000,0.000000,0.000000,0.000000,0.04377359,0.01786552,0.00540684,0.00652904,0.00101494,0.00000000,0.00000000,0.01295725,0.00148879,0.00270342,0.00261162,0.00202988,0.25914505,0.00000000,0.00000000
2.500,1,1,1,-532.023,189.968,50.023,50.786072,0.036443,0.036443,-50.749629,0.000000,0.388397,0.067469,0.962628,-2.320479,1.413464,1.471486,1.599879,-2.606958,2.065515,1.992471,12.623823,-21.458111,34.081935,-8.834288,0.00000066,0.00000000,0.00000066,0.00000000,0.00000000,0.000000,0.000000,0.000000,0.000000,0.000000,0.000000,0.000000,0.000000,0.04540195,0.01820431,0.00556281,0.00693918,0.00111847,0.00000000,0.00000000,0.01357718,0.00151703,0.00278141,0.00277567,0.00223694,0.27154359,0.00000000,0.00000000
2.600,1,1,1,-532.031,189.970,50.031,50.448241,0.034002,0.034002,-50.414239,0.000000,0.395084,0.074952,0.730599,-0.859437,1.229957,1.448210,1.349328,-2.707226,1.871314,1.969876,12.631392,-21.323429,33.954821,-8.692038,0.00000057,0.00000000,0.00000057,0.00000000,0.00000000,0.000000,0.000000,0.000000,0.000000,0.000000,0.000000,0.000000,0.000000,0.04648980,0.01839937,0.00567370,0.00699541,0.00123007,0.00000000,0.00000000,0.01419124,0.00153328,0.00283685,0.00279816,0.00246013,0.28382488,0.00000000,0.00000000
2.700,1,1,1,-532.039,189.973,50.039,50.109580,0.031293,0.031293,-50.078287,0.000000,0.401641,0.079506,0.487215,-1.303479,1.031461,1.422292,1.075150,-4.196916,1.654895,1.942018,12.759960,-21.128749,33.888708,-8.368789,0.00000047,0.00000000,0.00000047,0.00000000,0.00000000,0.000000,0.000000,0.000000,0.000000,0.000000,0.000000,0.000000,0.000000,0.04765388,0.01848614,0.00574413,0.00712480,0.00149834,0.00000000,0.00000000,0.01480048,0.00154051,0.00287206,0.00284992,0.00299668,0.29600952,0.00000000,0.00000000
2.800,1,1,1,-532.048,189.975,50.048,49.770510,0.028345,0.028345,-49.742166,0.000000,0.408515,0.083773,0.237525,-2.907761,0.823531,1.395441,0.782626,-2.836141,1.419682,1.910471,12.914678,-20.903039,33.817717,-7.988361,0.00000038,0.00000000,0.00000038,0.00000000,0.00000000,0.000000,0.000000,0.000000,0.000000,0.000000,0.000000,0.000000,0.000000,0.04908237,0.01850677,0.00578145,0.00776888,0.00162089,0.00000000,0.00000000,0.01540438,0.00154223,0.00289073,0.00310755,0.00324178,0.30808755,0.00000000,0.00000000
2.900,1,1,1,-532.056,189.978,50.056,49.431471,0.025059,0.025059,-49.406412,0.000000,0.415555,0.085067,-0.014292,-1.948057,0.615521,1.369368,0.483630,-3.036676,1.170073,1.877079,13.198942,-20.763051,33.961993,-7.564109,0.00000029,0.00000000,0.00000029,0.00000000,0.00000000,0.000000,0.000000,0.000000,0.000000,0.000000,0.000000,0.000000,0.000000,0.05013107,0.01850684,0.00579570,0.00805777,0.00176129,0.00000000,0.00000000,0.01600947,0.00154224,0.00289785,0.00322311,0.00352258,0.32018940,0.00000000,0.00000000
3.000,1,1,1,-532.064,189.981,50.064,49.119858,0.021280,0.021280,-49.098578,0.000000,0.422229,0.085767,-0.244820,-0.859437,0.445808,1.345480,0.213445,-3.652606,0.938895,1.843684,13.489263,-20.642716,34.131979,-7.153453,0.00000021,0.00000000,0.00000021,0.00000000,0.00000000,0.000000,0.000000,0.000000,0.000000,0.000000,0.000000,0.000000,0.000000,0.05102360,0.01852876,0.00579847,0.00811404,0.00196456,0.00000000,0.00000000,0.01661777,0.00154406,0.00289924,0.00324562,0.00392912,0.33235531,0.00000000,0.00000000
3.100,1,1,1,-532.071,189.985,50.071,48.781644,0.016913,0.016913,-48.764731,0.000000,0.429133,0.076861,-0.490468,-2.091296,0.330188,1.325209,-0.068796,-2.707226,0.687200,1.811658,14.182041,-20.436023,34.618064,-6.253983,0.00000013,0.00000000,0.00000013,0.00000000,0.00000000,0.000000,0.000000,0.000000,0.000000,0.000000,0.000000,0.000000,0.000000,0.05217545,0.01861671,0.00579876,0.00844715,0.00207621,0.00000000,0.00000000,0.01723662,0.00155139,0.00289938,0.00337886,0.00415241,0.34473242,0.00000000,0.00000000
3.200,1,1,1,-532.078,189.990,50.078,48.444152,0.011982,0.011982,-48.432171,0.000000,0.435757,0.078784,-0.727010,-2.664254,0.373215,1.309679,-0.339042,-2.836141,0.469577,1.782283,14.403275,-20.256962,34.660237,-5.853687,0.00000007,0.00000000,0.00000006,0.00000000,0.00000000,0.000000,0.000000,0.000000,0.000000,0.000000,0.000000,0.000000,0.000000,0.05365651,0.01880991,0.00580577,0.00898771,0.00219872,0.00000000,0.00000000,0.01785441,0.00156749,0.00290288,0.00359508,0.00439744,0.35708822,0.00000000,0.00000000
3.300,1,1,1,-532.084,189.994,50.084,48.107628,0.006557,0.006557,-48.101072,0.000000,0.441975,0.078344,-0.950160,-2.277507,0.534363,1.299636,-0.598475,-2.965057,0.362177,1.756596,14.708111,-20.112480,34.820591,-5.404370,0.00000002,0.00000000,0.00000002,0.00000000,0.00000000,0.000000,0.000000,0.000000,0.000000,0.000000,0.000000,0.000000,0.000000,0.05515789,0.01913988,0.00582758,0.00938267,0.00233260,0.00000000,0.00000000,0.01847516,0.00159499,0.00291379,0.00375307,0.00466520,0.36950327,0.00000000,0.00000000
3.400,1,1,1,-532.089,189.999,50.089,47.772252,0.000676,0.000676,-47.771576,0.000000,0.447696,0.077197,-1.157007,-2.463719,0.732418,1.295417,-0.844248,-2.349127,0.441946,1.735363,15.021814,-19.953062,34.974876,-4.931248,0.00000000,0.00000000,0.00000000,0.00000000,0.00000000,0.000000,0.000000,0.000000,0.000000,0.000000,0.000000,0.000000,0.000000,0.05686059,0.01962917,0.00587100,0.00984488,0.00241665,0.00000000,0.00000000,0.01909889,0.00163576,0.00293550,0.00393795,0.00483329,0.38197784,0.00000000,0.00000000
3.500,1,1,1,-532.094,190.005,50.094,47.438133,-0.005707,-0.005707,-47.443840,0.000000,0.452863,0.075483,-1.345095,-1.260507,0.935149,1.296950,-1.069143,-2.349127,0.627506,1.718969,15.336159,-19.840484,35.176643,-4.504325,0.00000002,0.00000000,0.00000001,0.00000000,0.00000000,0.000000,0.000000,0.000000,0.000000,0.000000,0.000000,0.000000,0.000000,0.05842583,0.02029068,0.00594066,0.00996591,0.00250071,0.00000000,0.00000000,0.01972787,0.00169089,0.00297033,0.00398636,0.00500143,0.39455740,0.00000000,0.00000000
3.600,1,1,1,-532.098,190.011,50.098,47.105307,-0.012663,-0.012663,-47.117970,0.000000,0.457458,0.073846,-1.511564,-1.618606,1.130168,1.303766,-1.265253,-1.604282,0.836600,1.707347,15.624177,-19.680992,35.305169,-4.056815,0.00000007,0.00000000,0.00000007,0.00000000,0.00000000,0.000000,0.000000,0.000000,0.000000,0.000000,0.000000,0.000000,0.000000,0.06022853,0.02112579,0.00603818,0.01016540,0.00253991,0.00000000,0.00000000,0.02035926,0.00176048,0.00301909,0.00406616,0.00507982,0.40718515,0.00000000,0.00000000
3.700,1,1,1,-532.100,190.018,50.100,46.773783,-0.020225,-0.020225,-46.794008,0.000000,0.460878,0.066311,-1.653396,-0.014324,1.310894,1.315049,-1.427652,-1.375099,1.039481,1.699993,16.108109,-19.587089,35.695197,-3.478980,0.00000018,0.00000000,0.00000018,0.00000000,0.00000000,0.000000,0.000000,0.000000,0.000000,0.000000,0.000000,0.000000,0.000000,0.06202434,0.02212530,0.00616238,0.01016542,0.00256872,0.00000000,0.00000000,0.02100253,0.00184377,0.00308119,0.00406617,0.00513743,0.42005057,0.00000000,0.00000000
3.800,1,1,1,-532.102,190.025,50.102,46.443563,-0.028379,-0.028379,-46.471942,0.000000,0.451034,0.069355,-1.768455,-1.317803,1.472961,1.329731,-1.554725,-1.074296,1.223504,1.696126,15.605423,-19.404571,35.009994,-3.799149,0.00000040,0.00000000,0.00000039,0.00000000,0.00000001,0.000000,0.000000,0.000000,0.000000,0.000000,0.000000,0.000000,0.000000,0.06408441,0.02326834,0.00630962,0.01029765,0.00258629,0.00000000,0.00000000,0.02162251,0.00193903,0.00315481,0.00411906,0.00517258,0.43245014,0.00000000,0.00000000
3.900,1,1,1,-532.103,190.032,50.103,46.114669,-0.037091,-0.037091,-46.151760,0.000000,0.442815,0.072649,-1.855086,-0.386747,1.613069,1.346634,-1.645357,-0.974028,1.381368,1.694774,15.185045,-19.298890,34.483935,-4.113845,0.00000074,0.00000000,0.00000074,0.00000000,0.00000001,0.000000,0.000000,0.000000,0.000000,0.000000,0.000000,0.000000,0.000000,0.06613704,0.02452683,0.00647462,0.01030904,0.00260075,0.00000000,0.00000000,0.02222580,0.00204390,0.00323731,0.00412362,0.00520150,0.44451593,0.00000000,0.00000000
4.000,1,1,1,-532.102,190.041,50.102,45.787118,-0.046328,-0.046328,-45.833446,0.000000,0.436517,0.076362,-1.913505,0.286479,1.728754,1.364572,-1.697246,0.143239,1.508202,1.694839,14.844771,-19.186906,34.031677,-4.342135,0.00000124,0.00000000,0.00000123,0.00000000,0.00000001,0.000000,0.000000,0.000000,0.000000,0.000000,0.000000,0.000000,0.000000,0.06824607,0.02586528,0.00665013,0.01031529,0.00260106,0.00000000,0.00000000,0.02281431,0.00215544,0.00332506,0.00412612,0.00520212,0.45628624,0.00000000,0.00000000
4.100,1,1,1,-532.101,190.049,50.101,45.460849,-0.056073,-0.056073,-45.516922,0.000000,0.432365,0.080812,-1.943720,-0.128916,1.818398,1.382457,-1.708235,-0.515662,1.600723,1.695184,14.574986,-19.044172,33.619157,-4.469186,0.00000191,0.00000000,0.00000190,0.00000000,0.00000001,0.000000,0.000000,0.000000,0.000000,0.000000,0.000000,0.000000,0.000000,0.07038547,0.02724642,0.00682792,0.01031656,0.00260511,0.00000000,0.00000000,0.02338947,0.00227053,0.00341396,0.00412662,0.00521022,0.46778931,0.00000000,0.00000000
4.200,1,1,1,-532.098,190.058,50.099,45.174755,-0.066286,-0.066286,-45.241041,0.000000,0.430520,0.084669,-1.946332,-0.487014,1.875926,1.399328,-1.683891,-0.128916,1.652855,1.694902,14.432409,-18.927429,33.359839,-4.495020,0.00000275,0.00000000,0.00000274,0.00000000,0.00000001,0.000000,0.000000,0.000000,0.000000,0.000000,0.000000,0.000000,0.000000,0.07252815,0.02863138,0.00700069,0.01033462,0.00260536,0.00000000,0.00000000,0.02395610,0.00238595,0.00350035,0.00413385,0.00521073,0.47912192,0.00000000,0.00000000
4.300,1,1,1,-532.095,190.067,50.095,44.850788,-0.076891,-0.076891,-44.927678,0.000000,0.430908,0.112604,-1.921476,0.315127,1.913529,1.414349,-1.619616,0.759169,1.675099,1.693107,13.392136,-18.831403,32.223539,-5.439267,0.00000377,0.00000000,0.00000376,0.00000000,0.00000001,0.000000,0.000000,0.000000,0.000000,0.000000,0.000000,0.000000,0.000000,0.07458656,0.02998012,0.00716040,0.01034218,0.00261414,0.00000000,0.00000000,0.02448973,0.00249834,0.00358020,0.00413687,0.00522827,0.48979451,0.00000000,0.00000000
4.400,1,1,1,-532.091,190.077,50.091,44.527988,-0.087798,-0.087798,-44.615786,0.000000,0.433869,0.106001,-1.867187,1.088620,1.923032,1.426797,-1.519136,0.888085,1.659504,1.689175,13.908922,-18.735907,32.644829,-4.826985,0.00000493,0.00000000,0.00000493,0.00000000,0.00000001,0.000000,0.000000,0.000000,0.000000,0.000000,0.000000,0.000000,0.000000,0.07664747,0.03125400,0.00730094,0.01043239,0.00262614,0.00000000,0.00000000,0.02503399,0.00260450,0.00365047,0.00417296,0.00525229,0.50067983,0.00000000,0.00000000
4.500,1,1,1,-532.085,190.087,50.085,44.232031,-0.098966,-0.098966,-44.330997,0.000000,0.438862,0.106620,-1.794170,1.260507,1.907634,1.436412,-1.396572,-0.272155,1.613695,1.682945,14.188639,-18.634955,32.823594,-4.446315,0.00000622,0.00000000,0.00000621,0.00000000,0.00000001,0.000000,0.000000,0.000000,0.000000,0.000000,0.000000,0.000000,0.000000,0.07861442,0.03243113,0.00741981,0.01055344,0.00262727,0.00000000,0.00000000,0.02558277,0.00270259,0.00370991,0.00422138,0.00525454,0.51165543,0.00000000,0.00000000
4.600,1,1,1,-532.079,190.097,50.079,43.949839,-0.110408,-0.110408,-44.060246,0.000000,0.445844,0.108605,-1.704910,1.031324,1.870074,1.443072,-1.253258,1.618606,1.539115,1.674400,14.481955,-18.529699,33.011654,-4.047743,0.00000758,0.00000000,0.00000757,0.00000000,0.00000001,0.000000,0.000000,0.000000,0.000000,0.000000,0.000000,0.000000,0.000000,0.08044757,0.03349420,0.00751555,0.01063448,0.00266720,0.00000000,0.00000000,0.02613614,0.00279118,0.00375778,0.00425379,0.00533439,0.52272272,0.00000000,0.00000000
4.700,1,1,1,-532.072,190.107,50.072,43.630207,-0.122126,-0.122126,-43.752333,0.000000,0.456190,0.112976,-1.581242,1.847789,1.803241,1.446285,-1.060094,2.306155,1.424401,1.663221,14.805352,-18.442574,33.247926,-3.637222,0.00000895,0.00000000,0.00000894,0.00000000,0.00000001,0.000000,0.000000,0.000000,0.000000,0.000000,0.000000,0.000000,0.000000,0.08232946,0.03440774,0.00758398,0.01089437,0.00274816,0.00000000,0.00000000,0.02669520,0.00286731,0.00379199,0.00435775,0.00549632,0.53390398,0.00000000,0.00000000
4.800,1,1,1,-532.063,190.117,50.063,43.311651,-0.134104,-0.134104,-43.445755,0.000000,0.469087,0.120956,-1.435114,1.389423,1.711420,1.446042,-0.836729,2.177240,1.278687,1.649638,15.076148,-18.317194,33.393341,-3.241046,0.00001024,0.00000000,0.00001023,0.00000000,0.00000001,0.000000,0.000000,0.000000,0.000000,0.000000,0.000000,0.000000,0.000000,0.08390993,0.03516200,0.00762672,0.01104166,0.00282050,0.00000000,0.00000000,0.02725906,0.00293017,0.00381336,0.00441667,0.00564099,0.54518116,0.00000000,0.00000000
4.900,1,1,1,-532.054,190.128,50.054,42.994176,-0.146317,-0.146317,-43.140493,0.000000,0.484407,0.127954,-1.269134,2.635606,1.596576,1.442510,-0.587437,2.349127,1.105304,1.634268,15.481310,-18.247778,33.729088,-2.766469,0.00001137,0.00000000,0.00001136,0.00000000,0.00000001,0.000000,0.000000,0.000000,0.000000,0.000000,0.000000,0.000000,0.000000,0.08570251,0.03574982,0.00764771,0.01156980,0.00290441,0.00000000,0.00000000,0.02783078,0.00297915,0.00382385,0.00462792,0.00580882,0.55661558,0.00000000,0.00000000
5.000,1,1,1,-532.044,190.139,50.044,42.677796,-0.158737,-0.158737,-42.836533,0.000000,0.501992,0.136883,-1.087084,2.034000,1.460827,1.436005,-0.317864,3.552338,0.909487,1.617810,15.891710,-18.120550,34.012260,-2.228840,0.00001224,0.00000000,0.00001223,0.00000000,0.00000001,0.000000,0.000000,0.000000,0.000000,0.000000,0.000000,0.000000,0.000000,0.08722833,0.03618166,0.00765386,0.01188477,0.00309655,0.00000000,0.00000000,0.02841150,0.00301514,0.00382693,0.00475391,0.00619310,0.56822997,0.00000000,0.00000000
5.100,1,1,1,-532.033,190.150,50.033,42.362513,-0.171336,-0.171336,-42.533849,0.000000,0.508767,0.142836,-0.892408,2.449395,1.306665,1.426983,-0.033573,2.406423,0.700963,1.601225,15.972457,-18.028050,34.000507,-2.055593,0.00001402,0.00000000,0.00001401,0.00000000,0.00000001,0.000000,0.000000,0.000000,0.000000,0.000000,0.000000,0.000000,0.000000,0.08864464,0.03647275,0.00765393,0.01234163,0.00318474,0.00000000,0.00000000,0.02899159,0.00303940,0.00382696,0.00493665,0.00636949,0.57983177,0.00000000,0.00000000
5.200,1,1,1,-532.022,190.161,50.022,42.048338,-0.184072,-0.184072,-42.232410,0.000000,0.513987,0.149684,-0.687392,2.076972,1.137172,1.415984,0.260756,3.566662,0.502633,1.585563,15.956496,-17.911745,33.868240,-1.955249,0.00001608,0.00000000,0.00001607,0.00000000,0.00000001,0.000000,0.000000,0.000000,0.000000,0.000000,0.000000,0.000000,0.000000,0.08991904,0.03664545,0.00765807,0.01267010,0.00337847,0.00000000,0.00000000,0.02956695,0.00305379,0.00382904,0.00506804,0.00675694,0.59133900,0.00000000,0.00000000
5.300,1,1,1,-532.009,190.172,50.010,41.735271,-0.196901,-0.196901,-41.932173,0.000000,0.519397,0.156271,-0.474671,2.320479,0.956161,1.403603,0.560789,3.280183,0.379599,1.571899,15.965564,-17.816442,33.782005,-1.850878,0.00001825,0.00000000,0.00001824,0.00000000,0.00000001,0.000000,0.000000,0.000000,0.000000,0.000000,0.000000,0.000000,0.000000,0.09116728,0.03672784,0.00767724,0.01308031,0.00354241,0.00000000,0.00000000,0.03013948,0.00306065,0.00383862,0.00523212,0.00708481,0.60278965,0.00000000,0.00000000
5.400,1,1,1,-531.997,190.183,49.997,41.423325,-0.209782,-0.209782,-41.633107,0.000000,0.524926,0.164416,-0.257788,2.478042,0.768510,1.390500,0.861563,3.509366,0.436176,1.561289,15.919758,-17.718409,33.638167,-1.798651,0.00002054,0.00000000,0.00002053,0.00000000,0.00000001,0.000000,0.000000,0.000000,0.000000,0.000000,0.000000,0.000000,0.000000,0.09245950,0.03675214,0.00772246,0.01354799,0.00373000,0.00000000,0.00000000,0.03070691,0.00306268,0.00386123,0.00541919,0.00746000,0.61413820,0.00000000,0.00000000
5.500,1,1,1,-531.983,190.194,49.984,41.112504,-0.222669,-0.222669,-41.335172,0.000000,0.530496,0.166986,-0.040546,2.162916,0.581368,1.377334,1.157516,2.420747,0.636493,1.554643,16.110580,-17.605751,33.716331,-1.495171,0.00002292,0.00000000,0.00002291,0.00000000,0.00000001,0.000000,0.000000,0.000000,0.000000,0.000000,0.000000,0.000000,0.000000,0.09355644,0.03675274,0.00780407,0.01390415,0.00381923,0.00000000,0.00000000,0.03127626,0.00306273,0.00390203,0.00556166,0.00763846,0.62552519,0.00000000,0.00000000
5.600,1,1,1,-531.970,190.205,49.970,40.802817,-0.235521,-0.235521,-41.038338,0.000000,0.536026,0.169918,0.173530,2.750197,0.409157,1.364720,1.443154,2.449395,0.889558,1.552650,16.282257,-17.521411,33.803669,-1.239154,0.00002540,0.00000000,0.00002539,0.00000000,0.00000001,0.000000,0.000000,0.000000,0.000000,0.000000,0.000000,0.000000,0.000000,0.09493450,0.03676375,0.00793101,0.01448043,0.00391065,0.00000000,0.00000000,0.03184865,0.00306365,0.00396551,0.00579217,0.00782130,0.63697305,0.00000000,0.00000000
5.700,1,1,1,-531.956,190.216,49.957,40.494268,-0.248297,-0.248297,-40.742566,0.000000,0.541440,0.171056,0.382074,2.363451,0.291677,1.353242,1.713692,2.034000,1.157496,1.555726,16.521586,-17.405287,33.926874,-0.883701,0.00002797,0.00000000,0.00002796,0.00000000,0.00000001,0.000000,0.000000,0.000000,0.000000,0.000000,0.000000,0.000000,0.000000,0.09623057,0.03681709,0.00810986,0.01490565,0.00397364,0.00000000,0.00000000,0.03242433,0.00306809,0.00405493,0.00596226,0.00794728,0.64848658,0.00000000,0.00000000
5.800,1,1,1,-531.943,190.227,49.943,40.186862,-0.260970,-0.260970,-40.447833,0.000000,0.546670,0.172957,0.582665,3.337479,0.303436,1.343364,1.965048,1.246183,1.424933,1.563975,16.718700,-17.331367,34.050068,-0.612667,0.00003064,0.00000000,0.00003062,0.00000000,0.00000001,0.000000,0.000000,0.000000,0.000000,0.000000,0.000000,0.000000,0.000000,0.09804169,0.03694119,0.00834511,0.01575390,0.00399729,0.00000000,0.00000000,0.03300421,0.00307843,0.00417255,0.00630156,0.00799458,0.66008414,0.00000000,0.00000000
5.900,1,1,1,-531.929,190.238,49.930,39.880601,-0.273524,-0.273524,-40.154125,0.000000,0.549952,0.175189,0.772540,1.675902,0.429335,1.335454,2.193363,2.248859,1.683211,1.577183,16.820799,-17.173522,33.994320,-0.352723,0.00003341,0.00000000,0.00003340,0.00000000,0.00000001,0.000000,0.000000,0.000000,0.000000,0.000000,0.000000,0.000000,0.000000,0.09942174,0.03715935,0.00863820,0.01596779,0.00407432,0.00000000,0.00000000,0.03358208,0.00309661,0.00431910,0.00638712,0.00814864,0.67164155,0.00000000,0.00000000
6.000,1,1,1,-531.916,190.249,49.917,39.575506,-0.285949,-0.285949,-39.861455,0.000000,0.551325,0.172995,0.948607,2.535338,0.594108,1.329738,2.394832,1.546986,1.926159,1.594836,17.028518,-17.096397,34.124915,-0.067879,0.00003630,0.00000000,0.00003628,0.00000000,0.00000001,0.000000,0.000000,0.000000,0.000000,0.000000,0.000000,0.000000,0.000000,0.10120833,0.03748829,0.00898761,0.01645731,0.00411077,0.00000000,0.00000000,0.03416434,0.00312402,0.00449381,0.00658293,0.00822154,0.68328688,0.00000000,0.00000000
6.100,1,1,1,-531.903,190.260,49.904,39.271604,-0.298238,-0.298238,-39.569842,0.000000,0.552697,0.170833,1.108124,2.234535,0.764817,1.326290,2.565927,0.529986,2.148820,1.616163,17.233422,-16.979776,34.213197,0.253646,0.00003931,0.00000000,0.00003930,0.00000000,0.00000001,0.000000,0.000000,0.000000,0.000000,0.000000,0.000000,0.000000,0.000000,0.10302810,0.03793714,0.00938872,0.01683755,0.00411505,0.00000000,0.00000000,0.03474963,0.00316143,0.00469436,0.00673502,0.00823010,0.69499265,0.00000000,0.00000000
6.200,1,1,1,-531.891,190.270,49.892,38.968897,-0.310389,-0.310389,-39.279287,0.000000,0.554129,0.168129,1.249158,1.346451,0.929479,1.325041,2.703852,0.673225,2.346992,1.640208,17.462172,-16.844621,34.306793,0.617551,0.00004247,0.00000000,0.00004246,0.00000000,0.00000001,0.000000,0.000000,0.000000,0.000000,0.000000,0.000000,0.000000,0.000000,0.10477721,0.03850743,0.00983404,0.01697559,0.00412195,0.00000000,0.00000000,0.03533820,0.00320895,0.00491702,0.00679024,0.00824390,0.70676395,0.00000000,0.00000000
6.300,1,1,1,-531.879,190.281,49.880,38.667433,-0.322375,-0.322375,-38.989808,0.000000,0.555687,0.165579,1.372397,1.933733,1.082636,1.325832,2.806759,-0.257831,2.517116,1.665936,17.688394,-16.755520,34.443915,0.932874,0.00004577,0.00000000,0.00004576,0.00000000,0.00000001,0.000000,0.000000,0.000000,0.000000,0.000000,0.000000,0.000000,0.000000,0.10682547,0.03919605,0.01031409,0.01726042,0.00412296,0.00000000,0.00000000,0.03593194,0.00326634,0.00515705,0.00690417,0.00824592,0.71863889,0.00000000,0.00000000
6.400,1,1,1,-531.868,190.291,49.869,38.367210,-0.334218,-0.334218,-38.701429,0.000000,0.557438,0.160517,1.476089,1.504014,1.221175,1.328390,2.873483,0.673225,2.656299,1.692263,18.025184,-16.631914,34.657098,1.393270,0.00004922,0.00000000,0.00004921,0.00000000,0.00000001,0.000000,0.000000,0.000000,0.000000,0.000000,0.000000,0.000000,0.000000,0.10890565,0.03999250,0.01081713,0.01743268,0.00412987,0.00000000,0.00000000,0.03653347,0.00333271,0.00540856,0.00697307,0.00825973,0.73066939,0.00000000,0.00000000
6.500,1,1,1,-531.857,190.301,49.858,38.068203,-0.345977,-0.345977,-38.414179,0.000000,0.557924,0.154545,1.557182,0.701873,1.342644,1.332328,2.903196,0.572958,2.762320,1.718162,18.343567,-16.496296,34.839863,1.847271,0.00005341,0.00000000,0.00005340,0.00000000,0.00000001,0.000000,0.000000,0.000000,0.000000,0.000000,0.000000,0.000000,0.000000,0.11095654,0.04087883,0.01133060,0.01747019,0.00413487,0.00000000,0.00000000,0.03714205,0.00340657,0.00566530,0.00698808,0.00826973,0.74284106,0.00000000,0.00000000
6.600,1,1,1,-531.847,190.311,49.848,37.770428,-0.357687,-0.357687,-38.128115,0.000000,0.549663,0.149560,1.614360,0.529986,1.445013,1.337192,2.895425,-0.401070,2.833603,1.742679,18.258573,-16.380033,34.638606,1.878539,0.00006144,0.00000000,0.00006143,0.00000000,0.00000001,0.000000,0.000000,0.000000,0.000000,0.000000,0.000000,0.000000,0.000000,0.11304510,0.04183131,0.01184126,0.01749158,0.00413731,0.00000000,0.00000000,0.03774363,0.00348594,0.00592063,0.00699663,0.00827463,0.75487252,0.00000000,0.00000000
6.700,1,1,1,-531.838,190.321,49.839,37.473934,-0.369352,-0.369352,-37.843286,0.000000,0.544002,0.143922,1.648769,2.005352,1.526900,1.342533,2.850609,-1.174563,2.869193,1.764999,18.317647,-16.312449,34.630096,2.005198,0.00006923,0.00000000,0.00006922,0.00000000,0.00000001,0.000000,0.000000,0.000000,0.000000,0.000000,0.000000,0.000000,0.000000,0.11546270,0.04282499,0.01233631,0.01779782,0.00415833,0.00000000,0.00000000,0.03834524,0.00356875,0.00616815,0.00711913,0.00831665,0.76690488,0.00000000,0.00000000
6.800,1,1,1,-531.830,190.331,49.831,37.178706,-0.380984,-0.380984,-37.559690,0.000000,0.541079,0.138530,1.661250,-0.071620,1.587307,1.347925,2.770130,-1.317803,2.868785,1.784462,18.483454,-16.130633,34.614088,2.352821,0.00007657,0.00000000,0.00007656,0.00000000,0.00000001,0.000000,0.000000,0.000000,0.000000,0.000000,0.000000,0.000000,0.000000,0.11756812,0.04383401,0.01280391,0.01779821,0.00418478,0.00000000,0.00000000,0.03894721,0.00365283,0.00640196,0.00711929,0.00836956,0.77894412,0.00000000,0.00000000
6.900,1,1,1,-531.822,190.341,49.823,36.884779,-0.392626,-0.392626,-37.277405,0.000000,0.540987,0.133841,1.651632,-0.773493,1.625691,1.352960,2.655864,-1.546986,2.832711,1.800571,18.737140,-15.995322,34.732462,2.741818,0.00008328,0.00000000,0.00008327,0.00000000,0.00000001,0.000000,0.000000,0.000000,0.000000,0.000000,0.000000,0.000000,0.000000,0.11968403,0.04483120,0.01323366,0.01784378,0.00422123,0.00000000,0.00000000,0.03955416,0.00373593,0.00661683,0.00713751,0.00844247,0.79108318,0.00000000,0.00000000
7.000,1,1,1,-531.814,190.352,49.816,36.592219,-0.404333,-0.404333,-36.996552,0.000000,0.543768,0.129801,1.619519,-0.071620,1.642020,1.357258,2.509938,-2.621282,2.761932,1.813013,19.080182,-15.902700,34.982882,3.177482,0.00008921,0.00000000,0.00008920,0.00000000,0.00000001,0.000000,0.000000,0.000000,0.000000,0.000000,0.000000,0.000000,0.000000,0.12174821,0.04578978,0.01361739,0.01784417,0.00432587,0.00000000,0.00000000,0.04017100,0.00381582,0.00680870,0.00713767,0.00865174,0.80341997,0.00000000,0.00000000
7.100,1,1,1,-531.808,190.362,49.809,36.301023,-0.416150,-0.416150,-36.717173,0.000000,0.549435,0.126334,1.565400,-0.272155,1.636555,1.360502,2.334675,-2.177240,2.658013,1.821641,19.514186,-15.778581,35.292768,3.735605,0.00009419,0.00000000,0.00009418,0.00000000,0.00000001,0.000000,0.000000,0.000000,0.000000,0.000000,0.000000,0.000000,0.000000,0.12368371,0.04668556,0.01394948,0.01784981,0.00439807,0.00000000,0.00000000,0.04080079,0.00389046,0.00697474,0.00713992,0.00879614,0.81601571,0.00000000,0.00000000
7.200,1,1,1,-531.801,190.372,49.803,36.011193,-0.428109,-0.428109,-36.439302,0.000000,0.557996,0.124162,1.490952,0.028648,1.609648,1.362454,2.132795,-3.738550,2.522998,1.826459,20.008188,-15.669018,35.677206,4.339170,0.00009804,0.00000000,0.00009803,0.00000000,0.00000001,0.000000,0.000000,0.000000,0.000000,0.000000,0.000000,0.000000,0.000000,0.12563217,0.04749812,0.01422661,0.01784987,0.00461095,0.00000000,0.00000000,0.04144662,0.00395818,0.00711330,0.00713995,0.00922189,0.82893245,0.00000000,0.00000000
7.300,1,1,1,-531.795,190.383,49.797,35.722737,-0.440245,-0.440245,-36.162982,0.000000,0.569432,0.122370,1.398219,-1.045648,1.561916,1.362965,1.907661,-2.076972,2.359337,1.827629,20.598628,-15.515679,36.114307,5.082949,0.00010060,0.00000000,0.00010059,0.00000000,0.00000001,0.000000,0.000000,0.000000,0.000000,0.000000,0.000000,0.000000,0.000000,0.12738385,0.04821330,0.01444848,0.01793320,0.00467670,0.00000000,0.00000000,0.04211216,0.00401778,0.00722424,0.00717328,0.00935340,0.84224325,0.00000000,0.00000000
7.400,1,1,1,-531.792,190.388,49.794,35.458598,-0.446643,-0.446643,-35.905242,0.000000,0.582270,0.121955,1.297967,-0.501338,1.501957,1.362084,1.683449,-2.492366,2.189849,1.825705,21.182544,-15.423343,36.605887,5.759200,0.00009956,0.00000000,0.00009956,0.00000000,0.00000000,0.000000,0.000000,0.000000,0.000000,0.000000,0.000000,0.000000,0.000000,0.12897177,0.04882878,0.01462104,0.01795233,0.00477126,0.00000000,0.00000000,0.04279835,0.00406907,0.00731052,0.00718093,0.00954251,0.85596703,0.00000000,0.00000000
7.500,1,1,1,-531.786,190.399,49.788,35.172847,-0.459152,-0.459152,-35.631999,0.000000,0.598946,0.107183,1.173837,-0.959704,1.417781,1.359680,1.425346,-3.323155,1.980147,1.820813,22.510362,-15.288444,37.798805,7.221918,0.00009933,0.00000000,0.00009932,0.00000000,0.00000001,0.000000,0.000000,0.000000,0.000000,0.000000,0.000000,0.000000,0.000000,0.13057877,0.04933270,0.01474488,0.01802250,0.00493954,0.00000000,0.00000000,0.04353916,0.00411106,0.00737244,0.00720900,0.00987907,0.87078312,0.00000000,0.00000000
7.600,1,1,1,-531.781,190.410,49.782,34.888501,-0.471987,-0.471987,-35.360487,0.000000,0.611983,0.114126,1.034978,-1.045648,1.316629,1.355813,1.156491,-3.294507,1.751660,1.813464,22.767899,-15.165681,37.933580,7.602219,0.00010066,0.00000000,0.00010065,0.00000000,0.00000001,0.000000,0.000000,0.000000,0.000000,0.000000,0.000000,0.000000,0.000000,0.13204777,0.04972399,0.01482630,0.01810571,0.00510474,0.00000000,0.00000000,0.04428702,0.00414367,0.00741315,0.00724229,0.01020947,0.88574047,0.00000000,0.00000000
7.700,1,1,1,-531.774,190.422,49.776,34.605591,-0.485201,-0.485201,-35.090792,0.000000,0.616257,0.119468,0.884519,-0.873761,1.200255,1.350611,0.881413,-3.194240,1.508890,1.804206,22.741483,-15.050843,37.792326,7.690640,0.00010607,0.00000000,0.00010606,0.00000000,0.00000001,0.000000,0.000000,0.000000,0.000000,0.000000,0.000000,0.000000,0.000000,0.13333836,0.05000999,0.01487363,0.01816386,0.00526014,0.00000000,0.00000000,0.04503074,0.00416750,0.00743682,0.00726554,0.01052028,0.90061471,0.00000000,0.00000000
7.800,1,1,1,-531.768,190.433,49.770,34.324138,-0.498804,-0.498804,-34.822942,0.000000,0.620704,0.125290,0.725020,-0.974028,1.070645,1.344258,0.605193,-2.349127,1.257087,1.793618,22.720286,-14.927422,37.647708,7.792864,0.00011168,0.00000000,0.00011166,0.00000000,0.00000001,0.000000,0.000000,0.000000,0.000000,0.000000,0.000000,0.000000,0.000000,0.13445055,0.05020255,0.01489600,0.01823626,0.00534437,0.00000000,0.00000000,0.04577137,0.00418355,0.00744800,0.00729450,0.01068875,0.91542730,0.00000000,0.00000000
7.900,1,1,1,-531.761,190.445,49.763,34.077677,-0.512805,-0.512805,-34.590481,0.000000,0.624833,0.130867,0.578494,-1.518338,0.944580,1.337139,0.364980,-2.449395,1.028054,1.782439,22.710150,-14.809755,37.519905,7.900396,0.00011748,0.00000000,0.00011746,0.00000000,0.00000001,0.000000,0.000000,0.000000,0.000000,0.000000,0.000000,0.000000,0.000000,0.13558099,0.05032466,0.01490410,0.01841151,0.00543559,0.00000000,0.00000000,0.04650513,0.00419372,0.00745205,0.00736460,0.01087118,0.93010259,0.00000000,0.00000000
8.000,1,1,1,-531.754,190.458,49.756,33.799014,-0.527208,-0.527208,-34.326221,0.000000,0.629512,0.137380,0.406462,-0.902409,0.796383,1.329336,0.099052,-3.394775,0.778411,1.771010,22.695953,-14.710301,37.406255,7.985652,0.00012351,0.00000000,0.00012350,0.00000000,0.00000002,0.000000,0.000000,0.000000,0.000000,0.000000,0.000000,0.000000,0.000000,0.13661121,0.05038506,0.01490470,0.01847354,0.00561115,0.00000000,0.00000000,0.04723677,0.00419876,0.00745235,0.00738941,0.01122230,0.94473536,0.00000000,0.00000000
8.100,1,1,1,-531.746,190.471,49.748,33.521848,-0.542003,-0.542003,-34.063850,0.000000,0.634266,0.124413,0.230800,-1.217535,0.643193,1.321153,-0.155860,-2.220211,0.548290,1.759856,23.497052,-14.581331,38.078383,8.915720,0.00012978,0.00000000,0.00012976,0.00000000,0.00000002,0.000000,0.000000,0.000000,0.000000,0.000000,0.000000,0.000000,0.000000,0.13758455,0.05040453,0.01490618,0.01858639,0.00568620,0.00000000,0.00000000,0.04800125,0.00420038,0.00745309,0.00743456,0.01137241,0.96002499,0.00000000,0.00000000
8.200,1,1,1,-531.738,190.484,49.740,33.246186,-0.557172,-0.557172,-33.803358,0.000000,0.639049,0.138929,0.054028,-2.048324,0.490195,1.312885,-0.396672,-2.692902,0.374188,1.749386,23.151259,-14.438615,37.589875,8.712644,0.00013630,0.00000000,0.00013628,0.00000000,0.00000002,0.000000,0.000000,0.000000,0.000000,0.000000,0.000000,0.000000,0.000000,0.13876951,0.05040560,0.01491576,0.01890588,0.00579664,0.00000000,0.00000000,0.04874564,0.00420047,0.00745788,0.00756235,0.01159329,0.97491272,0.00000000,0.00000000
8.300,1,1,1,-531.728,190.497,49.731,32.972062,-0.572696,-0.572696,-33.544758,0.000000,0.643818,0.149520,-0.120399,-1.360775,0.347693,1.304818,-0.620102,-3.093972,0.338301,1.739911,22.987792,-14.345810,37.333602,8.641982,0.00014310,0.00000000,0.00014308,0.00000000,0.00000002,0.000000,0.000000,0.000000,0.000000,0.000000,0.000000,0.000000,0.000000,0.13982007,0.05041090,0.01493920,0.01904700,0.00594255,0.00000000,0.00000000,0.04948042,0.00420091,0.00746960,0.00761880,0.01188510,0.98960832,0.00000000,0.00000000
8.400,1,1,1,-531.718,190.511,49.721,32.699495,-0.588549,-0.588549,-33.288045,0.000000,0.648534,0.159067,-0.290850,-1.432394,0.244043,1.297235,-0.822259,-2.334803,0.454826,1.731651,22.876719,-14.229024,37.105743,8.647695,0.00015020,0.00000000,0.00015019,0.00000000,0.00000002,0.000000,0.000000,0.000000,0.000000,0.000000,0.000000,0.000000,0.000000,0.14085735,0.05044182,0.01498040,0.01920326,0.00602558,0.00000000,0.00000000,0.05020628,0.00420349,0.00749020,0.00768130,0.01205117,1.00412563,0.00000000,0.00000000
8.500,1,1,1,-531.708,190.525,49.710,32.428487,-0.604729,-0.604729,-33.033215,0.000000,0.653155,0.166394,-0.456246,-1.174563,0.239630,1.290372,-0.999620,-2.864789,0.627880,1.724685,22.861155,-14.123990,36.985145,8.737165,0.00015765,0.00000000,0.00015763,0.00000000,0.00000002,0.000000,0.000000,0.000000,0.000000,0.000000,0.000000,0.000000,0.000000,0.14194599,0.05051788,0.01504125,0.01930827,0.00615053,0.00000000,0.00000000,0.05092807,0.00420982,0.00752062,0.00772331,0.01230105,1.01856132,0.00000000,0.00000000
8.600,1,1,1,-531.696,190.539,49.699,32.159041,-0.621221,-0.621221,-32.780262,0.000000,0.657651,0.173889,-0.614813,-0.873761,0.335716,1.284421,-1.149349,-1.776169,0.805650,1.718969,22.837165,-14.021221,36.858386,8.815944,0.00016549,0.00000000,0.00016547,0.00000000,0.00000002,0.000000,0.000000,0.000000,0.000000,0.000000,0.000000,0.000000,0.000000,0.14298887,0.05065604,0.01512172,0.01936641,0.00619857,0.00000000,0.00000000,0.05164613,0.00422134,0.00756086,0.00774656,0.01239714,1.03292256,0.00000000,0.00000000
8.700,1,1,1,-531.683,190.553,49.687,31.891140,-0.637993,-0.637993,-32.529133,0.000000,0.661995,0.181360,-0.763903,-1.031324,0.469838,1.279527,-1.269475,-1.919409,0.970193,1.714365,22.811144,-13.905651,36.716795,8.905492,0.00017374,0.00000000,0.00017372,0.00000000,0.00000002,0.000000,0.000000,0.000000,0.000000,0.000000,0.000000,0.000000,0.000000,0.14415161,0.05086943,0.01521994,0.01944744,0.00625470,0.00000000,0.00000000,0.05236010,0.00423912,0.00760997,0.00777897,0.01250941,1.04720202,0.00000000,0.00000000
8.800,1,1,1,-531.670,190.568,49.673,31.624772,-0.655000,-0.655000,-32.279772,0.000000,0.666171,0.164188,-0.901105,-1.718873,0.611730,1.275773,-1.358799,-0.974028,1.113660,1.710656,23.796007,-13.776570,37.572577,10.019436,0.00018243,0.00000000,0.00018241,0.00000000,0.00000002,0.000000,0.000000,0.000000,0.000000,0.000000,0.000000,0.000000,0.000000,0.14555612,0.05116618,0.01533240,0.01967239,0.00626915,0.00000000,0.00000000,0.05311599,0.00426385,0.00766620,0.00786896,0.01253830,1.06231986,0.00000000,0.00000000
8.900,1,1,1,-531.656,190.583,49.659,31.359962,-0.672221,-0.672221,-32.032183,0.000000,0.670169,0.182531,-1.025467,-1.847789,0.750846,1.273175,-1.417065,-0.787817,1.231828,1.707568,23.282841,-13.668535,36.951376,9.614306,0.00019158,0.00000000,0.00019156,0.00000000,0.00000002,0.000000,0.000000,0.000000,0.000000,0.000000,0.000000,0.000000,0.000000,0.14706132,0.05155060,0.01545475,0.01993242,0.00627861,0.00000000,0.00000000,0.05384495,0.00429588,0.00772737,0.00797297,0.01255721,1.07689900,0.00000000,0.00000000
9.000,1,1,1,-531.641,190.598,49.644,31.096725,-0.689645,-0.689645,-31.786370,0.000000,0.673990,0.191977,-1.135336,-0.257831,0.882303,1.271693,-1.444078,-1.231859,1.322310,1.704803,23.150580,-13.615237,36.765817,9.535343,0.00020123,0.00000000,0.00020121,0.00000000,0.00000002,0.000000,0.000000,0.000000,0.000000,0.000000,0.000000,0.000000,0.000000,0.14840866,0.05202164,0.01558176,0.01993748,0.00630171,0.00000000,0.00000000,0.05456607,0.00433514,0.00779088,0.00797499,0.01260342,1.09132140,0.00000000,0.00000000
9.100,1,1,1,-531.624,190.613,49.628,30.835013,-0.707241,-0.707241,-31.542253,0.000000,0.677641,0.203766,-1.230348,-0.945380,1.003157,1.271236,-1.439299,-0.171887,1.383656,1.702048,22.921359,-13.490048,36.411407,9.431311,0.00021139,0.00000000,0.00021136,0.00000000,0.00000002,0.000000,0.000000,0.000000,0.000000,0.000000,0.000000,0.000000,0.000000,0.14986514,0.05257538,0.01570806,0.02000559,0.00630216,0.00000000,0.00000000,0.05527395,0.00438128,0.00785403,0.00800224,0.01260432,1.10547896,0.00000000,0.00000000
9.200,1,1,1,-531.607,190.628,49.611,30.574781,-0.724980,-0.724980,-31.299760,0.000000,0.681140,0.217590,-1.309626,-0.673225,1.111525,1.271669,-1.402949,1.346451,1.415082,1.699015,22.609681,-13.398633,36.008315,9.211048,0.00022204,0.00000000,0.00022202,0.00000000,0.00000002,0.000000,0.000000,0.000000,0.000000,0.000000,0.000000,0.000000,0.000000,0.15136458,0.05320222,0.01582795,0.02004010,0.00632977,0.00000000,0.00000000,0.05596455,0.00443352,0.00791397,0.00801604,0.01265954,1.11929091,0.00000000,0.00000000
9.300,1,1,1,-531.589,190.643,49.594,30.316008,-0.742813,-0.742813,-31.058821,0.000000,0.684508,0.225167,-1.371807,-1.174563,1.205984,1.272812,-1.336021,0.501338,1.416377,1.695448,22.558655,-13.285167,35.843822,9.273488,0.00023318,0.00000000,0.00023316,0.00000000,0.00000002,0.000000,0.000000,0.000000,0.000000,0.000000,0.000000,0.000000,0.000000,0.15295573,0.05389021,0.01593671,0.02014518,0.00633360,0.00000000,0.00000000,0.05665003,0.00449085,0.00796835,0.00805807,0.01266720,1.13300063,0.00000000,0.00000000
9.400,1,1,1,-531.571,190.658,49.575,30.058668,-0.760685,-0.760685,-30.819352,0.000000,0.686148,0.271391,-1.415978,0.214859,1.285270,1.274455,-1.240398,-0.057296,1.387825,1.691160,20.843300,-13.233157,34.076457,7.610144,0.00024715,0.00000000,0.00024712,0.00000000,0.00000002,0.000000,0.000000,0.000000,0.000000,0.000000,0.000000,0.000000,0.000000,0.15439556,0.05462315,0.01603045,0.02014870,0.00633365,0.00000000,0.00000000,0.05725962,0.00455193,0.00801522,0.00805948,0.01266730,1.14519241,0.00000000,0.00000000
9.500,1,1,1,-531.551,190.673,49.556,29.802694,-0.778526,-0.778526,-30.581220,0.000000,0.681289,0.263987,-1.441118,1.188887,1.348297,1.276363,-1.117993,1.661578,1.330287,1.686032,21.117211,-13.166906,34.284116,7.950305,0.00027157,0.00000000,0.00027155,0.00000000,0.00000002,0.000000,0.000000,0.000000,0.000000,0.000000,0.000000,0.000000,0.000000,0.15600016,0.05538245,0.01610661,0.02025636,0.00637571,0.00000000,0.00000000,0.05787904,0.00461520,0.00805331,0.00810254,0.01275141,1.15758070,0.00000000,0.00000000
9.600,1,1,1,-531.531,190.688,49.536,29.548013,-0.796282,-0.796282,-30.344295,0.000000,0.678584,0.258365,-1.449195,0.931056,1.394347,1.278325,-0.971449,0.572958,1.245269,1.680031,21.386168,-13.062938,34.449105,8.323230,0.00029380,0.00000000,0.00029378,0.00000000,0.00000002,0.000000,0.000000,0.000000,0.000000,0.000000,0.000000,0.000000,0.000000,0.15752429,0.05615011,0.01616410,0.02032237,0.00638071,0.00000000,0.00000000,0.05850701,0.00467918,0.00808205,0.00812895,0.01276141,1.17014024,0.00000000,0.00000000
9.700,1,1,1,-531.510,190.703,49.515,29.294597,-0.813926,-0.813926,-30.108523,0.000000,0.678103,0.257626,-1.440101,0.644578,1.423134,1.280134,-0.804543,0.630254,1.135088,1.673203,21.529038,-12.961567,34.490606,8.567471,0.00031330,0.00000000,0.00031328,0.00000000,0.00000002,0.000000,0.000000,0.000000,0.000000,0.000000,0.000000,0.000000,0.000000,0.15899099,0.05690819,0.01620354,0.02035401,0.00638676,0.00000000,0.00000000,0.05913850,0.00474235,0.00810177,0.00814160,0.01277351,1.18277004,0.00000000,0.00000000
9.800,1,1,1,-531.488,190.718,49.494,29.042432,-0.831403,-0.831403,-29.873836,0.000000,0.679907,0.257957,-1.412772,0.687549,1.434472,1.281586,-0.620678,1.890761,1.002835,1.665672,21.711940,-12.873532,34.585472,8.838408,0.00032950,0.00000000,0.00032948,0.00000000,0.00000002,0.000000,0.000000,0.000000,0.000000,0.000000,0.000000,0.000000,0.000000,0.16047127,0.05763760,0.01622700,0.02039000,0.00644119,0.00000000,0.00000000,0.05977548,0.00480313,0.00811350,0.00815600,0.01288238,1.19550958,0.00000000,0.00000000
9.900,1,1,1,-531.466,190.733,49.472,28.791497,-0.848666,-0.848666,-29.640162,0.000000,0.684038,0.260101,-1.367107,0.615930,1.428278,1.282497,-0.422757,1.360775,0.852350,1.657619,21.906660,-12.784079,34.690738,9.122581,0.00034184,0.00000000,0.00034182,0.00000000,0.00000002,0.000000,0.000000,0.000000,0.000000,0.000000,0.000000,0.000000,0.000000,0.16186596,0.05832088,0.01623789,0.02041889,0.00646940,0.00000000,0.00000000,0.06041890,0.00486007,0.00811895,0.00816756,0.01293880,1.20837800,0.00000000,0.00000000
10.000,1,1,1,-531.443,190.747,49.449,28.541768,-0.865696,-0.865696,-29.407464,0.000000,0.690495,0.329281,-1.304513,0.787817,1.404794,1.282723,-0.213480,1.518338,0.688901,1.649283,19.427167,-12.704157,32.131324,6.723010,0.00034985,0.00000000,0.00034983,0.00000000,0.00000002,0.000000,0.000000,0.000000,0.000000,0.000000,0.000000,0.000000,0.000000,0.16311167,0.05894278,0.01624067,0.02046615,0.00650450,0.00000000,0.00000000,0.06095758,0.00491190,0.00812033,0.00818646,0.01300900,1.21915151,0.00000000,0.00000000
10.100,1,1,1,-531.420,190.761,49.426,28.313036,-0.882451,-0.882451,-29.195488,0.000000,0.698367,0.301020,-1.232543,1.747521,1.368987,1.282226,-0.012518,1.332127,0.537642,1.640926,21.091786,-12.658332,33.750117,8.433454,0.00035426,0.00000000,0.00035424,0.00000000,0.00000002,0.000000,0.000000,0.000000,0.000000,0.000000,0.000000,0.000000,0.000000,0.16453280,0.05949853,0.01624068,0.02069889,0.00653155,0.00000000,0.00000000,0.06156315,0.00495821,0.00812034,0.00827956,0.01306310,1.23126297,0.00000000,0.00000000
10.200,1,1,1,-531.396,190.775,49.402,28.065476,-0.898907,-0.898907,-28.964383,0.000000,0.709200,0.291491,-1.142898,2.234535,1.313604,1.280905,0.211919,2.707226,0.382018,1.632820,22.042540,-12.587661,34.630201,9.454879,0.00035272,0.00000000,0.00035270,0.00000000,0.00000002,0.000000,0.000000,0.000000,0.000000,0.000000,0.000000,0.000000,0.000000,0.16615301,0.05997713,0.01624342,0.02108004,0.00664344,0.00000000,0.00000000,0.06220898,0.00499809,0.00812171,0.00843201,0.01328688,1.24417970,0.00000000,0.00000000
10.300,1,1,1,-531.372,190.789,49.378,27.818972,-0.915045,-0.915045,-28.734017,0.000000,0.717002,0.282419,-1.040265,1.675902,1.243027,1.278746,0.437133,1.145916,0.288781,1.625306,22.818914,-12.485504,35.304418,10.333410,0.00035640,0.00000000,0.00035638,0.00000000,0.00000002,0.000000,0.000000,0.000000,0.000000,0.000000,0.000000,0.000000,0.000000,0.16746941,0.06037231,0.01625505,0.02129372,0.00666342,0.00000000,0.00000000,0.06288491,0.00503103,0.00812752,0.00851749,0.01332684,1.25769818,0.00000000,0.00000000
10.400,1,1,1,-531.348,190.802,49.354,27.573510,-0.930805,-0.930805,-28.504315,0.000000,0.720651,0.280711,-0.923436,1.102944,1.158359,1.275746,0.658437,1.862113,0.333696,1.618639,23.100915,-12.386393,35.487308,10.714522,0.00036816,0.00000000,0.00036814,0.00000000,0.00000002,0.000000,0.000000,0.000000,0.000000,0.000000,0.000000,0.000000,0.000000,0.16863903,0.06068375,0.01628144,0.02138628,0.00671619,0.00000000,0.00000000,0.06357138,0.00505698,0.00814072,0.00855451,0.01343238,1.27142761,0.00000000,0.00000000
10.500,1,1,1,-531.323,190.815,49.329,27.329104,-0.946168,-0.946168,-28.275272,0.000000,0.724394,0.279649,-0.793950,1.761845,1.060603,1.271942,0.872464,0.902409,0.483559,1.613049,23.358927,-12.327807,35.686734,11.031120,0.00037952,0.00000000,0.00037950,0.00000000,0.00000002,0.000000,0.000000,0.000000,0.000000,0.000000,0.000000,0.000000,0.000000,0.16986347,0.06091440,0.01632786,0.02162290,0.00672860,0.00000000,0.00000000,0.06426970,0.00507620,0.00816393,0.00864916,0.01345721,1.28539402,0.00000000,0.00000000
10.600,1,1,1,-531.297,190.827,49.304,27.085728,-0.961170,-0.961170,-28.046898,0.000000,0.728223,0.323524,-0.655985,1.045648,0.951197,1.267448,1.076950,2.019676,0.669899,1.608747,21.768754,-12.226002,33.994756,9.542752,0.00039048,0.00000000,0.00039046,0.00000000,0.00000002,0.000000,0.000000,0.000000,0.000000,0.000000,0.000000,0.000000,0.000000,0.17085976,0.06107163,0.01639849,0.02170614,0.00679071,0.00000000,0.00000000,0.06489279,0.00508930,0.00819925,0.00868245,0.01358141,1.29785586,0.00000000,0.00000000
10.700,1,1,1,-531.272,190.839,49.279,26.843337,-0.975823,-0.975823,-27.819160,0.000000,0.732120,0.304380,-0.512133,0.601606,0.831469,1.262391,1.270582,1.905085,0.865091,1.605865,22.831824,-12.134976,34.966800,10.696847,0.00040105,0.00000000,0.00040104,0.00000000,0.00000002,0.000000,0.000000,0.000000,0.000000,0.000000,0.000000,0.000000,0.000000,0.17180465,0.06116744,0.01649677,0.02173368,0.00684594,0.00000000,0.00000000,0.06556083,0.00509729,0.00824838,0.00869347,0.01369188,1.31121662,0.00000000,0.00000000
10.800,1,1,1,-531.247,190.851,49.254,26.601952,-0.990114,-0.990114,-27.592065,0.000000,0.736065,0.293380,-0.364795,1.790493,0.703553,1.256932,1.451240,1.102944,1.058580,1.604478,23.527117,-12.094949,35.622066,11.432168,0.00041124,0.00000000,0.00041122,0.00000000,0.00000002,0.000000,0.000000,0.000000,0.000000,0.000000,0.000000,0.000000,0.000000,0.17294204,0.06121599,0.01662485,0.02197738,0.00686444,0.00000000,0.00000000,0.06625938,0.00510133,0.00831242,0.00879095,0.01372887,1.32518765,0.00000000,0.00000000
10.900,1,1,1,-531.221,190.863,49.229,26.390353,-1.004013,-1.004013,-27.394366,0.000000,0.739631,0.285781,-0.231323,1.962380,0.584148,1.251235,1.596575,1.031324,1.226487,1.604404,24.049899,-12.032416,36.082314,12.017483,0.00042103,0.00000000,0.00042102,0.00000000,0.00000001,0.000000,0.000000,0.000000,0.000000,0.000000,0.000000,0.000000,0.000000,0.17415159,0.06123559,0.01678041,0.02227114,0.00688066,0.00000000,0.00000000,0.06698379,0.00510297,0.00839021,0.00890846,0.01376133,1.33967579,0.00000000,0.00000000
11.000,1,1,1,-531.196,190.874,49.203,26.150790,-1.017499,-1.017499,-27.168289,0.000000,0.743611,0.279427,-0.075385,2.463719,0.450728,1.245452,1.743413,1.217535,1.402591,1.605746,24.530189,-11.968219,36.498408,12.561970,0.00043046,0.00000000,0.00043045,0.00000000,0.00000001,0.000000,0.000000,0.000000,0.000000,0.000000,0.000000,0.000000,0.000000,0.17556810,0.06123766,0.01696552,0.02273322,0.00690323,0.00000000,0.00000000,0.06772848,0.00510314,0.00848276,0.00909329,0.01380647,1.35456951,0.00000000,0.00000000
11.100,1,1,1,-531.170,190.885,49.178,25.912145,-1.030614,-1.030614,-26.942759,0.000000,0.747575,0.271073,0.081877,2.463719,0.324418,1.239754,1.868652,0.615930,1.564397,1.608352,25.087064,-11.887700,36.974764,13.199364,0.00043959,0.00000000,0.00043957,0.00000000,0.00000001,0.000000,0.000000,0.000000,0.000000,0.000000,0.000000,0.000000,0.000000,0.17702124,0.06124011,0.01717814,0.02319523,0.00690901,0.00000000,0.00000000,0.06849875,0.00510334,0.00858907,0.00927809,0.01381802,1.36997504,0.00000000,0.00000000
11.200,1,1,1,-531.145,190.895,49.153,25.674396,-1.043443,-1.043443,-26.717839,0.000000,0.749535,0.267795,0.236030,2.435071,0.226568,1.234305,1.971067,-0.816465,1.709012,1.612021,25.346175,-11.806380,37.152554,13.539795,0.00044854,0.00000000,0.00044852,0.00000000,0.00000001,0.000000,0.000000,0.000000,0.000000,0.000000,0.000000,0.000000,0.000000,0.17852330,0.06126050,0.01741507,0.02364723,0.00691917,0.00000000,0.00000000,0.06928133,0.00510504,0.00870753,0.00945889,0.01383834,1.38562669,0.00000000,0.00000000
11.300,1,1,1,-531.120,190.905,49.128,25.456465,-1.056042,-1.056042,-26.512506,0.000000,0.750969,0.269951,0.373158,1.747521,0.204467,1.229252,2.044914,0.286479,1.822538,1.616431,25.363675,-11.712538,37.076213,13.651137,0.00045741,0.00000000,0.00045740,0.00000000,0.00000001,0.000000,0.000000,0.000000,0.000000,0.000000,0.000000,0.000000,0.000000,0.17984108,0.06131131,0.01766941,0.02387941,0.00692042,0.00000000,0.00000000,0.07006054,0.00510928,0.00883470,0.00955176,0.01384084,1.40121081,0.00000000,0.00000000
11.400,1,1,1,-531.095,190.916,49.103,25.220480,-1.068420,-1.068420,-26.288900,0.000000,0.752733,0.271491,0.517118,2.764521,0.272973,1.224727,2.103440,-0.830789,1.928657,1.621426,25.430978,-11.664653,37.095631,13.766324,0.00046628,0.00000000,0.00046627,0.00000000,0.00000001,0.000000,0.000000,0.000000,0.000000,0.000000,0.000000,0.000000,0.000000,0.18158349,0.06140905,0.01793892,0.02446135,0.00693093,0.00000000,0.00000000,0.07084324,0.00511742,0.00896946,0.00978454,0.01386186,1.41686474,0.00000000,0.00000000
11.500,1,1,1,-531.070,190.926,49.079,24.985437,-1.080589,-1.080589,-26.066026,0.000000,0.754828,0.270339,0.655586,1.661578,0.388491,1.220855,2.139773,-0.558634,2.013014,1.626737,25.630152,-11.548818,37.178970,14.081335,0.00047521,0.00000000,0.00047520,0.00000000,0.00000001,0.000000,0.000000,0.000000,0.000000,0.000000,0.000000,0.000000,0.000000,0.18302481,0.06156615,0.01821787,0.02467159,0.00693568,0.00000000,0.00000000,0.07163351,0.00513051,0.00910893,0.00986864,0.01387137,1.43267018,0.00000000,0.00000000
11.600,1,1,1,-531.045,190.935,49.054,24.751344,-1.092598,-1.092598,-25.843942,0.000000,0.757246,0.269093,0.786499,2.134268,0.516711,1.217719,2.154032,-0.429718,2.075365,1.632103,25.848804,-11.483853,37.332658,14.364951,0.00048429,0.00000000,0.00048428,0.00000000,0.00000001,0.000000,0.000000,0.000000,0.000000,0.000000,0.000000,0.000000,0.000000,0.18468318,0.06179225,0.01850052,0.02501845,0.00693850,0.00000000,0.00000000,0.07243347,0.00514935,0.00925026,0.01000738,0.01387699,1.44866936,0.00000000,0.00000000
11.700,1,1,1,-531.021,190.945,49.030,24.518211,-1.104519,-1.104519,-25.622730,0.000000,0.759979,0.266358,0.906740,1.704549,0.645432,1.215357,2.146147,-0.171887,2.115751,1.637270,26.143235,-11.389022,37.532257,14.754213,0.00049365,0.00000000,0.00049363,0.00000000,0.00000001,0.000000,0.000000,0.000000,0.000000,0.000000,0.000000,0.000000,0.000000,0.18629974,0.06209288,0.01878122,0.02523979,0.00693895,0.00000000,0.00000000,0.07324691,0.00517441,0.00939061,0.01009591,0.01387789,1.46493818,0.00000000,0.00000000
