t,controller_id,state_code,wp_idx,x,y,dist,yaw_deg,yaw_to_wp_deg,yaw_ref_deg,yaw_err_deg,yaw_rate_deg_s,speed_ref,speed_meas,roll_deg,roll_rate_deg_s,roll_rms_window_deg,roll_rms_total_deg,pitch_deg,pitch_rate_deg_s,pitch_rms_window_deg,pitch_rms_total_deg,base_cmd,diff_cmd,T_left,T_right,J_inst,J_goal,J_wave_roll,J_progress,J_smooth,J_mpc_distance,J_mpc_final,J_mpc_heading,J_mpc_wrong_way,J_mpc_pitch,J_mpc_control,J_mpc_slew,J_mpc_turn,J_total,J_roll,J_pitch,J_roll_rate,J_pitch_rate,J_goal_heading,J_no_progress,J_control,I_roll,I_pitch,I_roll_rate,I_pitch_rate,I_control,I_no_progress,I_goal_heading
0.200,1,1,1,-531.999,189.998,49.999,56.937866,0.002212,0.002212,-56.935653,0.000000,0.408653,0.000000,0.090874,1.375099,0.052988,0.000000,0.621533,-0.415394,0.580838,0.000000,0.000000,-5.000000,5.000000,-5.000000,0.00000000,0.00000000,0.00000000,0.00000000,0.00000000,0.000000,0.000000,0.000000,0.000000,0.000000,0.000000,0.000000,0.000000,0.00000000,0.00000000,0.00000000,0.00000000,0.00000000,0.00000000,0.00000000,0.00000000,0.00000000,0.00000000,0.00000000,0.00000000,0.00000000,0.00000000,0.00000000
0.321,1,1,1,-531.999,189.998,49.999,56.937866,0.002212,0.002212,-56.935653,0.000000,0.408653,0.000000,0.090874,1.375099,0.052988,0.090874,0.621533,-0.415394,0.580838,0.621533,0.000000,-10.000000,10.000000,-10.000000,0.00000000,0.00000000,0.00000000,0.00000000,0.00000000,0.000000,0.000000,0.000000,0.000000,0.000000,0.000000,0.000000,0.000000,0.00032978,0.00000364,0.00002841,0.00017383,0.00000317,0.00000000,0.00000000,0.00012072,0.00000030,0.00001421,0.00006953,0.00000635,0.00241435,0.00000000,0.00000000
0.400,1,1,1,-531.998,189.996,49.998,56.893974,0.004429,0.004429,-56.889545,0.000000,0.405095,0.004050,0.197441,1.847789,0.112732,0.142959,0.768126,0.902409,0.640134,0.683415,1.881431,-13.118569,15.000000,-11.237139,0.00000000,0.00000000,0.00000000,0.00000000,0.00000000,0.000000,0.000000,0.000000,0.000000,0.000000,0.000000,0.000000,0.000000,0.00072478,0.00001494,0.00005691,0.00037997,0.00001301,0.00000000,0.00000000,0.00025996,0.00000125,0.00002845,0.00015199,0.00002601,0.00519918,0.00000000,0.00000000
0.500,1,1,1,-531.997,189.996,49.997,56.856225,0.004997,0.004997,-56.851228,0.000000,0.403364,0.007012,0.248272,0.572958,0.143822,0.184868,0.850473,0.042972,0.680612,0.743305,4.350226,-15.649774,20.000000,-11.299548,0.00000000,0.00000000,0.00000000,0.00000000,0.00000000,0.000000,0.000000,0.000000,0.000000,0.000000,0.000000,0.000000,0.000000,0.00108044,0.00003748,0.00010100,0.00040498,0.00001303,0.00000000,0.00000000,0.00052394,0.00000312,0.00005050,0.00016199,0.00002607,0.01047876,0.00000000,0.00000000
0.600,1,1,1,-531.996,189.995,49.996,56.794738,0.005578,0.005578,-56.789160,0.000000,0.400539,0.007268,0.300466,1.131592,0.194213,0.219538,0.919054,0.229183,0.754534,0.790895,6.844598,-18.155402,25.000000,-11.310803,0.00000000,0.00000000,0.00000000,0.00000000,0.00000000,0.000000,0.000000,0.000000,0.000000,0.000000,0.000000,0.000000,0.000000,0.00163950,0.00007047,0.00015244,0.00050247,0.00001383,0.00000000,0.00000000,0.00090028,0.00000587,0.00007622,0.00020099,0.00002767,0.01800563,0.00000000,0.00000000
0.700,1,1,1,-531.996,189.994,49.996,56.711631,0.006392,0.006392,-56.705239,0.000000,0.398095,0.007229,0.343235,0.085944,0.244435,0.249236,0.942428,-1.217535,0.825047,0.823433,9.394574,-20.605426,30.000000,-11.210852,0.00000000,0.00000000,0.00000000,0.00000000,0.00000000,0.000000,0.000000,0.000000,0.000000,0.000000,0.000000,0.000000,0.000000,0.00227260,0.00011354,0.00020655,0.00050303,0.00003641,0.00000000,0.00000000,0.00141308,0.00000946,0.00010327,0.00020121,0.00007282,0.02826164,0.00000000,0.00000000
0.800,1,1,1,-531.996,189.994,49.996,56.605333,0.007158,0.007158,-56.598176,0.000000,0.396395,0.007255,0.379328,0.845113,0.291326,0.275219,0.935155,0.300803,0.879991,0.843080,11.941838,-23.058162,35.000000,-11.116323,0.00000001,0.00000000,0.00000000,0.00000000,0.00000000,0.000000,0.000000,0.000000,0.000000,0.000000,0.000000,0.000000,0.000000,0.00310844,0.00016613,0.00025982,0.00055741,0.00003779,0.00000000,0.00000000,0.00208729,0.00001384,0.00012991,0.00022297,0.00007558,0.04174583,0.00000000,0.00000000
0.900,1,1,1,-531.997,189.994,49.997,56.474405,0.007171,0.007171,-56.467234,0.000000,0.395523,0.005640,0.412867,0.386747,0.334220,0.298794,0.932855,-1.045648,0.915398,0.856483,14.430064,-25.292434,39.722498,-10.862371,0.00000001,0.00000000,0.00000001,0.00000000,0.00000000,0.000000,0.000000,0.000000,0.000000,0.000000,0.000000,0.000000,0.000000,0.00409989,0.00022845,0.00031284,0.00056880,0.00005444,0.00000000,0.00000000,0.00293535,0.00001904,0.00015642,0.00022752,0.00010889,0.05870705,0.00000000,0.00000000
1.000,1,1,1,-531.996,189.995,49.996,56.317920,0.005788,0.005788,-56.312132,0.000000,0.395479,0.009961,0.443258,-0.372423,0.372514,0.320431,0.959439,-0.601606,0.934947,0.870017,14.220538,-25.020039,39.240577,-10.799502,0.00000000,0.00000000,0.00000000,0.00000000,0.00000000,0.000000,0.000000,0.000000,0.000000,0.000000,0.000000,0.000000,0.000000,0.00507195,0.00030026,0.00036892,0.00057937,0.00005996,0.00000000,0.00000000,0.00376346,0.00002502,0.00018446,0.00023175,0.00011991,0.07526912,0.00000000,0.00000000
1.100,1,1,1,-531.996,189.997,49.996,56.137217,0.002897,0.002897,-56.134320,0.000000,0.396142,0.016748,0.466263,0.257831,0.405914,0.339739,1.008343,0.057296,0.949822,0.886452,13.965338,-24.803401,38.768739,-10.838063,0.00000000,0.00000000,0.00000000,0.00000000,0.00000000,0.000000,0.000000,0.000000,0.000000,0.000000,0.000000,0.000000,0.000000,0.00602864,0.00037972,0.00043086,0.00058443,0.00006001,0.00000000,0.00000000,0.00457363,0.00003164,0.00021543,0.00023377,0.00012001,0.09147268,0.00000000,0.00000000
1.200,1,1,1,-531.995,190.001,49.995,55.935477,-0.001091,-0.001091,-55.936568,0.000000,0.397398,0.024735,0.477684,0.601606,0.433721,0.355949,1.053785,-0.028648,0.971306,0.904581,13.708497,-24.585594,38.294092,-10.877097,0.00000000,0.00000000,0.00000000,0.00000000,0.00000000,0.000000,0.000000,0.000000,0.000000,0.000000,0.000000,0.000000,0.000000,0.00699977,0.00046314,0.00049852,0.00061199,0.00006002,0.00000000,0.00000000,0.00536610,0.00003859,0.00024926,0.00024480,0.00012004,0.10732199,0.00000000,0.00000000
1.300,1,1,1,-531.995,190.005,49.995,55.715496,-0.005715,-0.005715,-55.721211,0.000000,0.399272,0.032432,0.478461,-0.243507,0.454694,0.368772,1.075292,0.386747,1.001385,0.921408,13.508224,-24.339245,37.847469,-10.831020,0.00000001,0.00000000,0.00000000,0.00000000,0.00000000,0.000000,0.000000,0.000000,0.000000,0.000000,0.000000,0.000000,0.000000,0.00793553,0.00054682,0.00056896,0.00061651,0.00006230,0.00000000,0.00000000,0.00614095,0.00004557,0.00028448,0.00024660,0.00012459,0.12281896,0.00000000,0.00000000
1.400,1,1,1,-531.994,190.009,49.994,55.479776,-0.010785,-0.010785,-55.490561,0.000000,0.401885,0.037542,0.472657,-0.515662,0.467755,0.378519,1.071494,-0.787817,1.032125,0.934836,13.458943,-24.121091,37.580034,-10.662148,0.00000002,0.00000000,0.00000002,0.00000000,0.00000000,0.000000,0.000000,0.000000,0.000000,0.000000,0.000000,0.000000,0.000000,0.00887979,0.00062848,0.00063890,0.00063676,0.00007175,0.00000000,0.00000000,0.00690390,0.00005237,0.00031945,0.00025470,0.00014350,0.13807797,0.00000000,0.00000000
1.500,1,1,1,-531.994,190.014,49.994,55.230626,-0.016390,-0.016390,-55.247016,0.000000,0.405331,0.042379,0.462275,0.701873,0.472630,0.385608,1.053651,-0.744845,1.053530,0.944505,13.462150,-23.956746,37.418897,-10.494596,0.00000004,0.00000000,0.00000004,0.00000000,0.00000000,0.000000,0.000000,0.000000,0.000000,0.000000,0.000000,0.000000,0.000000,0.00982659,0.00070659,0.00070653,0.00067427,0.00008020,0.00000000,0.00000000,0.00765900,0.00005888,0.00035327,0.00026971,0.00016040,0.15318003,0.00000000,0.00000000
1.600,1,1,1,-531.993,190.020,49.993,54.969803,-0.022680,-0.022680,-54.992483,0.000000,0.409627,0.048004,0.445158,-0.071620,0.469720,0.390163,1.030659,-0.200535,1.059958,0.950918,13.472107,-23.734933,37.207041,-10.262826,0.00000008,0.00000000,0.00000008,0.00000000,0.00000000,0.000000,0.000000,0.000000,0.000000,0.000000,0.000000,0.000000,0.000000,0.01070949,0.00077902,0.00077124,0.00067466,0.00008081,0.00000000,0.00000000,0.00840376,0.00006492,0.00038562,0.00026986,0.00016162,0.16807518,0.00000000,0.00000000
1.700,1,1,1,-531.992,190.026,49.992,54.721138,-0.029684,-0.029684,-54.750822,0.000000,0.414258,0.058063,0.421037,-0.014324,0.460954,0.392299,1.005182,-1.059972,1.052847,0.954636,13.316417,-23.557933,36.874349,-10.241516,0.00000014,0.00000000,0.00000013,0.00000000,0.00000000,0.000000,0.000000,0.000000,0.000000,0.000000,0.000000,0.000000,0.000000,0.01158646,0.00084391,0.00083288,0.00067468,0.00009795,0.00000000,0.00000000,0.00913705,0.00007033,0.00041644,0.00026987,0.00019589,0.18274098,0.00000000,0.00000000
1.800,1,1,1,-531.992,190.033,49.992,54.442788,-0.037337,-0.037337,-54.480125,0.000000,0.420027,0.061875,0.385837,-0.329451,0.444629,0.391899,0.970190,-1.948057,1.033776,0.955615,13.472319,-23.363950,36.836269,-9.891631,0.00000021,0.00000000,0.00000021,0.00000000,0.00000000,0.000000,0.000000,0.000000,0.000000,0.000000,0.000000,0.000000,0.000000,0.01249146,0.00089831,0.00089021,0.00068294,0.00015573,0.00000000,0.00000000,0.00986426,0.00007486,0.00044511,0.00027318,0.00031147,0.19728522,0.00000000,0.00000000
1.900,1,1,1,-531.991,190.040,49.991,54.156926,-0.045582,-0.045582,-54.202508,0.000000,0.426519,0.066561,0.344067,-0.100268,0.421235,0.389248,0.928992,-1.160240,1.006700,0.954070,13.618793,-23.192459,36.811252,-9.573665,0.00000030,0.00000000,0.00000029,0.00000000,0.00000001,0.000000,0.000000,0.000000,0.000000,0.000000,0.000000,0.000000,0.000000,0.01333178,0.00094158,0.00094278,0.00068371,0.00017623,0.00000000,0.00000000,0.01058748,0.00007846,0.00047139,0.00027348,0.00035246,0.21174963,0.00000000,0.00000000
2.000,1,1,1,-531.990,190.048,49.990,53.865519,-0.054445,-0.054445,-53.919963,0.000000,0.433699,0.072071,0.298873,-0.343775,0.390724,0.384785,0.886923,-1.561310,0.974126,0.950464,13.757419,-23.011153,36.768572,-9.253734,0.00000039,0.00000000,0.00000038,0.00000000,0.00000001,0.000000,0.000000,0.000000,0.000000,0.000000,0.000000,0.000000,0.000000,0.01417725,0.00097423,0.00099071,0.00069271,0.00021336,0.00000000,0.00000000,0.01130625,0.00008119,0.00049535,0.00027708,0.00042672,0.22612491,0.00000000,0.00000000
2.100,1,1,1,-531.989,190.056,49.989,53.568651,-0.063962,-0.063962,-53.632614,0.000000,0.439165,0.077953,0.249956,0.157563,0.353688,0.378886,0.846560,-1.017000,0.937452,0.945280,13.808604,-22.857696,36.666300,-9.049092,0.00000053,0.00000000,0.00000052,0.00000000,0.00000001,0.000000,0.000000,0.000000,0.000000,0.000000,0.000000,0.000000,0.000000,0.01497462,0.00099707,0.00103437,0.00069460,0.00022911,0.00000000,0.00000000,0.01201946,0.00008309,0.00051719,0.00027784,0.00045823,0.24038926,0.00000000,0.00000000
2.200,1,1,1,-531.988,190.065,49.988,53.267916,-0.074059,-0.074059,-53.341975,0.000000,0.444490,0.083490,0.196509,-0.458366,0.311376,0.371898,0.803205,-0.959704,0.897657,0.938688,13.869418,-22.672949,36.542367,-8.803532,0.00000070,0.00000000,0.00000069,0.00000000,0.00000001,0.000000,0.000000,0.000000,0.000000,0.000000,0.000000,0.000000,0.000000,0.01576448,0.00101118,0.00107368,0.00071060,0.00024314,0.00000000,0.00000000,0.01272588,0.00008427,0.00053684,0.00028424,0.00048628,0.25451753,0.00000000,0.00000000
2.300,1,1,1,-531.986,190.074,49.986,52.963559,-0.084582,-0.084582,-53.048142,0.000000,0.449974,0.092989,0.138669,-0.802141,0.265184,0.364195,0.749039,-0.487014,0.854945,0.930534,13.774387,-22.501909,36.276297,-8.727522,0.00000089,0.00000000,0.00000088,0.00000000,0.00000001,0.000000,0.000000,0.000000,0.000000,0.000000,0.000000,0.000000,0.000000,0.01655439,0.00101821,0.00110786,0.00075960,0.00024675,0.00000000,0.00000000,0.01342197,0.00008485,0.00055393,0.00030384,0.00049351,0.26843939,0.00000000,0.00000000
2.400,1,1,1,-531.985,190.083,49.985,52.656523,-0.095441,-0.095441,-52.751964,0.000000,0.455581,0.094755,0.077873,-0.415394,0.216394,0.356208,0.681496,-0.515662,0.808114,0.920675,14.008196,-22.357460,36.365656,-8.349264,0.00000111,0.00000000,0.00000110,0.00000000,0.00000001,0.000000,0.000000,0.000000,0.000000,0.000000,0.000000,0.000000,0.000000,0.01729829,0.00102043,0.00113616,0.00077274,0.00025080,0.00000000,0.00000000,0.01411816,0.00008504,0.00056808,0.00030910,0.00050161,0.28236317,0.00000000,0.00000000
2.500,1,1,1,-531.983,190.093,49.983,52.347343,-0.106662,-0.106662,-52.454005,0.000000,0.461274,0.096991,0.016697,-0.558634,0.166569,0.348398,0.606738,-0.157563,0.755194,0.909287,14.220671,-22.199034,36.419705,-7.978362,0.00000136,0.00000000,0.00000135,0.00000000,0.00000001,0.000000,0.000000,0.000000,0.000000,0.000000,0.000000,0.000000,0.000000,0.01803972,0.00102053,0.00115858,0.00079650,0.00025118,0.00000000,0.00000000,0.01481293,0.00008504,0.00057929,0.00031860,0.00050237,0.29625853,0.00000000,0.00000000
2.600,1,1,1,-531.981,190.103,49.981,52.036636,-0.118370,-0.118370,-52.155006,0.000000,0.467005,0.100331,-0.043437,-0.587282,0.119108,0.341179,0.534834,-1.733197,0.695199,0.896814,14.385558,-22.047992,36.433550,-7.662434,0.00000163,0.00000000,0.00000162,0.00000000,0.00000001,0.000000,0.000000,0.000000,0.000000,0.000000,0.000000,0.000000,0.000000,0.01882280,0.00102122,0.00117600,0.00082276,0.00029693,0.00000000,0.00000000,0.01550588,0.00008510,0.00058800,0.00032910,0.00059386,0.31011766,0.00000000,0.00000000
2.700,1,1,1,-531.979,190.114,49.979,51.724450,-0.130679,-0.130679,-51.855129,0.000000,0.472734,0.105397,-0.102545,-0.873761,0.084107,0.334912,0.471972,-0.974028,0.629598,0.883744,14.477693,-21.892191,36.369884,-7.414498,0.00000195,0.00000000,0.00000194,0.00000000,0.00000001,0.000000,0.000000,0.000000,0.000000,0.000000,0.000000,0.000000,0.000000,0.01960204,0.00102507,0.00118958,0.00088093,0.00031139,0.00000000,0.00000000,0.01619508,0.00008542,0.00059479,0.00035237,0.00062277,0.32390163,0.00000000,0.00000000
2.800,1,1,1,-531.976,190.125,49.976,51.411278,-0.143561,-0.143561,-51.554839,0.000000,0.478420,0.110728,-0.160677,-0.200535,0.083338,0.329921,0.416827,-1.618606,0.562207,0.870442,14.557974,-21.769232,36.327206,-7.211258,0.00000231,0.00000000,0.00000229,0.00000000,0.00000001,0.000000,0.000000,0.000000,0.000000,0.000000,0.000000,0.000000,0.000000,0.02035017,0.00103450,0.00120015,0.00088399,0.00035125,0.00000000,0.00000000,0.01688028,0.00008621,0.00060008,0.00035360,0.00070250,0.33760561,0.00000000,0.00000000
2.900,1,1,1,-531.973,190.137,49.973,51.098113,-0.156904,-0.156904,-51.255018,0.000000,0.484015,0.115219,-0.216769,0.343775,0.117454,0.326427,0.364157,-0.444042,0.497305,0.857028,14.670371,-21.643483,36.313854,-6.973112,0.00000271,0.00000000,0.00000270,0.00000000,0.00000001,0.000000,0.000000,0.000000,0.000000,0.000000,0.000000,0.000000,0.000000,0.02107180,0.00105169,0.00120824,0.00089300,0.00035426,0.00000000,0.00000000,0.01756461,0.00008764,0.00060412,0.00035720,0.00070852,0.35129218,0.00000000,0.00000000
3.000,1,1,1,-531.970,190.149,49.970,50.784803,-0.170612,-0.170612,-50.955414,0.000000,0.489502,0.119395,-0.269068,-1.031324,0.164666,0.324554,0.310824,-0.988352,0.437293,0.843641,14.791198,-21.460640,36.251837,-6.669442,0.00000317,0.00000000,0.00000316,0.00000000,0.00000001,0.000000,0.000000,0.000000,0.000000,0.000000,0.000000,0.000000,0.000000,0.02187885,0.00107814,0.00121412,0.00097395,0.00036913,0.00000000,0.00000000,0.01824352,0.00008984,0.00060706,0.00038958,0.00073825,0.36487035,0.00000000,0.00000000
3.100,1,1,1,-531.966,190.161,49.966,50.470634,-0.184665,-0.184665,-50.655298,0.000000,0.494877,0.124058,-0.316311,-0.358099,0.214405,0.324273,0.258351,-0.429718,0.381941,0.830323,14.887355,-21.346784,36.234139,-6.459429,0.00000369,0.00000000,0.00000368,0.00000000,0.00000002,0.000000,0.000000,0.000000,0.000000,0.000000,0.000000,0.000000,0.000000,0.02261122,0.00111480,0.00121820,0.00098374,0.00037195,0.00000000,0.00000000,0.01892253,0.00009290,0.00060910,0.00039349,0.00074389,0.37845063,0.00000000,0.00000000
3.200,1,1,1,-531.962,190.174,49.962,50.194702,-0.199102,-0.199102,-50.393804,0.000000,0.499479,0.127279,-0.353438,0.014324,0.258102,0.325285,0.216029,-1.017000,0.334897,0.817344,15.011436,-21.243171,36.254607,-6.231734,0.00000429,0.00000000,0.00000427,0.00000000,0.00000002,0.000000,0.000000,0.000000,0.000000,0.000000,0.000000,0.000000,0.000000,0.02335073,0.00116038,0.00122104,0.00098375,0.00038767,0.00000000,0.00000000,0.01959789,0.00009670,0.00061052,0.00039350,0.00077534,0.39195786,0.00000000,0.00000000
3.300,1,1,1,-531.957,190.187,49.958,49.843868,-0.213955,-0.213955,-50.057823,0.000000,0.505232,0.131981,-0.394702,0.042972,0.308165,0.327752,0.170492,-1.546986,0.279947,0.804648,15.121658,-21.092484,36.214143,-5.970826,0.00000496,0.00000000,0.00000495,0.00000000,0.00000002,0.000000,0.000000,0.000000,0.000000,0.000000,0.000000,0.000000,0.000000,0.02411883,0.00121727,0.00122281,0.00098389,0.00042408,0.00000000,0.00000000,0.02027078,0.00010144,0.00061140,0.00039356,0.00084817,0.40541560,0.00000000,0.00000000
3.400,1,1,1,-531.952,190.200,49.953,49.568610,-0.229215,-0.229215,-49.797825,0.000000,0.508140,0.135989,-0.422169,-0.830789,0.345355,0.331113,0.141662,-0.845113,0.237706,0.792362,15.143585,-20.954641,36.098226,-5.811056,0.00000605,0.00000000,0.00000603,0.00000000,0.00000002,0.000000,0.000000,0.000000,0.000000,0.000000,0.000000,0.000000,0.000000,0.02491774,0.00128247,0.00122403,0.00103650,0.00043497,0.00000000,0.00000000,0.02093976,0.00010687,0.00061202,0.00041460,0.00086994,0.41879522,0.00000000,0.00000000
3.500,1,1,1,-531.947,190.213,49.947,49.218977,-0.244849,-0.244849,-49.463825,0.000000,0.510603,0.140392,-0.449790,0.329451,0.385387,0.335322,0.113614,-1.002676,0.191290,0.780528,15.133595,-20.846007,35.979602,-5.712411,0.00000770,0.00000000,0.00000768,0.00000000,0.00000002,0.000000,0.000000,0.000000,0.000000,0.000000,0.000000,0.000000,0.000000,0.02567877,0.00135634,0.00122482,0.00104475,0.00045027,0.00000000,0.00000000,0.02160259,0.00011303,0.00061241,0.00041790,0.00090053,0.43205186,0.00000000,0.00000000
3.600,1,1,1,-531.941,190.227,49.942,48.906721,-0.260837,-0.260837,-49.167558,0.000000,0.513159,0.145344,-0.466711,0.100268,0.415894,0.339915,0.097717,-0.802141,0.156016,0.769140,15.108188,-20.712440,35.820628,-5.604252,0.00000942,0.00000000,0.00000940,0.00000000,0.00000002,0.000000,0.000000,0.000000,0.000000,0.000000,0.000000,0.000000,0.000000,0.02642723,0.00143601,0.00122540,0.00104552,0.00046007,0.00000000,0.00000000,0.02226023,0.00011967,0.00061270,0.00041821,0.00092014,0.44520455,0.00000000,0.00000000
3.700,1,1,1,-531.935,190.242,49.935,48.596980,-0.277179,-0.277179,-48.874159,0.000000,0.516134,0.155364,-0.476273,-0.100268,0.440254,0.344560,0.092033,-0.315127,0.128578,0.758234,14.894189,-20.583607,35.477796,-5.689418,0.00001126,0.00000000,0.00001124,0.00000000,0.00000002,0.000000,0.000000,0.000000,0.000000,0.000000,0.000000,0.000000,0.000000,0.02715835,0.00151892,0.00122591,0.00104629,0.00046158,0.00000000,0.00000000,0.02290565,0.00012658,0.00061296,0.00041851,0.00092317,0.45811306,0.00000000,0.00000000
3.800,1,1,1,-531.928,190.256,49.929,48.324388,-0.293862,-0.293862,-48.618250,0.000000,0.519132,0.154203,-0.478803,0.529986,0.456557,0.348989,0.095758,0.042972,0.111395,0.747794,15.149772,-20.500402,35.650173,-5.350630,0.00001312,0.00000000,0.00001310,0.00000000,0.00000002,0.000000,0.000000,0.000000,0.000000,0.000000,0.000000,0.000000,0.000000,0.02791432,0.00160276,0.00122647,0.00106769,0.00046161,0.00000000,0.00000000,0.02355578,0.00013356,0.00061324,0.00042708,0.00092323,0.47111560,0.00000000,0.00000000
3.900,1,1,1,-531.921,190.271,49.922,48.014457,-0.310848,-0.310848,-48.325305,0.000000,0.523113,0.156254,-0.475615,-0.085944,0.468228,0.353010,0.108313,-0.572958,0.101716,0.737831,15.306086,-20.360273,35.666359,-5.054187,0.00001506,0.00000000,0.00001503,0.00000000,0.00000002,0.000000,0.000000,0.000000,0.000000,0.000000,0.000000,0.000000,0.000000,0.02865237,0.00168548,0.00122719,0.00106825,0.00046661,0.00000000,0.00000000,0.02420484,0.00014046,0.00061359,0.00042730,0.00093323,0.48409681,0.00000000,0.00000000
4.000,1,1,1,-531.917,190.279,49.918,47.732228,-0.319783,-0.319783,-48.052012,0.000000,0.527356,0.155194,-0.466625,-0.687549,0.472891,0.356463,0.125569,-0.587282,0.102005,0.728347,15.598224,-20.233079,35.831303,-4.634855,0.00001607,0.00000000,0.00001607,0.00000000,0.00000001,0.000000,0.000000,0.000000,0.000000,0.000000,0.000000,0.000000,0.000000,0.02942647,0.00176503,0.00122815,0.00110423,0.00047186,0.00000000,0.00000000,0.02485719,0.00014709,0.00061407,0.00044169,0.00094373,0.49714383,0.00000000,0.00000000
4.100,1,1,1,-531.909,190.294,49.910,47.424126,-0.337139,-0.337139,-47.761265,0.000000,0.532395,0.156043,-0.450075,0.315127,0.471609,0.359171,0.149362,-0.716197,0.111446,0.719334,15.838233,-20.148965,35.987197,-4.310732,0.00001783,0.00000000,0.00001781,0.00000000,0.00000002,0.000000,0.000000,0.000000,0.000000,0.000000,0.000000,0.000000,0.000000,0.03017513,0.00183918,0.00122951,0.00111181,0.00047969,0.00000000,0.00000000,0.02551495,0.00015327,0.00061475,0.00044472,0.00095938,0.51029891,0.00000000,0.00000000
4.200,1,1,1,-531.901,190.309,49.902,47.157411,-0.354726,-0.354726,-47.512137,0.000000,0.537242,0.160799,-0.429784,0.558634,0.464708,0.361102,0.175383,-0.859437,0.126697,0.710841,15.905539,-20.059467,35.965005,-4.153928,0.00001945,0.00000000,0.00001943,0.00000000,0.00000002,0.000000,0.000000,0.000000,0.000000,0.000000,0.000000,0.000000,0.000000,0.03093371,0.00190660,0.00123138,0.00113553,0.00049092,0.00000000,0.00000000,0.02616928,0.00015888,0.00061569,0.00045421,0.00098184,0.52338552,0.00000000,0.00000000
4.300,1,1,1,-531.892,190.324,49.893,46.851276,-0.372573,-0.372573,-47.223849,0.000000,0.543368,0.145361,-0.400907,1.561310,0.450772,0.362124,0.212498,-0.816465,0.150189,0.702906,16.859912,-19.974582,36.834493,-3.114670,0.00002082,0.00000000,0.00002079,0.00000000,0.00000002,0.000000,0.000000,0.000000,0.000000,0.000000,0.000000,0.000000,0.000000,0.03187379,0.00196532,0.00123413,0.00132108,0.00050107,0.00000000,0.00000000,0.02685219,0.00016378,0.00061707,0.00052843,0.00100214,0.53704372,0.00000000,0.00000000
4.400,1,1,1,-531.883,190.340,49.884,46.546079,-0.390722,-0.390722,-46.936801,0.000000,0.550057,0.162498,-0.367433,0.845113,0.430528,0.362252,0.258322,-0.272155,0.180578,0.695630,16.471358,-19.836105,36.307463,-3.364747,0.00002186,0.00000000,0.00002184,0.00000000,0.00000003,0.000000,0.000000,0.000000,0.000000,0.000000,0.000000,0.000000,0.000000,0.03264751,0.00201467,0.00123820,0.00137548,0.00050220,0.00000000,0.00000000,0.02751697,0.00016789,0.00061910,0.00055019,0.00100439,0.55033938,0.00000000,0.00000000
4.500,1,1,1,-531.873,190.356,49.875,46.244800,-0.409172,-0.409172,-46.653973,0.000000,0.557239,0.173349,-0.328530,0.286479,0.404352,0.361503,0.311882,0.186211,0.218191,0.689138,16.382128,-19.707808,36.089935,-3.325680,0.00002252,0.00000000,0.00002249,0.00000000,0.00000003,0.000000,0.000000,0.000000,0.000000,0.000000,0.000000,0.000000,0.000000,0.03335634,0.00205412,0.00124412,0.00138172,0.00050272,0.00000000,0.00000000,0.02817365,0.00017118,0.00062206,0.00055269,0.00100545,0.56347302,0.00000000,0.00000000
4.600,1,1,1,-531.863,190.372,49.865,45.965799,-0.427867,-0.427867,-46.393666,0.000000,0.564263,0.176262,-0.288734,2.162916,0.376118,0.360010,0.366240,0.558634,0.258271,0.683484,16.621100,-19.666583,36.287683,-3.045483,0.00002291,0.00000000,0.00002288,0.00000000,0.00000003,0.000000,0.000000,0.000000,0.000000,0.000000,0.000000,0.000000,0.000000,0.03442129,0.00208466,0.00125231,0.00173874,0.00050749,0.00000000,0.00000000,0.02883809,0.00017372,0.00062616,0.00069550,0.00101498,0.57676178,0.00000000,0.00000000
4.700,1,1,1,-531.853,190.389,49.854,45.704477,-0.446769,-0.446769,-46.151247,0.000000,0.569898,0.182904,-0.247963,1.432394,0.344043,0.357904,0.421073,0.630254,0.303681,0.678762,16.645520,-19.549285,36.194805,-2.903766,0.00002390,0.00000000,0.00002388,0.00000000,0.00000003,0.000000,0.000000,0.000000,0.000000,0.000000,0.000000,0.000000,0.000000,0.03527503,0.00210711,0.00126310,0.00189480,0.00051353,0.00000000,0.00000000,0.02949650,0.00017559,0.00063155,0.00075792,0.00102706,0.58993000,0.00000000,0.00000000
4.800,1,1,1,-531.842,190.405,49.844,45.369192,-0.465856,-0.465856,-45.835048,0.000000,0.575486,0.188514,-0.192909,0.529986,0.300380,0.355135,0.493150,0.558634,0.365180,0.675272,16.714107,-19.395117,36.109224,-2.681009,0.00002584,0.00000000,0.00002581,0.00000000,0.00000003,0.000000,0.000000,0.000000,0.000000,0.000000,0.000000,0.000000,0.000000,0.03598455,0.00212070,0.00127790,0.00191617,0.00051828,0.00000000,0.00000000,0.03015150,0.00017672,0.00063895,0.00076647,0.00103656,0.60302996,0.00000000,0.00000000
4.900,1,1,1,-531.831,190.422,49.833,45.103276,-0.485107,-0.485107,-45.588383,0.000000,0.579952,0.193395,-0.147737,0.744845,0.261618,0.351994,0.550980,0.128916,0.419081,0.672864,16.768220,-19.310569,36.078789,-2.542348,0.00002780,0.00000000,0.00002777,0.00000000,0.00000003,0.000000,0.000000,0.000000,0.000000,0.000000,0.000000,0.000000,0.000000,0.03670842,0.00212869,0.00129642,0.00195847,0.00051853,0.00000000,0.00000000,0.03080631,0.00017739,0.00064821,0.00078339,0.00103707,0.61612623,0.00000000,0.00000000
5.000,1,1,1,-531.820,190.439,49.822,44.807913,-0.504509,-0.504509,-45.312422,0.000000,0.584935,0.201958,-0.094849,0.945380,0.216264,0.348577,0.617354,1.002676,0.481609,0.671755,16.693608,-19.211206,35.904814,-2.517599,0.00002980,0.00000000,0.00002977,0.00000000,0.00000003,0.000000,0.000000,0.000000,0.000000,0.000000,0.000000,0.000000,0.000000,0.03746596,0.00213197,0.00131964,0.00202652,0.00053384,0.00000000,0.00000000,0.03145398,0.00017766,0.00065982,0.00081061,0.00106769,0.62907969,0.00000000,0.00000000
5.100,1,1,1,-531.808,190.456,49.810,44.513890,-0.524045,-0.524045,-45.037934,0.000000,0.589905,0.200502,-0.041105,0.716197,0.169893,0.345054,0.683475,0.372423,0.545797,0.671996,17.036422,-19.098857,36.135279,-2.062434,0.00003184,0.00000000,0.00003181,0.00000000,0.00000003,0.000000,0.000000,0.000000,0.000000,0.000000,0.000000,0.000000,0.000000,0.03819088,0.00213259,0.00134808,0.00206557,0.00053596,0.00000000,0.00000000,0.03210869,0.00017772,0.00067404,0.00082623,0.00107191,0.64217371,0.00000000,0.00000000
5.200,1,1,1,-531.796,190.473,49.799,44.240812,-0.543706,-0.543706,-44.784517,0.000000,0.594515,0.203584,0.007811,0.773493,0.129083,0.341585,0.743051,-0.415394,0.604208,0.673491,17.169492,-19.005502,36.174993,-1.836010,0.00003392,0.00000000,0.00003389,0.00000000,0.00000003,0.000000,0.000000,0.000000,0.000000,0.000000,0.000000,0.000000,0.000000,0.03892915,0.00213261,0.00138174,0.00211115,0.00053859,0.00000000,0.00000000,0.03276506,0.00017772,0.00069087,0.00084446,0.00107717,0.65530127,0.00000000,0.00000000
5.300,1,1,1,-531.784,190.490,49.787,43.949120,-0.563487,-0.563487,-44.512607,0.000000,0.599418,0.205405,0.060057,0.501338,0.089387,0.338324,0.805527,0.272155,0.668904,0.676328,17.366241,-18.893084,36.259325,-1.526843,0.00003607,0.00000000,0.00003604,0.00000000,0.00000003,0.000000,0.000000,0.000000,0.000000,0.000000,0.000000,0.000000,0.000000,0.03964891,0.00213393,0.00142128,0.00213030,0.00053971,0.00000000,0.00000000,0.03342369,0.00017783,0.00071064,0.00085212,0.00107943,0.66847387,0.00000000,0.00000000
5.400,1,1,1,-531.772,190.507,49.775,43.654821,-0.583373,-0.583373,-44.238194,0.000000,0.603465,0.208104,0.111118,0.787817,0.068706,0.335410,0.865060,-0.687549,0.732549,0.680450,17.489557,-18.796992,36.286549,-1.307435,0.00003829,0.00000000,0.00003826,0.00000000,0.00000003,0.000000,0.000000,0.000000,0.000000,0.000000,0.000000,0.000000,0.000000,0.04041247,0.00213844,0.00146685,0.00217755,0.00054691,0.00000000,0.00000000,0.03408271,0.00017820,0.00073343,0.00087102,0.00109382,0.68165422,0.00000000,0.00000000
5.500,1,1,1,-531.760,190.524,49.762,43.361739,-0.603365,-0.603365,-43.965104,0.000000,0.607405,0.209771,0.160128,0.272155,0.082702,0.332955,0.920901,0.673225,0.794272,0.685776,17.651632,-18.675916,36.327548,-1.024284,0.00004060,0.00000000,0.00004057,0.00000000,0.00000003,0.000000,0.000000,0.000000,0.000000,0.000000,0.000000,0.000000,0.000000,0.04114753,0.00214783,0.00151860,0.00218320,0.00055382,0.00000000,0.00000000,0.03474408,0.00017899,0.00075930,0.00087328,0.00110765,0.69488155,0.00000000,0.00000000
5.600,1,1,1,-531.747,190.541,49.750,43.073741,-0.623462,-0.623462,-43.697202,0.000000,0.611246,0.224442,0.205844,0.071620,0.118388,0.331047,0.971852,0.114592,0.853185,0.692142,17.273058,-18.567883,35.840940,-1.294825,0.00004304,0.00000000,0.00004300,0.00000000,0.00000003,0.000000,0.000000,0.000000,0.000000,0.000000,0.000000,0.000000,0.000000,0.04186353,0.00216330,0.00157608,0.00218359,0.00055402,0.00000000,0.00000000,0.03538653,0.00018028,0.00078804,0.00087344,0.00110805,0.70773063,0.00000000,0.00000000
5.700,1,1,1,-531.734,190.559,49.738,42.787001,-0.643625,-0.643625,-43.430626,0.000000,0.615058,0.218694,0.248264,0.759169,0.160138,0.329728,1.016637,-1.260507,0.908345,0.699384,17.750033,-18.487503,36.237535,-0.737470,0.00004560,0.00000000,0.00004557,0.00000000,0.00000003,0.000000,0.000000,0.000000,0.000000,0.000000,0.000000,0.000000,0.000000,0.04267363,0.00218582,0.00163902,0.00222746,0.00057821,0.00000000,0.00000000,0.03604311,0.00018215,0.00081951,0.00089098,0.00115643,0.72086221,0.00000000,0.00000000
5.800,1,1,1,-531.722,190.576,49.725,42.497653,-0.663844,-0.663844,-43.161497,0.000000,0.618918,0.216399,0.285921,-0.042972,0.202114,0.328996,1.054120,-0.701873,0.958770,0.707286,18.074180,-18.357732,36.431912,-0.283552,0.00004831,0.00000000,0.00004828,0.00000000,0.00000003,0.000000,0.000000,0.000000,0.000000,0.000000,0.000000,0.000000,0.000000,0.04344307,0.00221573,0.00170676,0.00222760,0.00058572,0.00000000,0.00000000,0.03670725,0.00018464,0.00085338,0.00089104,0.00117145,0.73414503,0.00000000,0.00000000
5.900,1,1,1,-531.709,190.594,49.712,42.209547,-0.684126,-0.684126,-42.893673,0.000000,0.622781,0.216176,0.318716,0.544310,0.241887,0.328819,1.083456,-0.343775,1.003392,0.715587,18.307359,-18.272693,36.580052,0.034666,0.00005120,0.00000000,0.00005117,0.00000000,0.00000003,0.000000,0.000000,0.000000,0.000000,0.000000,0.000000,0.000000,0.000000,0.04424473,0.00225284,0.00177825,0.00225015,0.00058752,0.00000000,0.00000000,0.03737597,0.00018774,0.00088912,0.00090006,0.00117504,0.74751944,0.00000000,0.00000000
6.000,1,1,1,-531.696,190.611,49.700,41.926579,-0.704484,-0.704484,-42.631063,0.000000,0.626599,0.215385,0.346411,0.472690,0.278285,0.329130,1.104604,-0.787817,1.041254,0.724070,18.560404,-18.167685,36.728089,0.392718,0.00005426,0.00000000,0.00005423,0.00000000,0.00000003,0.000000,0.000000,0.000000,0.000000,0.000000,0.000000,0.000000,0.000000,0.04506428,0.00229672,0.00185261,0.00226718,0.00059698,0.00000000,0.00000000,0.03805079,0.00019139,0.00092631,0.00090687,0.00119396,0.76101575,0.00000000,0.00000000
6.100,1,1,1,-531.683,190.629,49.687,41.644867,-0.724901,-0.724901,-42.369768,0.000000,0.630457,0.214920,0.370144,1.260507,0.310779,0.329867,1.117805,-0.042972,1.071702,0.732507,18.799693,-18.089383,36.889075,0.710310,0.00005750,0.00000000,0.00005747,0.00000000,0.00000003,0.000000,0.000000,0.000000,0.000000,0.000000,0.000000,0.000000,0.000000,0.04599193,0.00234679,0.00192871,0.00238815,0.00059701,0.00000000,0.00000000,0.03873127,0.00019557,0.00096436,0.00095526,0.00119401,0.77462545,0.00000000,0.00000000
6.200,1,1,1,-531.670,190.646,49.674,41.360508,-0.745384,-0.745384,-42.105892,0.000000,0.633495,0.215678,0.389402,0.057296,0.339071,0.330947,1.123123,-0.716197,1.094371,0.740701,18.953817,-17.946463,36.900280,1.007353,0.00006263,0.00000000,0.00006260,0.00000000,0.00000003,0.000000,0.000000,0.000000,0.000000,0.000000,0.000000,0.000000,0.000000,0.04681299,0.00240218,0.00200551,0.00238840,0.00060481,0.00000000,0.00000000,0.03941210,0.00020018,0.00100275,0.00095536,0.00120963,0.78824190,0.00000000,0.00000000
6.300,1,1,1,-531.657,190.664,49.662,41.077383,-0.765970,-0.765970,-41.843354,0.000000,0.635206,0.221065,0.402074,0.358099,0.362794,0.332236,1.120390,-0.916732,1.109117,0.748484,18.864500,-17.853056,36.717556,1.011444,0.00007076,0.00000000,0.00007073,0.00000000,0.00000003,0.000000,0.000000,0.000000,0.000000,0.000000,0.000000,0.000000,0.000000,0.04764616,0.00246131,0.00208202,0.00239817,0.00061762,0.00000000,0.00000000,0.04008705,0.00020511,0.00104101,0.00095927,0.00123524,0.80174094,0.00000000,0.00000000
6.400,1,1,1,-531.644,190.682,49.649,40.799425,-0.786666,-0.786666,-41.586092,0.000000,0.637455,0.220460,0.407546,-0.085944,0.381391,0.333585,1.109590,-0.472690,1.115942,0.755674,19.052789,-17.737615,36.790404,1.315174,0.00007846,0.00000000,0.00007843,0.00000000,0.00000003,0.000000,0.000000,0.000000,0.000000,0.000000,0.000000,0.000000,0.000000,0.04846293,0.00252198,0.00215698,0.00239873,0.00062102,0.00000000,0.00000000,0.04076422,0.00021016,0.00107849,0.00095949,0.00124204,0.81528448,0.00000000,0.00000000
6.500,1,1,1,-531.631,190.699,49.636,40.522756,-0.807449,-0.807449,-41.330205,0.000000,0.640362,0.217451,0.406740,0.300803,0.394425,0.334871,1.090899,-1.303479,1.114885,0.762148,19.366329,-17.648700,37.015030,1.717629,0.00008548,0.00000000,0.00008545,0.00000000,0.00000003,0.000000,0.000000,0.000000,0.000000,0.000000,0.000000,0.000000,0.000000,0.04931538,0.00258247,0.00222950,0.00240562,0.00064690,0.00000000,0.00000000,0.04145089,0.00021521,0.00111475,0.00096225,0.00129381,0.82901785,0.00000000,0.00000000
6.600,1,1,1,-531.618,190.717,49.623,40.243469,-0.828293,-0.828293,-41.071763,0.000000,0.644035,0.220321,0.401372,0.601606,0.401625,0.336012,1.064457,-1.231859,1.105973,0.767789,19.464806,-17.554209,37.019015,1.910597,0.00009159,0.00000000,0.00009156,0.00000000,0.00000003,0.000000,0.000000,0.000000,0.000000,0.000000,0.000000,0.000000,0.000000,0.05018123,0.00264137,0.00229855,0.00243319,0.00067002,0.00000000,0.00000000,0.04213810,0.00022011,0.00114927,0.00097328,0.00134005,0.84276209,0.00000000,0.00000000
6.700,1,1,1,-531.605,190.735,49.610,39.965442,-0.849205,-0.849205,-40.814647,0.000000,0.648412,0.221286,0.391783,-0.515662,0.403089,0.336939,1.030542,-0.658901,1.089268,0.772507,19.673638,-17.415871,37.089510,2.257767,0.00009662,0.00000000,0.00009659,0.00000000,0.00000003,0.000000,0.000000,0.000000,0.000000,0.000000,0.000000,0.000000,0.000000,0.05101891,0.00269745,0.00236322,0.00245343,0.00067663,0.00000000,0.00000000,0.04282818,0.00022479,0.00118161,0.00098137,0.00135327,0.85656351,0.00000000,0.00000000
6.800,1,1,1,-531.591,190.753,49.597,39.692629,-0.870219,-0.870219,-40.562848,0.000000,0.653403,0.222763,0.376533,-0.701873,0.399160,0.337574,0.989677,-0.658901,1.064960,0.776251,19.885864,-17.311104,37.196968,2.574760,0.00010048,0.00000000,0.00010044,0.00000000,0.00000003,0.000000,0.000000,0.000000,0.000000,0.000000,0.000000,0.000000,0.000000,0.05186967,0.00274928,0.00242289,0.00249095,0.00068325,0.00000000,0.00000000,0.04352331,0.00022911,0.00121145,0.00099638,0.00136649,0.87046615,0.00000000,0.00000000
6.900,1,1,1,-531.578,190.771,49.584,39.421143,-0.891349,-0.891349,-40.312492,0.000000,0.659055,0.224691,0.355190,-0.114592,0.390072,0.337843,0.942655,-1.059972,1.033377,0.778996,20.106128,-17.230067,37.336195,2.876061,0.00010301,0.00000000,0.00010298,0.00000000,0.00000003,0.000000,0.000000,0.000000,0.000000,0.000000,0.000000,0.000000,0.000000,0.05268923,0.00279540,0.00247703,0.00249195,0.00070036,0.00000000,0.00000000,0.04422449,0.00023295,0.00123852,0.00099678,0.00140072,0.88448971,0.00000000,0.00000000
7.000,1,1,1,-531.565,190.790,49.571,39.147031,-0.912592,-0.912592,-40.059623,0.000000,0.665427,0.226699,0.328854,-0.587282,0.375960,0.337713,0.890543,-1.289155,0.995010,0.780751,20.352138,-17.112942,37.465080,3.239197,0.00010408,0.00000000,0.00010404,0.00000000,0.00000003,0.000000,0.000000,0.000000,0.000000,0.000000,0.000000,0.000000,0.000000,0.05353538,0.00283492,0.00252533,0.00251820,0.00072566,0.00000000,0.00000000,0.04493127,0.00023624,0.00126267,0.00100728,0.00145132,0.89862538,0.00000000,0.00000000
7.100,1,1,1,-531.551,190.808,49.558,38.874213,-0.933948,-0.933948,-39.808161,0.000000,0.672445,0.226607,0.298850,0.229183,0.356923,0.337182,0.834461,-0.859437,0.950565,0.781556,20.710229,-17.036786,37.747014,3.673443,0.00010348,0.00000000,0.00010345,0.00000000,0.00000003,0.000000,0.000000,0.000000,0.000000,0.000000,0.000000,0.000000,0.000000,0.05434524,0.00286758,0.00256777,0.00252220,0.00073692,0.00000000,0.00000000,0.04565077,0.00023896,0.00128389,0.00100888,0.00147383,0.91301539,0.00000000,0.00000000
7.200,1,1,1,-531.544,190.817,49.551,38.640890,-0.944243,-0.944243,-39.585134,0.000000,0.679103,0.226708,0.269708,0.730521,0.335770,0.336313,0.782605,-1.991028,0.906107,0.781571,21.041444,-16.962635,38.004079,4.078809,0.00009990,0.00000000,0.00009989,0.00000000,0.00000001,0.000000,0.000000,0.000000,0.000000,0.000000,0.000000,0.000000,0.000000,0.05524060,0.00289417,0.00260509,0.00256284,0.00079729,0.00000000,0.00000000,0.04638121,0.00024118,0.00130254,0.00102514,0.00159458,0.92762425,0.00000000,0.00000000
7.300,1,1,1,-531.531,190.835,49.538,38.391910,-0.965794,-0.965794,-39.357704,0.000000,0.683857,0.220711,0.237257,1.174563,0.311171,0.335121,0.726551,-1.045648,0.858079,0.780823,21.543248,-16.882946,38.426194,4.660302,0.00010427,0.00000000,0.00010424,0.00000000,0.00000004,0.000000,0.000000,0.000000,0.000000,0.000000,0.000000,0.000000,0.000000,0.05616453,0.00291475,0.00263726,0.00266794,0.00081395,0.00000000,0.00000000,0.04713062,0.00024290,0.00131863,0.00106718,0.00162790,0.94261246,0.00000000,0.00000000
7.400,1,1,1,-531.517,190.854,49.524,38.156635,-0.987504,-0.987504,-39.144139,0.000000,0.688472,0.218907,0.203381,0.487014,0.283679,0.333649,0.671607,-1.188887,0.807267,0.779412,21.859994,-16.774422,38.634416,5.085573,0.00010863,0.00000000,0.00010859,0.00000000,0.00000004,0.000000,0.000000,0.000000,0.000000,0.000000,0.000000,0.000000,0.000000,0.05700536,0.00292986,0.00266472,0.00268599,0.00083546,0.00000000,0.00000000,0.04788933,0.00024416,0.00133236,0.00107440,0.00167093,0.95778651,0.00000000,0.00000000
7.500,1,1,1,-531.502,190.872,49.510,37.913692,-1.009383,-1.009383,-38.923075,0.000000,0.692852,0.218653,0.165400,-0.100268,0.253733,0.331920,0.613418,-1.188887,0.754239,0.777377,22.103587,-16.667045,38.770632,5.436542,0.00011299,0.00000000,0.00011296,0.00000000,0.00000004,0.000000,0.000000,0.000000,0.000000,0.000000,0.000000,0.000000,0.000000,0.05782723,0.00293986,0.00268765,0.00268676,0.00085700,0.00000000,0.00000000,0.04865595,0.00024499,0.00134383,0.00107470,0.00171400,0.97311907,0.00000000,0.00000000
7.600,1,1,1,-531.488,190.891,49.496,37.646714,-1.031441,-1.031441,-38.678154,0.000000,0.697213,0.239009,0.122693,-0.444042,0.218146,0.329978,0.550378,-1.031324,0.693585,0.774754,21.499855,-16.556479,38.056334,4.943376,0.00011737,0.00000000,0.00011734,0.00000000,0.00000004,0.000000,0.000000,0.000000,0.000000,0.000000,0.000000,0.000000,0.000000,0.05861850,0.00294536,0.00270610,0.00270177,0.00087319,0.00000000,0.00000000,0.04939207,0.00024545,0.00135305,0.00108071,0.00174639,0.98784145,0.00000000,0.00000000
7.700,1,1,1,-531.473,190.910,49.481,37.414600,-1.053665,-1.053665,-38.468265,0.000000,0.701020,0.233364,0.084748,-0.458366,0.184515,0.327916,0.496318,-2.320479,0.638165,0.771700,21.971759,-16.474442,38.446202,5.497317,0.00012177,0.00000000,0.00012173,0.00000000,0.00000004,0.000000,0.000000,0.000000,0.000000,0.000000,0.000000,0.000000,0.000000,0.05948894,0.00294799,0.00272112,0.00271778,0.00095527,0.00000000,0.00000000,0.05014678,0.00024567,0.00136056,0.00108711,0.00191053,1.00293564,0.00000000,0.00000000
7.800,1,1,1,-531.458,190.929,49.466,37.154057,-1.076048,-1.076048,-38.230105,0.000000,0.705329,0.230605,0.040707,-0.229183,0.146123,0.325786,0.437587,-0.243507,0.576554,0.768249,22.335869,-16.384803,38.720672,5.951066,0.00012620,0.00000000,0.00012616,0.00000000,0.00000004,0.000000,0.000000,0.000000,0.000000,0.000000,0.000000,0.000000,0.000000,0.06027314,0.00294860,0.00273278,0.00272178,0.00095617,0.00000000,0.00000000,0.05091382,0.00024572,0.00136639,0.00108871,0.00191234,1.01827637,0.00000000,0.00000000
7.900,1,1,1,-531.450,190.939,49.459,36.911681,-1.087749,-1.087749,-37.999430,0.000000,0.709529,0.230706,0.000063,-0.544310,0.111949,0.323662,0.386414,-1.604282,0.521908,0.764510,22.573381,-16.281823,38.855205,6.291558,0.00012810,0.00000000,0.00012809,0.00000000,0.00000001,0.000000,0.000000,0.000000,0.000000,0.000000,0.000000,0.000000,0.000000,0.06111937,0.00294860,0.00274188,0.00274436,0.00099540,0.00000000,0.00000000,0.05168913,0.00024572,0.00137094,0.00109774,0.00199080,1.03378255,0.00000000,0.00000000
8.000,1,1,1,-531.434,190.958,49.443,36.653633,-1.110381,-1.110381,-37.764014,0.000000,0.713817,0.234740,-0.044047,-0.658901,0.077941,0.321619,0.334305,-1.618606,0.463069,0.760537,22.652798,-16.182893,38.835691,6.469905,0.00013264,0.00000000,0.00013260,0.00000000,0.00000004,0.000000,0.000000,0.000000,0.000000,0.000000,0.000000,0.000000,0.000000,0.06197476,0.00294931,0.00274869,0.00277742,0.00103530,0.00000000,0.00000000,0.05246405,0.00024578,0.00137435,0.00111097,0.00207060,1.04928099,0.00000000,0.00000000
8.100,1,1,1,-531.418,190.978,49.428,36.392888,-1.133181,-1.133181,-37.526068,0.000000,0.718147,0.241948,-0.086548,-0.300803,0.057803,0.319726,0.286527,-0.902409,0.407059,0.756397,22.608172,-16.097447,38.705619,6.510725,0.00013727,0.00000000,0.00013723,0.00000000,0.00000004,0.000000,0.000000,0.000000,0.000000,0.000000,0.000000,0.000000,0.000000,0.06277169,0.00295204,0.00275369,0.00278431,0.00104770,0.00000000,0.00000000,0.05323396,0.00024600,0.00137685,0.00111372,0.00209539,1.06467911,0.00000000,0.00000000
8.200,1,1,1,-531.402,190.997,49.412,36.133422,-1.156129,-1.156129,-37.289551,0.000000,0.722442,0.214101,-0.127218,-0.544310,0.065613,0.318040,0.244020,-1.360775,0.354609,0.752151,24.014232,-15.993368,40.007600,8.020865,0.00014204,0.00000000,0.00014200,0.00000000,0.00000004,0.000000,0.000000,0.000000,0.000000,0.000000,0.000000,0.000000,0.000000,0.06366419,0.00295796,0.00275732,0.00280686,0.00107589,0.00000000,0.00000000,0.05406616,0.00024650,0.00137866,0.00112274,0.00215178,1.08132329,0.00000000,0.00000000
8.300,1,1,1,-531.385,191.017,49.395,35.879263,-1.179230,-1.179230,-37.058493,0.000000,0.726625,0.231316,-0.166883,-0.200535,0.093942,0.316615,0.207166,-0.386747,0.306276,0.747850,23.523186,-15.910602,39.433788,7.612584,0.00014700,0.00000000,0.00014696,0.00000000,0.00000004,0.000000,0.000000,0.000000,0.000000,0.000000,0.000000,0.000000,0.000000,0.06448852,0.00296813,0.00275993,0.00280992,0.00107817,0.00000000,0.00000000,0.05487237,0.00024734,0.00137997,0.00112397,0.00215634,1.09744734,0.00000000,0.00000000
8.400,1,1,1,-531.368,191.036,49.378,35.654894,-1.202510,-1.202510,-36.857403,0.000000,0.730274,0.240374,-0.198955,0.272155,0.125116,0.315443,0.179965,-1.375099,0.266769,0.743537,23.373217,-15.846168,39.219385,7.527049,0.00015217,0.00000000,0.00015213,0.00000000,0.00000004,0.000000,0.000000,0.000000,0.000000,0.000000,0.000000,0.000000,0.000000,0.06533768,0.00298262,0.00276191,0.00281557,0.00110700,0.00000000,0.00000000,0.05567059,0.00024855,0.00138095,0.00112623,0.00221400,1.11341180,0.00000000,0.00000000
8.500,1,1,1,-531.350,191.056,49.361,35.399081,-1.225952,-1.225952,-36.625034,0.000000,0.734426,0.252660,-0.232250,0.143239,0.160676,0.314572,0.156096,-1.790493,0.227897,0.739245,23.122473,-15.746420,38.868893,7.376054,0.00015758,0.00000000,0.00015754,0.00000000,0.00000004,0.000000,0.000000,0.000000,0.000000,0.000000,0.000000,0.000000,0.000000,0.06619153,0.00300233,0.00276339,0.00281713,0.00115581,0.00000000,0.00000000,0.05645287,0.00025019,0.00138169,0.00112685,0.00231161,1.12905749,0.00000000,0.00000000
8.600,1,1,1,-531.332,191.076,49.344,35.148521,-1.249539,-1.249539,-36.398060,0.000000,0.738453,0.259852,-0.262821,0.071620,0.195161,0.314007,0.140278,-0.042972,0.195078,0.734992,23.088992,-15.651937,38.740928,7.437055,0.00016325,0.00000000,0.00016320,0.00000000,0.00000004,0.000000,0.000000,0.000000,0.000000,0.000000,0.000000,0.000000,0.000000,0.06699622,0.00302757,0.00276459,0.00281752,0.00115583,0.00000000,0.00000000,0.05723070,0.00025230,0.00138229,0.00112701,0.00231167,1.14461405,0.00000000,0.00000000
8.700,1,1,1,-531.313,191.096,49.326,34.899191,-1.273240,-1.273240,-36.172431,0.000000,0.742422,0.259886,-0.290264,-0.429718,0.227640,0.313738,0.132413,-1.246183,0.169032,0.730797,23.351707,-15.545594,38.897301,7.806112,0.00016919,0.00000000,0.00016915,0.00000000,0.00000004,0.000000,0.000000,0.000000,0.000000,0.000000,0.000000,0.000000,0.000000,0.06785285,0.00305837,0.00276566,0.00283159,0.00117949,0.00000000,0.00000000,0.05801775,0.00025486,0.00138283,0.00113263,0.00235898,1.16035502,0.00000000,0.00000000
8.800,1,1,1,-531.294,191.116,49.307,34.647054,-1.297041,-1.297041,-35.944095,0.000000,0.746402,0.272270,-0.313600,-0.501338,0.257450,0.313736,0.131814,-0.601606,0.150473,0.726674,23.100395,-15.452808,38.553204,7.647587,0.00017543,0.00000000,0.00017538,0.00000000,0.00000004,0.000000,0.000000,0.000000,0.000000,0.000000,0.000000,0.000000,0.000000,0.06868705,0.00309432,0.00276671,0.00285073,0.00118500,0.00000000,0.00000000,0.05879028,0.00025786,0.00138336,0.00114029,0.00237001,1.17580555,0.00000000,0.00000000
8.900,1,1,1,-531.275,191.136,49.288,34.396147,-1.320918,-1.320918,-35.717065,0.000000,0.750327,0.243883,-0.332062,0.959704,0.284054,0.313953,0.137917,0.429718,0.139892,0.722637,24.536960,-15.407902,39.944861,9.129058,0.00018194,0.00000000,0.00018190,0.00000000,0.00000004,0.000000,0.000000,0.000000,0.000000,0.000000,0.000000,0.000000,0.000000,0.06964100,0.00313463,0.00276787,0.00292087,0.00118782,0.00000000,0.00000000,0.05962980,0.00026122,0.00138394,0.00116835,0.00237563,1.19259602,0.00000000,0.00000000
9.000,1,1,1,-531.255,191.156,49.269,34.150503,-1.344858,-1.344858,-35.495361,0.000000,0.754134,0.259676,-0.346710,-0.243507,0.307055,0.314344,0.150001,-1.289155,0.137231,0.718697,24.107583,-15.280461,39.388043,8.827122,0.00018873,0.00000000,0.00018868,0.00000000,0.00000004,0.000000,0.000000,0.000000,0.000000,0.000000,0.000000,0.000000,0.000000,0.07053072,0.00317857,0.00276924,0.00292539,0.00121313,0.00000000,0.00000000,0.06044439,0.00026488,0.00138462,0.00117016,0.00242625,1.20888781,0.00000000,0.00000000
9.100,1,1,1,-531.235,191.177,49.249,33.906052,-1.368867,-1.368867,-35.274918,0.000000,0.756473,0.269133,-0.356274,-0.300803,0.326068,0.314846,0.167879,-0.888085,0.141909,0.714869,23.900537,-15.192777,39.093313,8.707760,0.00020307,0.00000000,0.00020302,0.00000000,0.00000004,0.000000,0.000000,0.000000,0.000000,0.000000,0.000000,0.000000,0.000000,0.07139991,0.00322497,0.00277096,0.00293228,0.00122514,0.00000000,0.00000000,0.06124655,0.00026875,0.00138548,0.00117291,0.00245028,1.22493105,0.00000000,0.00000000
9.200,1,1,1,-531.215,191.197,49.229,33.658749,-1.392938,-1.392938,-35.051687,0.000000,0.758528,0.277457,-0.361094,0.114592,0.340747,0.315398,0.192355,-0.429718,0.153396,0.711175,23.739574,-15.118491,38.858065,8.621084,0.00021973,0.00000000,0.00021969,0.00000000,0.00000004,0.000000,0.000000,0.000000,0.000000,0.000000,0.000000,0.000000,0.000000,0.07224587,0.00327264,0.00277322,0.00293328,0.00122795,0.00000000,0.00000000,0.06203877,0.00027272,0.00138661,0.00117331,0.00245591,1.24077546,0.00000000,0.00000000
9.300,1,1,1,-531.194,191.217,49.209,33.412628,-1.417078,-1.417078,-34.829706,0.000000,0.761083,0.282656,-0.361947,0.157563,0.351028,0.315947,0.223741,-0.171887,0.171472,0.707645,23.735489,-15.032438,38.767927,8.703051,0.00023427,0.00000000,0.00023423,0.00000000,0.00000004,0.000000,0.000000,0.000000,0.000000,0.000000,0.000000,0.000000,0.000000,0.07308866,0.00332054,0.00277627,0.00293517,0.00122840,0.00000000,0.00000000,0.06282828,0.00027671,0.00138813,0.00117407,0.00245681,1.25656555,0.00000000,0.00000000
9.400,1,1,1,-531.173,191.237,49.188,33.171756,-1.441256,-1.441256,-34.613012,0.000000,0.764062,0.284025,-0.358933,-0.386747,0.357030,0.316445,0.261533,0.000000,0.196026,0.704317,23.908102,-14.931206,38.839308,8.976897,0.00024648,0.00000000,0.00024643,0.00000000,0.00000004,0.000000,0.000000,0.000000,0.000000,0.000000,0.000000,0.000000,0.000000,0.07394569,0.00336762,0.00278043,0.00294656,0.00122840,0.00000000,0.00000000,0.06362267,0.00028064,0.00139022,0.00117862,0.00245681,1.27245342,0.00000000,0.00000000
9.500,1,1,1,-531.151,191.257,49.167,32.932058,-1.465432,-1.465432,-34.397490,0.000000,0.767547,0.256786,-0.351203,0.687549,0.358713,0.316839,0.304388,0.229183,0.226828,0.701232,25.276145,-14.881786,40.157931,10.394359,0.00025602,0.00000000,0.00025597,0.00000000,0.00000004,0.000000,0.000000,0.000000,0.000000,0.000000,0.000000,0.000000,0.000000,0.07489340,0.00341270,0.00278608,0.00298255,0.00122920,0.00000000,0.00000000,0.06448286,0.00028439,0.00139304,0.00119302,0.00245841,1.28965728,0.00000000,0.00000000
9.600,1,1,1,-531.129,191.278,49.146,32.708626,-1.489605,-1.489605,-34.198231,0.000000,0.771223,0.274013,-0.339942,0.529986,0.356603,0.317094,0.346535,0.415394,0.259388,0.698405,24.782108,-14.799760,39.581869,9.982348,0.00026297,0.00000000,0.00026293,0.00000000,0.00000004,0.000000,0.000000,0.000000,0.000000,0.000000,0.000000,0.000000,0.000000,0.07580068,0.00345497,0.00279340,0.00300396,0.00123183,0.00000000,0.00000000,0.06531653,0.00028791,0.00139670,0.00120158,0.00246367,1.30633053,0.00000000,0.00000000
9.700,1,1,1,-531.107,191.298,49.124,32.447875,-1.513786,-1.513786,-33.961661,0.000000,0.776179,0.284080,-0.321318,1.160240,0.349283,0.317139,0.398020,0.157563,0.304115,0.695920,24.659399,-14.724928,39.384327,9.934471,0.00026601,0.00000000,0.00026596,0.00000000,0.00000004,0.000000,0.000000,0.000000,0.000000,0.000000,0.000000,0.000000,0.000000,0.07677536,0.00349269,0.00280304,0.00310642,0.00123221,0.00000000,0.00000000,0.06614100,0.00029106,0.00140152,0.00124257,0.00246442,1.32281997,0.00000000,0.00000000
9.800,1,1,1,-531.084,191.318,49.102,32.211528,-1.537951,-1.537951,-33.749478,0.000000,0.781221,0.290666,-0.300596,-0.214859,0.338027,0.316971,0.447681,1.174563,0.348444,0.693793,24.692214,-14.599397,39.291612,10.092817,0.00026572,0.00000000,0.00026567,0.00000000,0.00000004,0.000000,0.000000,0.000000,0.000000,0.000000,0.000000,0.000000,0.000000,0.07766786,0.00352571,0.00281525,0.00310993,0.00125322,0.00000000,0.00000000,0.06696374,0.00029381,0.00140763,0.00124397,0.00250644,1.33927477,0.00000000,0.00000000
9.900,1,1,1,-531.061,191.338,49.079,31.976296,-1.562097,-1.562097,-33.538393,0.000000,0.786770,0.298674,-0.277334,0.873761,0.322671,0.316588,0.499083,0.214859,0.395399,0.692066,24.689490,-14.553755,39.243246,10.135735,0.00026167,0.00000000,0.00026163,0.00000000,0.00000004,0.000000,0.000000,0.000000,0.000000,0.000000,0.000000,0.000000,0.000000,0.07859097,0.00355382,0.00283042,0.00316805,0.00125392,0.00000000,0.00000000,0.06778476,0.00029615,0.00141521,0.00126722,0.00250785,1.35569528,0.00000000,0.00000000
10.000,1,1,1,-531.037,191.358,49.056,31.738055,-1.586220,-1.586220,-33.324275,0.000000,0.791203,0.303645,-0.250950,0.257831,0.303650,0.315987,0.551745,1.002676,0.444355,0.690778,24.768815,-14.451496,39.220311,10.317318,0.00026473,0.00000000,0.00026469,0.00000000,0.00000004,0.000000,0.000000,0.000000,0.000000,0.000000,0.000000,0.000000,0.000000,0.07947534,0.00357684,0.00284897,0.00317311,0.00126924,0.00000000,0.00000000,0.06860718,0.00029807,0.00142448,0.00126924,0.00253847,1.37214365,0.00000000,0.00000000
10.100,1,1,1,-531.014,191.378,49.033,31.500895,-1.610303,-1.610303,-33.111198,0.000000,0.794917,0.306320,-0.221178,0.529986,0.281283,0.315172,0.604807,0.429718,0.494856,0.689963,24.913012,-14.378943,39.291955,10.534069,0.00027231,0.00000000,0.00027227,0.00000000,0.00000004,0.000000,0.000000,0.000000,0.000000,0.000000,0.000000,0.000000,0.000000,0.08036685,0.00359472,0.00287125,0.00319450,0.00127205,0.00000000,0.00000000,0.06943434,0.00029956,0.00143562,0.00127780,0.00254410,1.38868686,0.00000000,0.00000000
10.200,1,1,1,-530.990,191.398,49.010,31.268956,-1.634314,-1.634314,-32.903271,0.000000,0.798563,0.377433,-0.188528,0.816465,0.255983,0.314158,0.657085,0.014324,0.546378,0.689642,22.232722,-14.308644,36.541366,7.924078,0.00027977,0.00000000,0.00027972,0.00000000,0.00000004,0.000000,0.000000,0.000000,0.000000,0.000000,0.000000,0.000000,0.000000,0.08115598,0.00360771,0.00289755,0.00324526,0.00127205,0.00000000,0.00000000,0.07013340,0.00030064,0.00144878,0.00129811,0.00254410,1.40266805,0.00000000,0.00000000
10.300,1,1,1,-530.966,191.418,48.987,31.038079,-1.658200,-1.658200,-32.696279,0.000000,0.802210,0.349635,-0.152706,0.343775,0.227935,0.312967,0.708444,0.014324,0.598260,0.689831,23.708135,-14.215064,37.923199,9.493071,0.00028708,0.00000000,0.00028703,0.00000000,0.00000004,0.000000,0.000000,0.000000,0.000000,0.000000,0.000000,0.000000,0.000000,0.08196892,0.00361624,0.00292816,0.00325427,0.00127205,0.00000000,0.00000000,0.07089820,0.00030135,0.00146408,0.00130171,0.00254411,1.41796396,0.00000000,0.00000000
10.400,1,1,1,-530.942,191.437,48.963,30.822639,-1.681958,-1.681958,-32.504597,0.000000,0.805611,0.332339,-0.120478,0.358099,0.200655,0.311658,0.753759,-0.572958,0.644757,0.690486,24.683954,-14.144509,38.828463,10.539446,0.00029424,0.00000000,0.00029420,0.00000000,0.00000004,0.000000,0.000000,0.000000,0.000000,0.000000,0.000000,0.000000,0.000000,0.08283286,0.00362155,0.00296277,0.00326404,0.00127705,0.00000000,0.00000000,0.07170746,0.00030180,0.00148138,0.00130561,0.00255411,1.43414921,0.00000000,0.00000000
10.500,1,1,1,-530.918,191.457,48.939,30.593818,-1.705621,-1.705621,-32.299439,0.000000,0.809152,0.322620,-0.085632,0.730521,0.168721,0.310256,0.798465,-0.916732,0.695123,0.691616,25.322043,-14.078227,39.400270,11.243816,0.00030131,0.00000000,0.00030127,0.00000000,0.00000004,0.000000,0.000000,0.000000,0.000000,0.000000,0.000000,0.000000,0.000000,0.08376711,0.00362423,0.00300160,0.00330467,0.00128985,0.00000000,0.00000000,0.07254676,0.00030202,0.00150080,0.00132187,0.00257971,1.45093513,0.00000000,0.00000000
10.600,1,1,1,-530.893,191.476,48.916,30.361885,-1.729156,-1.729156,-32.091042,0.000000,0.811885,0.311631,-0.048287,0.472690,0.135779,0.308797,0.837295,-0.501338,0.742869,0.693162,25.963847,-13.990205,39.954052,11.973642,0.00030829,0.00000000,0.00030825,0.00000000,0.00000004,0.000000,0.000000,0.000000,0.000000,0.000000,0.000000,0.000000,0.000000,0.08470156,0.00362508,0.00304432,0.00332169,0.00129368,0.00000000,0.00000000,0.07341678,0.00030209,0.00152216,0.00132868,0.00258736,1.46833565,0.00000000,0.00000000
10.700,1,1,1,-530.869,191.495,48.892,30.160474,-1.752564,-1.752564,-31.913038,0.000000,0.814268,0.300829,-0.013715,0.959704,0.106237,0.307326,0.866750,-0.558634,0.782657,0.695020,26.571216,-13.940019,40.511235,12.631197,0.00031520,0.00000000,0.00031516,0.00000000,0.00000004,0.000000,0.000000,0.000000,0.000000,0.000000,0.000000,0.000000,0.000000,0.08572266,0.00362515,0.00309009,0.00339183,0.00129843,0.00000000,0.00000000,0.07431715,0.00030210,0.00154505,0.00135673,0.00259687,1.48634301,0.00000000,0.00000000
10.800,1,1,1,-530.844,191.514,48.868,29.948671,-1.775921,-1.775921,-31.724592,0.000000,0.816900,0.300213,0.022616,0.143239,0.078811,0.305881,0.893506,-1.346451,0.818822,0.697155,26.760478,-13.843501,40.603979,12.916977,0.00032212,0.00000000,0.00032208,0.00000000,0.00000004,0.000000,0.000000,0.000000,0.000000,0.000000,0.000000,0.000000,0.000000,0.08670782,0.00362533,0.00313870,0.00339339,0.00132603,0.00000000,0.00000000,0.07522436,0.00030211,0.00156935,0.00135736,0.00265206,1.50448723,0.00000000,0.00000000
10.900,1,1,1,-530.832,191.524,48.856,29.753066,-1.787137,-1.787137,-31.540202,0.000000,0.819539,0.302668,0.055398,-0.128916,0.057314,0.304495,0.915962,-0.859437,0.850937,0.699518,26.829159,-13.767304,40.596463,13.061855,0.00032463,0.00000000,0.00032462,0.00000000,0.00000001,0.000000,0.000000,0.000000,0.000000,0.000000,0.000000,0.000000,0.000000,0.08768227,0.00362646,0.00318983,0.00339466,0.00133728,0.00000000,0.00000000,0.07613403,0.00030220,0.00159492,0.00135786,0.00267457,1.52268065,0.00000000,0.00000000
11.000,1,1,1,-530.808,191.543,48.832,29.524937,-1.810529,-1.810529,-31.335466,0.000000,0.822532,0.294573,0.090734,1.059972,0.050567,0.303209,0.938302,-0.014324,0.882079,0.702100,27.355229,-13.726417,41.081646,13.628812,0.00033171,0.00000000,0.00033167,0.00000000,0.00000004,0.000000,0.000000,0.000000,0.000000,0.000000,0.000000,0.000000,0.000000,0.08876071,0.00362946,0.00324345,0.00348018,0.00133729,0.00000000,0.00000000,0.07707033,0.00030246,0.00162172,0.00139207,0.00267458,1.54140650,0.00000000,0.00000000
11.100,1,1,1,-530.782,191.562,48.807,29.319976,-1.833937,-1.833937,-31.153913,0.000000,0.825259,0.299568,0.121533,0.615930,0.064510,0.302038,0.955450,0.100268,0.906369,0.704841,27.324663,-13.642892,40.967555,13.681772,0.00033890,0.00000000,0.00033886,0.00000000,0.00000004,0.000000,0.000000,0.000000,0.000000,0.000000,0.000000,0.000000,0.000000,0.08978439,0.00363487,0.00329911,0.00350910,0.00133744,0.00000000,0.00000000,0.07800387,0.00030291,0.00164955,0.00140364,0.00267488,1.56007742,0.00000000,0.00000000
11.200,1,1,1,-530.757,191.581,48.783,29.093780,-1.857321,-1.857321,-30.951101,0.000000,0.828354,0.296473,0.155028,0.386747,0.091498,0.301026,0.969349,-0.157563,0.929411,0.707690,27.653744,-13.557238,41.210982,14.096506,0.00034626,0.00000000,0.00034622,0.00000000,0.00000004,0.000000,0.000000,0.000000,0.000000,0.000000,0.000000,0.000000,0.000000,0.09081028,0.00364365,0.00335633,0.00352048,0.00133782,0.00000000,0.00000000,0.07895200,0.00030364,0.00167817,0.00140819,0.00267564,1.57904000,0.00000000,0.00000000
11.300,1,1,1,-530.732,191.600,48.758,28.868587,-1.880673,-1.880673,-30.749260,0.000000,0.831499,0.309527,0.187374,0.343775,0.122169,0.300194,0.977201,-0.329451,0.948187,0.710574,27.318289,-13.478240,40.796529,13.840049,0.00035383,0.00000000,0.00035379,0.00000000,0.00000004,0.000000,0.000000,0.000000,0.000000,0.000000,0.000000,0.000000,0.000000,0.09181978,0.00365648,0.00341450,0.00352948,0.00133947,0.00000000,0.00000000,0.07987984,0.00030471,0.00170725,0.00141179,0.00267894,1.59759687,0.00000000,0.00000000
11.400,1,1,1,-530.706,191.619,48.733,28.648615,-1.904020,-1.904020,-30.552635,0.000000,0.834631,0.305049,0.216624,0.157563,0.153185,0.299551,0.978450,-0.401070,0.962176,0.713410,27.723257,-13.397034,41.120291,14.326223,0.00036167,0.00000000,0.00036162,0.00000000,0.00000004,0.000000,0.000000,0.000000,0.000000,0.000000,0.000000,0.000000,0.000000,0.09284714,0.00367363,0.00347280,0.00353137,0.00134192,0.00000000,0.00000000,0.08082742,0.00030614,0.00173640,0.00141255,0.00268384,1.61654844,0.00000000,0.00000000
11.500,1,1,1,-530.680,191.638,48.708,28.429667,-1.927373,-1.927373,-30.357040,0.000000,0.837836,0.281560,0.241411,-0.415394,0.182982,0.299086,0.973159,-0.859437,0.970708,0.716123,28.907904,-13.304369,42.212273,15.603535,0.00036980,0.00000000,0.00036976,0.00000000,0.00000004,0.000000,0.000000,0.000000,0.000000,0.000000,0.000000,0.000000,0.000000,0.09396382,0.00369494,0.00353053,0.00354452,0.00135318,0.00000000,0.00000000,0.08184065,0.00030791,0.00176526,0.00141781,0.00270635,1.63681308,0.00000000,0.00000000
11.600,1,1,1,-530.654,191.657,48.683,28.231778,-1.950744,-1.950744,-30.182522,0.000000,0.840789,0.295092,0.260196,1.145916,0.207914,0.298767,0.963196,-0.787817,0.973255,0.718662,28.529332,-13.287725,41.817057,15.241607,0.00037823,0.00000000,0.00037819,0.00000000,0.00000004,0.000000,0.000000,0.000000,0.000000,0.000000,0.000000,0.000000,0.000000,0.09514597,0.00371971,0.00358709,0.00364460,0.00136264,0.00000000,0.00000000,0.08283193,0.00030998,0.00179355,0.00145784,0.00272527,1.65663865,0.00000000,0.00000000
11.700,1,1,1,-530.628,191.676,48.657,28.014745,-1.974135,-1.974135,-29.988880,0.000000,0.844167,0.305884,0.279364,1.088620,0.233100,0.298603,0.946769,-1.704549,0.970165,0.720956,28.304443,-13.207773,41.512216,15.096670,0.00038694,0.00000000,0.00038690,0.00000000,0.00000004,0.000000,0.000000,0.000000,0.000000,0.000000,0.000000,0.000000,0.000000,0.09633892,0.00374823,0.00364169,0.00373483,0.00140688,0.00000000,0.00000000,0.08380729,0.00031235,0.00182084,0.00149393,0.00281376,1.67614580,0.00000000,0.00000000
