t,controller_id,state_code,wp_idx,x,y,dist,yaw_deg,yaw_to_wp_deg,yaw_ref_deg,yaw_err_deg,yaw_rate_deg_s,speed_ref,speed_meas,roll_deg,roll_rate_deg_s,roll_rms_window_deg,roll_rms_total_deg,pitch_deg,pitch_rate_deg_s,pitch_rms_window_deg,pitch_rms_total_deg,base_cmd,diff_cmd,T_left,T_right,J_inst,J_goal,J_wave_roll,J_progress,J_smooth,J_mpc_distance,J_mpc_final,J_mpc_heading,J_mpc_wrong_way,J_mpc_pitch,J_mpc_control,J_mpc_slew,J_mpc_turn,J_total,J_roll,J_pitch,J_roll_rate,J_pitch_rate,J_goal_heading,J_no_progress,J_control,I_roll,I_pitch,I_roll_rate,I_pitch_rate,I_control,I_no_progress,I_goal_heading
0.200,1,1,1,-532.007,189.995,50.007,57.164654,0.006030,0.006030,-57.158624,0.000000,0.348749,0.030305,-1.096579,0.171887,0.995060,0.000000,-0.453191,-2.578310,0.267132,0.000000,0.000000,-5.000000,5.000000,-5.000000,0.00000001,0.00000000,0.00000001,0.00000000,0.00000000,0.000000,0.000000,0.000000,0.000000,0.000000,0.000000,0.000000,0.000000,0.00000000,0.00000000,0.00000000,0.00000000,0.00000000,0.00000000,0.00000000,0.00000000,0.00000000,0.00000000,0.00000000,0.00000000,0.00000000,0.00000000,0.00000000
0.312,1,1,1,-532.007,189.995,50.007,57.164654,0.006030,0.006030,-57.158624,0.000000,0.348749,0.030305,-1.096579,0.171887,0.995060,1.096579,-0.453191,-2.578310,0.267132,0.453191,0.000000,-10.000000,10.000000,-10.000000,0.00000001,0.00000000,0.00000001,0.00000000,0.00000000,0.000000,0.000000,0.000000,0.000000,0.000000,0.000000,0.000000,0.000000,0.00073126,0.00049031,0.00001396,0.00000251,0.00011294,0.00000000,0.00000000,0.00011155,0.00004086,0.00000698,0.00000100,0.00022588,0.00223092,0.00000000,0.00000000
0.400,1,1,1,-532.016,189.989,50.016,57.126582,0.012397,0.012397,-57.114185,0.000000,0.340676,0.042452,-1.296782,-0.658901,1.100446,1.189227,-0.801031,-0.128916,0.513525,0.631032,0.000000,-15.000000,15.000000,-15.000000,0.00000006,0.00000000,0.00000006,0.00000000,0.00000000,0.000000,0.000000,0.000000,0.000000,0.000000,0.000000,0.000000,0.000000,0.00153711,0.00103340,0.00004849,0.00003172,0.00011316,0.00000000,0.00000000,0.00031033,0.00008612,0.00002425,0.00001269,0.00022633,0.00620661,0.00000000,0.00000000
0.500,1,1,1,-532.018,189.990,50.018,57.084452,0.011898,0.011898,-57.072553,0.000000,0.334737,0.036403,-1.404027,-1.475366,1.178281,1.264924,-0.771230,0.529986,0.607745,0.681004,2.524414,-17.475586,20.000000,-14.951172,0.00000006,0.00000000,0.00000006,0.00000000,0.00000000,0.000000,0.000000,0.000000,0.000000,0.000000,0.000000,0.000000,0.000000,0.00277602,0.00175415,0.00008474,0.00019752,0.00011744,0.00000000,0.00000000,0.00062217,0.00014618,0.00004237,0.00007901,0.00023489,0.01244340,0.00000000,0.00000000
0.600,1,1,1,-532.020,189.991,50.020,57.019294,0.010357,0.010357,-57.008938,0.000000,0.329593,0.029230,-1.467651,-0.042972,1.278703,1.318539,-0.665417,1.403747,0.687124,0.677140,5.138027,-19.861973,25.000000,-14.723946,0.00000005,0.00000000,0.00000005,0.00000000,0.00000000,0.000000,0.000000,0.000000,0.000000,0.000000,0.000000,0.000000,0.000000,0.00404133,0.00254146,0.00011171,0.00019766,0.00014745,0.00000000,0.00000000,0.00104303,0.00021179,0.00005586,0.00007907,0.00029491,0.02086070,0.00000000,0.00000000
0.700,1,1,1,-532.022,189.991,50.022,56.930013,0.010339,0.010339,-56.919673,0.000000,0.325440,0.023658,-1.474306,0.501338,1.361060,1.351119,-0.635096,-1.360775,0.718712,0.668945,7.758263,-22.241737,30.000000,-14.483474,0.00000005,0.00000000,0.00000005,0.00000000,0.00000000,0.000000,0.000000,0.000000,0.000000,0.000000,0.000000,0.000000,0.000000,0.00546177,0.00333550,0.00013627,0.00021679,0.00017564,0.00000000,0.00000000,0.00159757,0.00027796,0.00006814,0.00008672,0.00035128,0.03195146,0.00000000,0.00000000
0.800,1,1,1,-532.024,189.989,50.024,56.816158,0.012653,0.012653,-56.803504,0.000000,0.323468,0.027859,-1.449068,-0.315127,1.418097,1.367933,-0.753119,-1.675902,0.720318,0.683696,10.247719,-24.752281,35.000000,-14.504563,0.00000008,0.00000000,0.00000008,0.00000000,0.00000000,0.000000,0.000000,0.000000,0.000000,0.000000,0.000000,0.000000,0.000000,0.00703165,0.00410293,0.00017082,0.00022435,0.00021841,0.00000000,0.00000000,0.00231514,0.00034191,0.00008541,0.00008974,0.00043682,0.04630278,0.00000000,0.00000000
0.900,1,1,1,-532.028,189.986,50.028,56.676716,0.015734,0.015734,-56.660982,0.000000,0.323555,0.034659,-1.418298,0.358099,1.445859,1.375245,-0.954707,-0.945380,0.737240,0.728633,10.654273,-25.232132,35.886406,-14.577859,0.00000012,0.00000000,0.00000012,0.00000000,0.00000000,0.000000,0.000000,0.000000,0.000000,0.000000,0.000000,0.000000,0.000000,0.00859657,0.00483848,0.00022637,0.00023412,0.00023203,0.00000000,0.00000000,0.00306557,0.00040321,0.00011318,0.00009365,0.00046405,0.06131131,0.00000000,0.00000000
1.000,1,1,1,-532.030,189.985,50.030,56.511711,0.016934,0.016934,-56.494776,0.000000,0.325381,0.031601,-1.377458,1.217535,1.444168,1.375522,-1.085255,-0.945380,0.808071,0.782165,10.843760,-25.008123,35.851883,-14.164363,0.00000014,0.00000000,0.00000014,0.00000000,0.00000000,0.000000,0.000000,0.000000,0.000000,0.000000,0.000000,0.000000,0.000000,0.01023146,0.00553209,0.00029813,0.00034702,0.00024564,0.00000000,0.00000000,0.00380859,0.00046101,0.00014906,0.00013881,0.00049128,0.07617181,0.00000000,0.00000000
1.100,1,1,1,-532.031,189.987,50.031,56.323099,0.014734,0.014734,-56.308365,0.000000,0.328963,0.027108,-1.299652,1.332127,1.416505,1.367301,-1.035821,0.257831,0.900547,0.814257,11.172793,-24.776399,35.949192,-13.603606,0.00000010,0.00000000,0.00000010,0.00000000,0.00000000,0.000000,0.000000,0.000000,0.000000,0.000000,0.000000,0.000000,0.000000,0.01178868,0.00614935,0.00036347,0.00048212,0.00024665,0.00000000,0.00000000,0.00454708,0.00051245,0.00018174,0.00019285,0.00049330,0.09094167,0.00000000,0.00000000
1.200,1,1,1,-532.030,189.989,50.030,56.139946,0.012602,0.012602,-56.127344,0.000000,0.333937,0.031441,-1.190021,1.546986,1.371436,1.350603,-0.864410,1.847789,0.953410,0.819416,11.198390,-24.574135,35.772526,-13.375745,0.00000007,0.00000000,0.00000007,0.00000000,0.00000000,0.000000,0.000000,0.000000,0.000000,0.000000,0.000000,0.000000,0.000000,0.01331690,0.00666751,0.00040904,0.00066455,0.00029871,0.00000000,0.00000000,0.00527709,0.00055563,0.00020452,0.00026582,0.00059741,0.10554177,0.00000000,0.00000000
1.300,1,1,1,-532.027,189.994,50.027,55.915336,0.006972,0.006972,-55.908365,0.000000,0.338379,0.043698,-1.033196,2.263183,1.297842,1.324900,-0.625436,0.902409,0.950847,0.803722,10.886957,-24.391408,35.278365,-13.504451,0.00000002,0.00000000,0.00000002,0.00000000,0.00000000,0.000000,0.000000,0.000000,0.000000,0.000000,0.000000,0.000000,0.000000,0.01484635,0.00705759,0.00043286,0.00105448,0.00031110,0.00000000,0.00000000,0.00599031,0.00058813,0.00021643,0.00042179,0.00062221,0.11980625,0.00000000,0.00000000
1.400,1,1,1,-532.024,189.999,50.024,55.675951,0.001027,0.001027,-55.674925,0.000000,0.344015,0.052038,-0.864971,1.317803,1.197037,1.292835,-0.423640,0.859437,0.874608,0.779161,10.805563,-24.165784,34.971348,-13.360221,0.00000000,0.00000000,0.00000000,0.00000000,0.00000000,0.000000,0.000000,0.000000,0.000000,0.000000,0.000000,0.000000,0.000000,0.01597499,0.00733108,0.00044380,0.00118673,0.00032235,0.00000000,0.00000000,0.00669104,0.00061092,0.00022190,0.00047469,0.00064471,0.13382081,0.00000000,0.00000000
1.500,1,1,1,-532.020,190.004,50.020,55.423833,-0.004619,-0.004619,-55.428453,0.000000,0.350485,0.054904,-0.691369,2.836141,1.068636,1.256827,-0.269081,1.231859,0.730600,0.752303,10.993037,-24.026175,35.019212,-13.033139,0.00000001,0.00000000,0.00000001,0.00000000,0.00000000,0.000000,0.000000,0.000000,0.000000,0.000000,0.000000,0.000000,0.000000,0.01748790,0.00750580,0.00044821,0.00179928,0.00034547,0.00000000,0.00000000,0.00738914,0.00062548,0.00022410,0.00071971,0.00069093,0.14778279,0.00000000,0.00000000
1.600,1,1,1,-532.017,190.009,50.017,55.160467,-0.010350,-0.010350,-55.170816,0.000000,0.356830,0.048809,-0.499224,2.392099,0.917138,1.218434,-0.115691,1.102944,0.549971,0.725595,11.544143,-23.831374,35.375517,-12.287231,0.00000005,0.00000000,0.00000004,0.00000000,0.00000000,0.000000,0.000000,0.000000,0.000000,0.000000,0.000000,0.000000,0.000000,0.01873528,0.00759690,0.00044902,0.00223504,0.00036399,0.00000000,0.00000000,0.00809032,0.00063307,0.00022451,0.00089402,0.00072799,0.16180649,0.00000000,0.00000000
1.700,1,1,1,-532.013,190.015,50.013,54.887272,-0.016784,-0.016784,-54.904056,0.000000,0.363527,0.059412,-0.279552,3.151268,0.751046,1.179329,0.073497,1.604282,0.377027,0.701248,11.410955,-23.684634,35.095589,-12.273679,0.00000012,0.00000000,0.00000011,0.00000000,0.00000000,0.000000,0.000000,0.000000,0.000000,0.000000,0.000000,0.000000,0.000000,0.02025073,0.00762546,0.00044935,0.00299125,0.00040319,0.00000000,0.00000000,0.00878146,0.00063546,0.00022468,0.00119650,0.00080639,0.17562928,0.00000000,0.00000000
1.800,1,1,1,-532.005,190.025,50.005,54.571530,-0.028250,-0.028250,-54.599780,0.000000,0.370864,0.074967,-0.014368,3.165592,0.563553,1.141919,0.320571,2.592634,0.252253,0.683709,11.111421,-23.509905,34.621327,-12.398484,0.00000032,0.00000000,0.00000031,0.00000000,0.00000001,0.000000,0.000000,0.000000,0.000000,0.000000,0.000000,0.000000,0.000000,0.02179723,0.00762554,0.00045561,0.00375364,0.00050547,0.00000000,0.00000000,0.00945697,0.00063546,0.00022780,0.00150146,0.00101094,0.18913947,0.00000000,0.00000000
1.900,1,1,1,-531.999,190.032,49.999,54.317413,-0.036680,-0.036680,-54.354093,0.000000,0.377228,0.083299,0.191514,2.334803,0.420523,1.108781,0.522555,1.919409,0.261469,0.675290,11.083789,-23.339152,34.422940,-12.255363,0.00000052,0.00000000,0.00000051,0.00000000,0.00000001,0.000000,0.000000,0.000000,0.000000,0.000000,0.000000,0.000000,0.000000,0.02296656,0.00763895,0.00047225,0.00416895,0.00056160,0.00000000,0.00000000,0.01012481,0.00063658,0.00023613,0.00166758,0.00112321,0.20249618,0.00000000,0.00000000
2.000,1,1,1,-531.996,190.036,49.996,54.023233,-0.040975,-0.040975,-54.064208,0.000000,0.383912,0.087278,0.415813,2.248859,0.311316,1.081971,0.759753,1.375099,0.386033,0.680261,11.252197,-23.181843,34.434040,-11.929645,0.00000062,0.00000000,0.00000062,0.00000000,0.00000000,0.000000,0.000000,0.000000,0.000000,0.000000,0.000000,0.000000,0.000000,0.02414358,0.00770219,0.00050744,0.00455432,0.00059042,0.00000000,0.00000000,0.01078921,0.00064185,0.00025372,0.00182173,0.00118084,0.21578425,0.00000000,0.00000000
2.100,1,1,1,-531.989,190.044,49.989,53.724247,-0.050573,-0.050573,-53.774821,0.000000,0.390060,0.095341,0.635953,3.136944,0.330407,1.063174,1.022443,2.134268,0.573577,0.702436,11.227314,-23.060760,34.288074,-11.833446,0.00000093,0.00000000,0.00000092,0.00000000,0.00000001,0.000000,0.000000,0.000000,0.000000,0.000000,0.000000,0.000000,0.000000,0.02583141,0.00785000,0.00057111,0.00530357,0.00065979,0.00000000,0.00000000,0.01144694,0.00065417,0.00028556,0.00212143,0.00131957,0.22893881,0.00000000,0.00000000
2.200,1,1,1,-531.982,190.053,49.982,53.421398,-0.061133,-0.061133,-53.482531,0.000000,0.394562,0.104820,0.857126,2.879113,0.470912,1.053829,1.315579,2.549662,0.799999,0.745175,11.079661,-22.906844,33.986505,-11.827183,0.00000133,0.00000000,0.00000132,0.00000000,0.00000001,0.000000,0.000000,0.000000,0.000000,0.000000,0.000000,0.000000,0.000000,0.02758311,0.00811854,0.00067655,0.00593481,0.00075880,0.00000000,0.00000000,0.01209440,0.00067655,0.00033828,0.00237392,0.00151759,0.24188805,0.00000000,0.00000000
2.300,1,1,1,-531.975,190.063,49.975,53.115471,-0.072385,-0.072385,-53.187856,0.000000,0.397058,0.094795,1.071822,2.363451,0.658876,1.054692,1.610336,3.294507,1.052593,0.807643,11.659230,-22.749356,34.408586,-11.090126,0.00000184,0.00000000,0.00000183,0.00000000,0.00000001,0.000000,0.000000,0.000000,0.000000,0.000000,0.000000,0.000000,0.000000,0.02940428,0.00853827,0.00083446,0.00635999,0.00092403,0.00000000,0.00000000,0.01274754,0.00071152,0.00041723,0.00254399,0.00184805,0.25495088,0.00000000,0.00000000
2.400,1,1,1,-531.967,190.073,49.967,52.831753,-0.083754,-0.083754,-52.915507,0.000000,0.398598,0.106263,1.251444,2.034000,0.837755,1.064434,1.845550,2.893437,1.289224,0.881806,11.297803,-22.610358,33.908161,-11.312556,0.00000247,0.00000000,0.00000246,0.00000000,0.00000001,0.000000,0.000000,0.000000,0.000000,0.000000,0.000000,0.000000,0.000000,0.03126748,0.00911129,0.00104217,0.00667535,0.00105166,0.00000000,0.00000000,0.01338702,0.00075927,0.00052108,0.00267014,0.00210332,0.26774036,0.00000000,0.00000000
2.500,1,1,1,-531.961,190.083,49.961,52.558608,-0.094809,-0.094809,-52.653417,0.000000,0.399352,0.108156,1.402552,1.432394,1.013768,1.081340,2.021624,1.160240,1.520184,0.959951,11.312870,-22.469585,33.782455,-11.156716,0.00000319,0.00000000,0.00000318,0.00000000,0.00000001,0.000000,0.000000,0.000000,0.000000,0.000000,0.000000,0.000000,0.000000,0.03304558,0.00983053,0.00129122,0.00683164,0.00107217,0.00000000,0.00000000,0.01402003,0.00081921,0.00064561,0.00273265,0.00214433,0.28040062,0.00000000,0.00000000
2.600,1,1,1,-531.955,190.092,49.955,52.246528,-0.105570,-0.105570,-52.352098,0.000000,0.391426,0.105488,1.552067,1.045648,1.199115,1.104974,2.176170,0.701873,1.756298,1.039467,11.158935,-22.321406,33.480341,-11.162471,0.00000445,0.00000000,0.00000444,0.00000000,0.00000001,0.000000,0.000000,0.000000,0.000000,0.000000,0.000000,0.000000,0.000000,0.03492889,0.01071142,0.00157984,0.00691493,0.00107967,0.00000000,0.00000000,0.01464303,0.00089262,0.00078992,0.00276597,0.00215934,0.29286062,0.00000000,0.00000000
2.700,1,1,1,-531.950,190.102,49.950,51.933222,-0.116487,-0.116487,-52.049709,0.000000,0.381096,0.105635,1.682054,2.306155,1.368753,1.133744,2.315246,1.074296,1.962567,1.118877,10.795533,-22.224900,33.020433,-11.429366,0.00000618,0.00000000,0.00000617,0.00000000,0.00000001,0.000000,0.000000,0.000000,0.000000,0.000000,0.000000,0.000000,0.000000,0.03732564,0.01174688,0.00190680,0.00732043,0.00109727,0.00000000,0.00000000,0.01525425,0.00097891,0.00095340,0.00292817,0.00219454,0.30508504,0.00000000,0.00000000
2.800,1,1,1,-531.944,190.112,49.944,51.619184,-0.127986,-0.127986,-51.747170,0.000000,0.372293,0.108271,1.789661,0.730521,1.519187,1.165772,2.460962,-0.042972,2.139951,1.198506,10.402530,-22.038482,32.441011,-11.635952,0.00000828,0.00000000,0.00000827,0.00000000,0.00000001,0.000000,0.000000,0.000000,0.000000,0.000000,0.000000,0.000000,0.000000,0.03949694,0.01291603,0.00227526,0.00736102,0.00109730,0.00000000,0.00000000,0.01584733,0.00107634,0.00113763,0.00294441,0.00219460,0.31694660,0.00000000,0.00000000
2.900,1,1,1,-531.939,190.122,49.940,51.304668,-0.140073,-0.140073,-51.444741,0.000000,0.365158,0.126736,1.866488,1.446718,1.647668,1.199031,2.603569,0.572958,2.295965,1.278346,9.435195,-21.925975,31.361170,-12.490780,0.00001075,0.00000000,0.00001074,0.00000000,0.00000001,0.000000,0.000000,0.000000,0.000000,0.000000,0.000000,0.000000,0.000000,0.04191616,0.01418877,0.00268800,0.00752032,0.00110230,0.00000000,0.00000000,0.01641678,0.00118240,0.00134400,0.00300813,0.00220459,0.32833552,0.00000000,0.00000000
3.000,1,1,1,-531.935,190.133,49.936,50.989792,-0.152329,-0.152329,-51.142122,0.000000,0.359859,0.120403,1.908090,0.401070,1.751546,1.231419,2.714181,0.128916,2.436965,1.356095,9.589101,-21.755856,31.344957,-12.166755,0.00001352,0.00000000,0.00001351,0.00000000,0.00000001,0.000000,0.000000,0.000000,0.000000,0.000000,0.000000,0.000000,0.000000,0.04427457,0.01552018,0.00313699,0.00753257,0.00110255,0.00000000,0.00000000,0.01698228,0.00129335,0.00156850,0.00301303,0.00220510,0.33964551,0.00000000,0.00000000
3.100,1,1,1,-531.933,190.143,49.933,50.674670,-0.164291,-0.164291,-50.838960,0.000000,0.356648,0.114236,1.916647,-0.787817,1.828187,1.261252,2.770825,-0.186211,2.561229,1.428378,9.808279,-21.582649,31.390927,-11.774370,0.00001641,0.00000000,0.00001640,0.00000000,0.00000001,0.000000,0.000000,0.000000,0.000000,0.000000,0.000000,0.000000,0.000000,0.04669420,0.01686259,0.00360459,0.00757982,0.00110308,0.00000000,0.00000000,0.01754412,0.00140522,0.00180229,0.00303193,0.00220616,0.35088231,0.00000000,0.00000000
3.200,1,1,1,-531.931,190.153,49.931,50.359574,-0.175800,-0.175800,-50.535374,0.000000,0.355816,0.109233,1.897454,-0.128916,1.875537,1.287550,2.771444,-0.558634,2.659118,1.492785,10.064064,-21.467686,31.531750,-11.403623,0.00001927,0.00000000,0.00001926,0.00000000,0.00000001,0.000000,0.000000,0.000000,0.000000,0.000000,0.000000,0.000000,0.000000,0.04904786,0.01817949,0.00407283,0.00758109,0.00110783,0.00000000,0.00000000,0.01810662,0.00151496,0.00203642,0.00303244,0.00221567,0.36213232,0.00000000,0.00000000
3.300,1,1,1,-531.930,190.163,49.930,50.044771,-0.187003,-0.187003,-50.231774,0.000000,0.357573,0.104955,1.851634,0.329451,1.892850,1.309533,2.727342,-1.804817,2.719476,1.548025,10.384497,-21.343208,31.727705,-10.958711,0.00002200,0.00000000,0.00002200,0.00000000,0.00000001,0.000000,0.000000,0.000000,0.000000,0.000000,0.000000,0.000000,0.000000,0.05137428,0.01943208,0.00452575,0.00758935,0.00115742,0.00000000,0.00000000,0.01866968,0.00161934,0.00226288,0.00303574,0.00231484,0.37339354,0.00000000,0.00000000
3.400,1,1,1,-531.930,190.173,49.931,49.730407,-0.198133,-0.198133,-49.928540,0.000000,0.362010,0.099748,1.775858,-1.905085,1.880573,1.326589,2.648020,-0.945380,2.735773,1.593931,10.841931,-21.133847,31.975778,-10.291916,0.00002454,0.00000000,0.00002453,0.00000000,0.00000001,0.000000,0.000000,0.000000,0.000000,0.000000,0.000000,0.000000,0.000000,0.05380830,0.02058480,0.00495292,0.00786572,0.00117103,0.00000000,0.00000000,0.01923383,0.00171540,0.00247646,0.00314629,0.00234206,0.38467656,0.00000000,0.00000000
3.500,1,1,1,-531.931,190.182,49.932,49.416625,-0.209301,-0.209301,-49.625927,0.000000,0.369149,0.099909,1.668182,-1.790493,1.839475,1.338229,2.534815,-1.131592,2.707780,1.630461,11.176015,-21.000801,32.176816,-9.824786,0.00002679,0.00000000,0.00002678,0.00000000,0.00000001,0.000000,0.000000,0.000000,0.000000,0.000000,0.000000,0.000000,0.000000,0.05604793,0.02160265,0.00534461,0.00811001,0.00119055,0.00000000,0.00000000,0.01980011,0.00180022,0.00267231,0.00324400,0.00238109,0.39600215,0.00000000,0.00000000
3.600,1,1,1,-531.933,190.192,49.934,49.103583,-0.220497,-0.220497,-49.324080,0.000000,0.378995,0.112082,1.531905,-0.644578,1.770200,1.344333,2.386736,-1.790493,2.639393,1.657677,11.119638,-20.896920,32.016558,-9.777282,0.00002861,0.00000000,0.00002860,0.00000000,0.00000001,0.000000,0.000000,0.000000,0.000000,0.000000,0.000000,0.000000,0.000000,0.05789638,0.02246177,0.00569218,0.00814170,0.00123945,0.00000000,0.00000000,0.02036128,0.00187181,0.00284609,0.00325668,0.00247890,0.40722556,0.00000000,0.00000000
3.700,1,1,1,-531.936,190.202,49.936,48.791371,-0.231714,-0.231714,-49.023085,0.000000,0.391551,0.106678,1.372861,-0.787817,1.673403,1.345154,2.207520,-1.962380,2.535389,1.675853,11.904820,-20.749480,32.654300,-8.844660,0.00002986,0.00000000,0.00002985,0.00000000,0.00000001,0.000000,0.000000,0.000000,0.000000,0.000000,0.000000,0.000000,0.000000,0.05955681,0.02314923,0.00598843,0.00818886,0.00129797,0.00000000,0.00000000,0.02093231,0.00192910,0.00299422,0.00327555,0.00259595,0.41864612,0.00000000,0.00000000
3.800,1,1,1,-531.939,190.212,49.939,48.480101,-0.243030,-0.243030,-48.723131,0.000000,0.406781,0.106003,1.194263,-2.177240,1.550430,1.341191,2.004069,-1.346451,2.399568,1.685836,12.585198,-20.564508,33.149706,-7.979310,0.00003044,0.00000000,0.00003043,0.00000000,0.00000001,0.000000,0.000000,0.000000,0.000000,0.000000,0.000000,0.000000,0.000000,0.06129315,0.02367071,0.00623317,0.00854995,0.00132559,0.00000000,0.00000000,0.02151372,0.00197256,0.00311659,0.00341998,0.00265119,0.43027450,0.00000000,0.00000000
3.900,1,1,1,-531.942,190.222,49.943,48.169917,-0.254546,-0.254546,-48.424463,0.000000,0.424554,0.107479,0.997545,-1.790493,1.403880,1.333074,1.779700,-2.592634,2.234842,1.688440,13.269091,-20.437525,33.706615,-7.168434,0.00003024,0.00000000,0.00003023,0.00000000,0.00000001,0.000000,0.000000,0.000000,0.000000,0.000000,0.000000,0.000000,0.000000,0.06278914,0.02403422,0.00642601,0.00879392,0.00142790,0.00000000,0.00000000,0.02210709,0.00200285,0.00321301,0.00351757,0.00285581,0.44214181,0.00000000,0.00000000
4.000,1,1,1,-531.946,190.232,49.946,47.860938,-0.266258,-0.266258,-48.127196,0.000000,0.436639,0.109331,0.784388,-2.205888,1.237433,1.321546,1.531688,-3.366127,2.043986,1.684498,13.693109,-20.284645,33.977754,-6.591536,0.00003141,0.00000000,0.00003140,0.00000000,0.00000001,0.000000,0.000000,0.000000,0.000000,0.000000,0.000000,0.000000,0.000000,0.06430039,0.02425931,0.00656906,0.00916481,0.00160063,0.00000000,0.00000000,0.02270658,0.00202161,0.00328453,0.00366592,0.00320126,0.45413150,0.00000000,0.00000000
4.100,1,1,1,-531.950,190.242,49.951,47.553270,-0.278097,-0.278097,-47.831366,0.000000,0.444152,0.108343,0.558575,-1.031324,1.055178,1.307564,1.256498,-3.093972,1.829714,1.674896,14.045680,-20.181623,34.227303,-6.135943,0.00003397,0.00000000,0.00003396,0.00000000,0.00000001,0.000000,0.000000,0.000000,0.000000,0.000000,0.000000,0.000000,0.000000,0.06534143,0.02437330,0.00666520,0.00924576,0.00174635,0.00000000,0.00000000,0.02331082,0.00203111,0.00333260,0.00369830,0.00349270,0.46621639,0.00000000,0.00000000
4.200,1,1,1,-531.954,190.253,49.955,47.247015,-0.290045,-0.290045,-47.537059,0.000000,0.451232,0.111705,0.324829,-2.649930,0.861658,1.292145,0.957374,-3.538014,1.594514,1.660748,14.203565,-19.990790,34.194356,-5.787225,0.00003656,0.00000000,0.00003655,0.00000000,0.00000001,0.000000,0.000000,0.000000,0.000000,0.000000,0.000000,0.000000,0.000000,0.06676179,0.02441185,0.00672100,0.00978021,0.00193689,0.00000000,0.00000000,0.02391184,0.00203432,0.00336050,0.00391208,0.00387378,0.47823676,0.00000000,0.00000000
4.300,1,1,1,-531.958,190.264,49.959,46.942298,-0.302214,-0.302214,-47.244512,0.000000,0.456806,0.124819,0.087358,-2.248859,0.663658,1.276356,0.646056,-2.965057,1.341431,1.643462,13.905745,-19.867715,33.773460,-5.961970,0.00003923,0.00000000,0.00003921,0.00000000,0.00000001,0.000000,0.000000,0.000000,0.000000,0.000000,0.000000,0.000000,0.000000,0.06789764,0.02441464,0.00674644,0.01016552,0.00207085,0.00000000,0.00000000,0.02450019,0.00203455,0.00337322,0.00406621,0.00414170,0.49000378,0.00000000,0.00000000
4.400,1,1,1,-531.962,190.274,49.963,46.639231,-0.314768,-0.314768,-46.953999,0.000000,0.462450,0.121868,-0.150243,-3.423423,0.475147,1.261271,0.336997,-3.022352,1.076003,1.624597,14.292688,-19.696763,33.989451,-5.404076,0.00004203,0.00000000,0.00004202,0.00000000,0.00000001,0.000000,0.000000,0.000000,0.000000,0.000000,0.000000,0.000000,0.000000,0.06953794,0.02442290,0.00675337,0.01105871,0.00221008,0.00000000,0.00000000,0.02509288,0.00203524,0.00337668,0.00442348,0.00442017,0.50185764,0.00000000,0.00000000
4.500,1,1,1,-531.965,190.286,49.966,46.337873,-0.327808,-0.327808,-46.665681,0.000000,0.468049,0.121889,-0.385077,-2.234535,0.334043,1.247908,0.039161,-3.036676,0.809039,1.605616,14.551737,-19.602874,34.154611,-5.051137,0.00004505,0.00000000,0.00004504,0.00000000,0.00000001,0.000000,0.000000,0.000000,0.000000,0.000000,0.000000,0.000000,0.000000,0.07070830,0.02447707,0.00675346,0.01143874,0.00235045,0.00000000,0.00000000,0.02568857,0.00203976,0.00337673,0.00457550,0.00470091,0.51377135,0.00000000,0.00000000
4.600,1,1,1,-531.968,190.298,49.969,46.038247,-0.341317,-0.341317,-46.379565,0.000000,0.473493,0.121822,-0.612883,-2.521014,0.322878,1.237109,-0.246321,-2.893437,0.563098,1.587714,14.809116,-19.462438,34.271554,-4.653322,0.00004832,0.00000000,0.00004831,0.00000000,0.00000001,0.000000,0.000000,0.000000,0.000000,0.000000,0.000000,0.000000,0.000000,0.07205785,0.02461427,0.00675715,0.01192236,0.00247787,0.00000000,0.00000000,0.02628619,0.00205119,0.00337858,0.00476895,0.00495573,0.52572386,0.00000000,0.00000000
4.700,1,1,1,-531.970,190.310,49.971,45.740358,-0.355207,-0.355207,-46.095566,0.000000,0.478688,0.122612,-0.829605,-2.649930,0.450321,1.229519,-0.521183,-2.922085,0.395903,1.571889,15.022080,-19.330311,34.352391,-4.308232,0.00005188,0.00000000,0.00005187,0.00000000,0.00000001,0.000000,0.000000,0.000000,0.000000,0.000000,0.000000,0.000000,0.000000,0.07359061,0.02486593,0.00677371,0.01245730,0.00260796,0.00000000,0.00000000,0.02688571,0.00207216,0.00338685,0.00498292,0.00521592,0.53771417,0.00000000,0.00000000
4.800,1,1,1,-531.972,190.322,49.973,45.444249,-0.369431,-0.369431,-45.813680,0.000000,0.483556,0.124381,-1.032181,-1.948057,0.632024,1.225567,-0.784077,-3.781521,0.410267,1.559002,15.183721,-19.226613,34.410334,-4.042892,0.00005577,0.00000000,0.00005576,0.00000000,0.00000002,0.000000,0.000000,0.000000,0.000000,0.000000,0.000000,0.000000,0.000000,0.07512443,0.02525535,0.00681116,0.01274628,0.00282575,0.00000000,0.00000000,0.02748588,0.00210461,0.00340558,0.00509851,0.00565149,0.54971765,0.00000000,0.00000000
4.900,1,1,1,-531.972,190.335,49.974,45.149913,-0.384020,-0.384020,-45.533933,0.000000,0.488039,0.113594,-1.218230,-1.504014,0.825069,1.225412,-1.028787,-1.905085,0.578213,1.549609,15.850522,-19.116020,34.966542,-3.265497,0.00006007,0.00000000,0.00006006,0.00000000,0.00000002,0.000000,0.000000,0.000000,0.000000,0.000000,0.000000,0.000000,0.000000,0.07657590,0.02579796,0.00687566,0.01291858,0.00288103,0.00000000,0.00000000,0.02810267,0.00214983,0.00343783,0.00516743,0.00576207,0.56205333,0.00000000,0.00000000
5.000,1,1,1,-531.972,190.348,49.974,44.857306,-0.399053,-0.399053,-45.256359,0.000000,0.492103,0.121326,-1.385487,-0.974028,1.014094,1.228958,-1.247482,-1.804817,0.793271,1.543920,15.725585,-19.010201,34.735787,-3.284616,0.00006486,0.00000000,0.00006484,0.00000000,0.00000002,0.000000,0.000000,0.000000,0.000000,0.000000,0.000000,0.000000,0.000000,0.07810220,0.02649930,0.00697042,0.01299080,0.00293062,0.00000000,0.00000000,0.02871106,0.00220828,0.00348521,0.00519632,0.00586125,0.57422114,0.00000000,0.00000000
5.100,1,1,1,-531.972,190.362,49.973,44.566348,-0.414566,-0.414566,-44.980914,0.000000,0.495747,0.127668,-1.530170,-1.991028,1.191649,1.235840,-1.434133,-1.489690,1.010452,1.541757,15.654822,-18.859560,34.514382,-3.204739,0.00007020,0.00000000,0.00007018,0.00000000,0.00000002,0.000000,0.000000,0.000000,0.000000,0.000000,0.000000,0.000000,0.000000,0.08002016,0.02735533,0.00709574,0.01329274,0.00296443,0.00000000,0.00000000,0.02931191,0.00227961,0.00354787,0.00531710,0.00592886,0.58623828,0.00000000,0.00000000
5.200,1,1,1,-531.970,190.376,49.971,44.277004,-0.430545,-0.430545,-44.707549,0.000000,0.487995,0.132967,-1.650182,-0.529986,1.352989,1.245477,-1.585457,-2.177240,1.212731,1.542643,15.167386,-18.791304,33.958690,-3.623918,0.00008336,0.00000000,0.00008334,0.00000000,0.00000002,0.000000,0.000000,0.000000,0.000000,0.000000,0.000000,0.000000,0.000000,0.08184514,0.02835056,0.00724886,0.01331413,0.00303662,0.00000000,0.00000000,0.02989498,0.00236255,0.00362443,0.00532565,0.00607323,0.59789952,0.00000000,0.00000000
5.300,1,1,1,-531.967,190.390,49.968,43.989211,-0.446961,-0.446961,-44.436172,0.000000,0.478319,0.138531,-1.744345,-0.515662,1.494739,1.257166,-1.699388,-0.830789,1.390976,1.545870,14.610216,-18.678373,33.288589,-4.068157,0.00009924,0.00000000,0.00009922,0.00000000,0.00000002,0.000000,0.000000,0.000000,0.000000,0.000000,0.000000,0.000000,0.000000,0.08372686,0.02946306,0.00742484,0.01333438,0.00304713,0.00000000,0.00000000,0.03045744,0.00245525,0.00371242,0.00533375,0.00609426,0.60914885,0.00000000,0.00000000
5.400,1,1,1,-531.963,190.404,49.965,43.702887,-0.463790,-0.463790,-44.166678,0.000000,0.470490,0.144213,-1.812453,-0.186211,1.614417,1.270133,-1.773477,0.014324,1.539130,1.550561,14.142522,-18.578947,32.721469,-4.436425,0.00011541,0.00000000,0.00011539,0.00000000,0.00000002,0.000000,0.000000,0.000000,0.000000,0.000000,0.000000,0.000000,0.000000,0.08566647,0.03066347,0.00761640,0.01333702,0.00304713,0.00000000,0.00000000,0.03100245,0.00255529,0.00380820,0.00533481,0.00609427,0.62004908,0.00000000,0.00000000
5.500,1,1,1,-531.958,190.419,49.960,43.417953,-0.481007,-0.481007,-43.898960,0.000000,0.463512,0.149407,-1.853873,-0.186211,1.710202,1.283609,-1.805602,0.300803,1.652977,1.555761,13.742077,-18.472312,32.214389,-4.730236,0.00013150,0.00000000,0.00013148,0.00000000,0.00000002,0.000000,0.000000,0.000000,0.000000,0.000000,0.000000,0.000000,0.000000,0.08765581,0.03191997,0.00781505,0.01333966,0.00304851,0.00000000,0.00000000,0.03153261,0.00266000,0.00390753,0.00533587,0.00609703,0.63065220,0.00000000,0.00000000
5.600,1,1,1,-531.953,190.435,49.955,43.156959,-0.498560,-0.498560,-43.655519,0.000000,0.459543,0.184776,-1.867369,0.873761,1.774962,1.296817,-1.797898,0.429718,1.723805,1.560589,12.230026,-18.412797,30.642823,-6.182772,0.00014662,0.00000000,0.00014660,0.00000000,0.00000002,0.000000,0.000000,0.000000,0.000000,0.000000,0.000000,0.000000,0.000000,0.08967810,0.03319535,0.00801209,0.01339784,0.00305133,0.00000000,0.00000000,0.03202149,0.00276628,0.00400605,0.00535913,0.00610265,0.64042977,0.00000000,0.00000000
5.700,1,1,1,-531.946,190.450,49.948,42.874400,-0.516346,-0.516346,-43.390747,0.000000,0.457820,0.174681,-1.854126,0.243507,1.822080,1.309086,-1.750576,1.145916,1.765805,1.564255,12.721448,-18.290952,31.012400,-5.569504,0.00016145,0.00000000,0.00016142,0.00000000,0.00000002,0.000000,0.000000,0.000000,0.000000,0.000000,0.000000,0.000000,0.000000,0.09164510,0.03445376,0.00819905,0.01340236,0.00307136,0.00000000,0.00000000,0.03251858,0.00287115,0.00409953,0.00536094,0.00614271,0.65037150,0.00000000,0.00000000
5.800,1,1,1,-531.939,190.466,49.941,42.592979,-0.534302,-0.534302,-43.127281,0.000000,0.459077,0.172120,-1.814259,-0.028648,1.842599,1.319781,-1.665733,1.589958,1.768738,1.566121,12.996868,-18.185202,31.182070,-5.188335,0.00017481,0.00000000,0.00017479,0.00000000,0.00000002,0.000000,0.000000,0.000000,0.000000,0.000000,0.000000,0.000000,0.000000,0.09355136,0.03565433,0.00836773,0.01340242,0.00310977,0.00000000,0.00000000,0.03301711,0.00297119,0.00418386,0.00536097,0.00621955,0.66034214,0.00000000,0.00000000
5.900,1,1,1,-531.930,190.481,49.933,42.346286,-0.552416,-0.552416,-42.898702,0.000000,0.462708,0.171780,-1.757943,1.675902,1.838313,1.328730,-1.562201,0.501338,1.738577,1.566052,13.261769,-18.158711,31.420480,-4.896941,0.00018643,0.00000000,0.00018641,0.00000000,0.00000002,0.000000,0.000000,0.000000,0.000000,0.000000,0.000000,0.000000,0.000000,0.09555653,0.03678596,0.00851667,0.01361668,0.00311361,0.00000000,0.00000000,0.03352360,0.00306550,0.00425834,0.00544667,0.00622722,0.67047208,0.00000000,0.00000000
6.000,1,1,1,-531.921,190.497,49.924,42.066964,-0.570694,-0.570694,-42.637658,0.000000,0.469750,0.173003,-1.670347,1.475366,1.808501,1.335350,-1.412138,1.575634,1.670025,1.563530,13.589289,-18.056312,31.645600,-4.467023,0.00019575,0.00000000,0.00019572,0.00000000,0.00000003,0.000000,0.000000,0.000000,0.000000,0.000000,0.000000,0.000000,0.000000,0.09740943,0.03780433,0.00863798,0.01378220,0.00315137,0.00000000,0.00000000,0.03403355,0.00315036,0.00431899,0.00551288,0.00630273,0.68067094,0.00000000,0.00000000
6.100,1,1,1,-531.911,190.513,49.914,41.788638,-0.589159,-0.589159,-42.377797,0.000000,0.479846,0.178491,-1.558704,0.888085,1.753004,1.339447,-1.227331,1.876437,1.566403,1.558436,13.853976,-17.945939,31.799915,-4.091963,0.00020222,0.00000000,0.00020219,0.00000000,0.00000003,0.000000,0.000000,0.000000,0.000000,0.000000,0.000000,0.000000,0.000000,0.09901705,0.03869247,0.00872976,0.01384227,0.00320500,0.00000000,0.00000000,0.03454756,0.00322437,0.00436488,0.00553691,0.00640999,0.69095119,0.00000000,0.00000000
6.200,1,1,1,-531.900,190.529,49.903,41.511328,-0.607825,-0.607825,-42.119153,0.000000,0.491293,0.188913,-1.425014,0.315127,1.673146,1.340918,-1.009079,2.449395,1.429778,1.550872,13.962405,-17.840273,31.802677,-3.877868,0.00020543,0.00000000,0.00020540,0.00000000,0.00000003,0.000000,0.000000,0.000000,0.000000,0.000000,0.000000,0.000000,0.000000,0.10043421,0.03943511,0.00879182,0.01384984,0.00329642,0.00000000,0.00000000,0.03506102,0.00328626,0.00439591,0.00553993,0.00659283,0.70122050,0.00000000,0.00000000
6.300,1,1,1,-531.888,190.546,49.891,41.235073,-0.626678,-0.626678,-41.861750,0.000000,0.505154,0.192539,-1.272058,1.389423,1.570412,1.339818,-0.761340,1.919409,1.262682,1.541194,14.447914,-17.788357,32.236270,-3.340443,0.00020496,0.00000000,0.00020493,0.00000000,0.00000003,0.000000,0.000000,0.000000,0.000000,0.000000,0.000000,0.000000,0.000000,0.10178914,0.04002653,0.00882713,0.01399683,0.00335252,0.00000000,0.00000000,0.03558613,0.00333554,0.00441356,0.00559873,0.00670505,0.71172254,0.00000000,0.00000000
6.400,1,1,1,-531.876,190.562,49.879,40.959877,-0.645683,-0.645683,-41.605560,0.000000,0.521318,0.198928,-1.102983,2.019676,1.446694,1.336332,-0.490030,2.664254,1.068918,1.529984,14.901452,-17.721295,32.622747,-2.819843,0.00020044,0.00000000,0.00020041,0.00000000,0.00000003,0.000000,0.000000,0.000000,0.000000,0.000000,0.000000,0.000000,0.000000,0.10320291,0.04047111,0.00884175,0.01430738,0.00346060,0.00000000,0.00000000,0.03612207,0.00337259,0.00442088,0.00572295,0.00692121,0.72244134,0.00000000,0.00000000
6.500,1,1,1,-531.862,190.579,49.866,40.685701,-0.664800,-0.664800,-41.350500,0.000000,0.536290,0.204566,-0.920026,2.334803,1.304407,1.330740,-0.201340,2.191564,0.855452,1.518001,15.327463,-17.644522,32.971985,-2.317058,0.00019628,0.00000000,0.00019625,0.00000000,0.00000003,0.000000,0.000000,0.000000,0.000000,0.000000,0.000000,0.000000,0.000000,0.10454971,0.04078060,0.00884422,0.01472263,0.00353378,0.00000000,0.00000000,0.03666847,0.00339838,0.00442211,0.00588905,0.00706755,0.73336948,0.00000000,0.00000000
6.600,1,1,1,-531.848,190.595,49.852,40.412531,-0.683993,-0.683993,-41.096523,0.000000,0.540561,0.206923,-0.725331,1.919409,1.146391,1.323410,0.099455,2.119944,0.636827,1.506143,15.441209,-17.546189,32.987397,-2.104980,0.00020690,0.00000000,0.00020688,0.00000000,0.00000003,0.000000,0.000000,0.000000,0.000000,0.000000,0.000000,0.000000,0.000000,0.10563821,0.04097296,0.00884483,0.01500327,0.00360224,0.00000000,0.00000000,0.03721491,0.00341441,0.00442241,0.00600131,0.00720449,0.74429823,0.00000000,0.00000000
6.700,1,1,1,-531.833,190.612,49.837,40.140375,-0.703236,-0.703236,-40.843611,0.000000,0.545007,0.213984,-0.521687,2.950733,0.975955,1.314789,0.407759,2.879113,0.450761,1.495374,15.372275,-17.494453,32.866728,-2.122178,0.00021750,0.00000000,0.00021748,0.00000000,0.00000003,0.000000,0.000000,0.000000,0.000000,0.000000,0.000000,0.000000,0.000000,0.10707863,0.04107239,0.00885495,0.01566593,0.00372842,0.00000000,0.00000000,0.03775694,0.00342270,0.00442748,0.00626637,0.00745684,0.75513887,0.00000000,0.00000000
6.800,1,1,1,-531.818,190.628,49.822,39.869235,-0.722507,-0.722507,-40.591743,0.000000,0.549572,0.220720,-0.312929,2.306155,0.797179,1.305358,0.718932,2.979381,0.394588,1.486638,15.330383,-17.389402,32.719785,-2.059019,0.00022809,0.00000000,0.00022806,0.00000000,0.00000003,0.000000,0.000000,0.000000,0.000000,0.000000,0.000000,0.000000,0.000000,0.10822358,0.04110818,0.00888644,0.01607096,0.00386362,0.00000000,0.00000000,0.03829438,0.00342568,0.00444322,0.00642838,0.00772725,0.76588752,0.00000000,0.00000000
6.900,1,1,1,-531.803,190.645,49.807,39.599110,-0.741774,-0.741774,-40.340884,0.000000,0.554192,0.238608,-0.103040,3.265859,0.615861,1.295641,1.027863,4.239888,0.532261,1.480835,14.837646,-17.335687,32.173333,-2.498041,0.00023869,0.00000000,0.00023866,0.00000000,0.00000003,0.000000,0.000000,0.000000,0.000000,0.000000,0.000000,0.000000,0.000000,0.10989866,0.04111206,0.00895081,0.01688326,0.00413744,0.00000000,0.00000000,0.03881509,0.00342601,0.00447541,0.00675330,0.00827488,0.77630179,0.00000000,0.00000000
7.000,1,1,1,-531.787,190.661,49.791,39.329998,-0.760972,-0.760972,-40.090970,0.000000,0.558802,0.234594,0.105514,2.578310,0.442897,1.286142,1.329499,2.821817,0.771087,1.478722,15.265178,-17.229092,32.494270,-1.963914,0.00024933,0.00000000,0.00024931,0.00000000,0.00000003,0.000000,0.000000,0.000000,0.000000,0.000000,0.000000,0.000000,0.000000,0.11116783,0.04111613,0.00905850,0.01738952,0.00425872,0.00000000,0.00000000,0.03934497,0.00342634,0.00452925,0.00695581,0.00851744,0.78689931,0.00000000,0.00000000
7.100,1,1,1,-531.771,190.678,49.775,39.061910,-0.780063,-0.780063,-39.841972,0.000000,0.563336,0.234313,0.309631,2.234535,0.306569,1.277333,1.618825,2.922085,1.042319,1.480847,15.523587,-17.134914,32.658501,-1.611327,0.00026008,0.00000000,0.00026005,0.00000000,0.00000003,0.000000,0.000000,0.000000,0.000000,0.000000,0.000000,0.000000,0.000000,0.11240722,0.04115117,0.00921813,0.01776970,0.00438875,0.00000000,0.00000000,0.03987947,0.00342926,0.00460906,0.00710788,0.00877750,0.79758931,0.00000000,0.00000000
7.200,1,1,1,-531.755,190.694,49.759,38.794884,-0.799008,-0.799008,-39.593892,0.000000,0.567734,0.233148,0.507458,2.864789,0.275129,1.269625,1.890810,2.606958,1.320576,1.487500,15.807979,-17.070906,32.878886,-1.262927,0.00027100,0.00000000,0.00027097,0.00000000,0.00000003,0.000000,0.000000,0.000000,0.000000,0.000000,0.000000,0.000000,0.000000,0.11398919,0.04124532,0.00943597,0.01839478,0.00449228,0.00000000,0.00000000,0.04042084,0.00343711,0.00471798,0.00735791,0.00898455,0.80841685,0.00000000,0.00000000
7.300,1,1,1,-531.739,190.710,49.744,38.528922,-0.817785,-0.817785,-39.346706,0.000000,0.570367,0.231752,0.696268,2.535338,0.373188,1.263357,2.140697,1.260507,1.593936,1.498679,16.024658,-16.975011,32.999669,-0.950352,0.00028217,0.00000000,0.00028214,0.00000000,0.00000003,0.000000,0.000000,0.000000,0.000000,0.000000,0.000000,0.000000,0.000000,0.11550432,0.04142254,0.00971517,0.01888432,0.00451648,0.00000000,0.00000000,0.04096581,0.00345188,0.00485758,0.00755373,0.00903295,0.81931622,0.00000000,0.00000000
7.400,1,1,1,-531.723,190.726,49.728,38.264010,-0.836385,-0.836385,-39.100395,0.000000,0.570615,0.230138,0.872771,1.432394,0.527332,1.258763,2.364017,2.105620,1.854694,1.514087,16.150407,-16.855468,33.005875,-0.705061,0.00029369,0.00000000,0.00029366,0.00000000,0.00000003,0.000000,0.000000,0.000000,0.000000,0.000000,0.000000,0.000000,0.000000,0.11689186,0.04170096,0.01005562,0.01904056,0.00458400,0.00000000,0.00000000,0.04151071,0.00347508,0.00502781,0.00761622,0.00916800,0.83021428,0.00000000,0.00000000
7.500,1,1,1,-531.708,190.742,49.713,38.000177,-0.854802,-0.854802,-38.854979,0.000000,0.570900,0.236635,1.034195,1.117268,0.693825,1.255957,2.557028,1.461042,2.096864,1.533178,15.945107,-16.761570,32.706677,-0.816463,0.00030565,0.00000000,0.00030562,0.00000000,0.00000003,0.000000,0.000000,0.000000,0.000000,0.000000,0.000000,0.000000,0.000000,0.11834424,0.04209201,0.01045404,0.01913564,0.00461652,0.00000000,0.00000000,0.04204602,0.00350767,0.00522702,0.00765426,0.00923304,0.84092044,0.00000000,0.00000000
7.600,1,1,1,-531.693,190.757,49.699,37.737458,-0.873015,-0.873015,-38.610473,0.000000,0.571292,0.228560,1.179170,1.375099,0.857458,1.254951,2.717168,0.601606,2.315552,1.555192,16.355439,-16.684061,33.039500,-0.328623,0.00031810,0.00000000,0.00031808,0.00000000,0.00000003,0.000000,0.000000,0.000000,0.000000,0.000000,0.000000,0.000000,0.000000,0.11999716,0.04260011,0.01090370,0.01927960,0.00462203,0.00000000,0.00000000,0.04259171,0.00355001,0.00545185,0.00771184,0.00924406,0.85183425,0.00000000,0.00000000
7.700,1,1,1,-531.679,190.773,49.685,37.475851,-0.891038,-0.891038,-38.366889,0.000000,0.571854,0.220735,1.305436,1.647254,1.011457,1.255637,2.842591,0.372423,2.506813,1.579278,16.753422,-16.604181,33.357602,0.149241,0.00033110,0.00000000,0.00033108,0.00000000,0.00000002,0.000000,0.000000,0.000000,0.000000,0.000000,0.000000,0.000000,0.000000,0.12187763,0.04322309,0.01139602,0.01948625,0.00462414,0.00000000,0.00000000,0.04314812,0.00360192,0.00569801,0.00779450,0.00924829,0.86296244,0.00000000,0.00000000
7.800,1,1,1,-531.665,190.788,49.672,37.215354,-0.908895,-0.908895,-38.124250,0.000000,0.572655,0.214152,1.411335,2.076972,1.151718,1.257813,2.931639,0.186211,2.667492,1.604514,17.103266,-16.526453,33.629718,0.576813,0.00034469,0.00000000,0.00034467,0.00000000,0.00000002,0.000000,0.000000,0.000000,0.000000,0.000000,0.000000,0.000000,0.000000,0.12402610,0.04395190,0.01192013,0.01981508,0.00462467,0.00000000,0.00000000,0.04371431,0.00366266,0.00596006,0.00792603,0.00924934,0.87428622,0.00000000,0.00000000
7.900,1,1,1,-531.653,190.803,49.659,36.955954,-0.926569,-0.926569,-37.882523,0.000000,0.571805,0.208175,1.498275,2.062648,1.275851,1.261226,2.982924,0.658901,2.795126,1.629876,17.356093,-16.432529,33.788623,0.923564,0.00036400,0.00000000,0.00036397,0.00000000,0.00000002,0.000000,0.000000,0.000000,0.000000,0.000000,0.000000,0.000000,0.000000,0.12628809,0.04477156,0.01246160,0.02013872,0.00463128,0.00000000,0.00000000,0.04428493,0.00373096,0.00623080,0.00805549,0.00926255,0.88569861,0.00000000,0.00000000
8.000,1,1,1,-531.641,190.818,49.647,36.697625,-0.944089,-0.944089,-37.641713,0.000000,0.562052,0.201501,1.564814,0.401070,1.382396,1.265580,2.995475,-0.529986,2.887843,1.654535,17.270783,-16.287029,33.557812,0.983753,0.00040944,0.00000000,0.00040942,0.00000000,0.00000002,0.000000,0.000000,0.000000,0.000000,0.000000,0.000000,0.000000,0.000000,0.12831015,0.04566674,0.01300833,0.02015097,0.00463556,0.00000000,0.00000000,0.04484855,0.00380556,0.00650416,0.00806039,0.00927111,0.89697092,0.00000000,0.00000000
8.100,1,1,1,-531.629,190.833,49.636,36.440377,-0.961508,-0.961508,-37.401885,0.000000,0.554820,0.196084,1.608349,-0.042972,1.469880,1.270497,2.969234,-0.974028,2.944271,1.677626,17.247450,-16.181489,33.428939,1.065960,0.00045157,0.00000000,0.00045154,0.00000000,0.00000002,0.000000,0.000000,0.000000,0.000000,0.000000,0.000000,0.000000,0.000000,0.13036658,0.04661224,0.01354541,0.02015111,0.00465000,0.00000000,0.00000000,0.04540781,0.00388435,0.00677270,0.00806044,0.00930001,0.90815630,0.00000000,0.00000000
8.200,1,1,1,-531.619,190.848,49.626,36.184248,-0.978872,-0.978872,-37.163120,0.000000,0.550279,0.191364,1.627362,-0.214859,1.536904,1.275574,2.905177,-0.802141,2.963605,1.698457,17.312590,-16.082912,33.395502,1.229678,0.00048936,0.00000000,0.00048934,0.00000000,0.00000002,0.000000,0.000000,0.000000,0.000000,0.000000,0.000000,0.000000,0.000000,0.13242071,0.04758039,0.01405965,0.02015463,0.00465981,0.00000000,0.00000000,0.04596625,0.00396503,0.00702982,0.00806185,0.00931961,0.91932492,0.00000000,0.00000000
8.300,1,1,1,-531.609,190.863,49.617,35.929275,-0.996192,-0.996192,-36.925467,0.000000,0.548561,0.184897,1.623226,-0.171887,1.582501,1.280441,2.804989,-1.604282,2.945727,1.716471,17.568594,-15.989029,33.557622,1.579565,0.00052187,0.00000000,0.00052185,0.00000000,0.00000002,0.000000,0.000000,0.000000,0.000000,0.000000,0.000000,0.000000,0.000000,0.13446873,0.04854343,0.01453894,0.02015688,0.00469900,0.00000000,0.00000000,0.04653049,0.00404529,0.00726947,0.00806275,0.00939800,0.93060973,0.00000000,0.00000000
8.400,1,1,1,-531.600,190.877,49.608,35.675493,-1.013474,-1.013474,-36.688967,0.000000,0.549757,0.180135,1.598288,0.429718,1.606094,1.284792,2.670666,-1.804817,2.891238,1.731279,17.871012,-15.910229,33.781241,1.960783,0.00054818,0.00000000,0.00054816,0.00000000,0.00000002,0.000000,0.000000,0.000000,0.000000,0.000000,0.000000,0.000000,0.000000,0.13647328,0.04947723,0.01497348,0.02017094,0.00474861,0.00000000,0.00000000,0.04710301,0.00412310,0.00748674,0.00806838,0.00949723,0.94206018,0.00000000,0.00000000
8.500,1,1,1,-531.592,190.892,49.600,35.443057,-1.030751,-1.030751,-36.473807,0.000000,0.553388,0.176504,1.557922,0.372423,1.608575,1.288425,2.518843,-2.392099,2.811896,1.742879,18.223109,-15.818511,34.041620,2.404599,0.00056791,0.00000000,0.00056789,0.00000000,0.00000002,0.000000,0.000000,0.000000,0.000000,0.000000,0.000000,0.000000,0.000000,0.13842578,0.05036387,0.01535976,0.02018150,0.00483571,0.00000000,0.00000000,0.04768494,0.00419699,0.00767988,0.00807260,0.00967142,0.95369876,0.00000000,0.00000000
8.600,1,1,1,-531.587,190.900,49.596,35.191511,-1.039757,-1.039757,-36.231268,0.000000,0.560245,0.171986,1.494519,0.888085,1.591045,1.291074,2.325556,-1.776169,2.691818,1.750964,18.740151,-15.728895,34.469045,3.011256,0.00057156,0.00000000,0.00057156,0.00000000,0.00000001,0.000000,0.000000,0.000000,0.000000,0.000000,0.000000,0.000000,0.000000,0.14028005,0.05118105,0.01568954,0.02024161,0.00488380,0.00000000,0.00000000,0.04828405,0.00426509,0.00784477,0.00809664,0.00976761,0.96568104,0.00000000,0.00000000
8.700,1,1,1,-531.580,190.915,49.588,34.941102,-1.057164,-1.057164,-35.998266,0.000000,0.569855,0.170310,1.410338,-0.529986,1.552946,1.292541,2.105905,-2.793169,2.540303,1.755558,19.245319,-15.581794,34.827112,3.663525,0.00057673,0.00000000,0.00057670,0.00000000,0.00000002,0.000000,0.000000,0.000000,0.000000,0.000000,0.000000,0.000000,0.000000,0.14203108,0.05190828,0.01595978,0.02026301,0.00500266,0.00000000,0.00000000,0.04889736,0.00432569,0.00797989,0.00810520,0.01000531,0.97794715,0.00000000,0.00000000
8.800,1,1,1,-531.573,190.930,49.581,34.691878,-1.074738,-1.074738,-35.766616,0.000000,0.582275,0.148823,1.307162,-0.945380,1.495045,1.292712,1.863683,-3.122620,2.360052,1.756853,20.676490,-15.468422,36.144912,5.208068,0.00057384,0.00000000,0.00057381,0.00000000,0.00000002,0.000000,0.000000,0.000000,0.000000,0.000000,0.000000,0.000000,0.000000,0.14375008,0.05253267,0.01617132,0.02033105,0.00515112,0.00000000,0.00000000,0.04956393,0.00437772,0.00808566,0.00813242,0.01030224,0.99127856,0.00000000,0.00000000
8.900,1,1,1,-531.566,190.945,49.575,34.443922,-1.092517,-1.092517,-35.536440,0.000000,0.597453,0.157479,1.187740,-0.816465,1.418143,1.291554,1.602897,-3.151268,2.154251,1.755160,20.947753,-15.371805,36.319559,5.575948,0.00056248,0.00000000,0.00056246,0.00000000,0.00000002,0.000000,0.000000,0.000000,0.000000,0.000000,0.000000,0.000000,0.000000,0.14529956,0.05304840,0.01632786,0.02038182,0.00530239,0.00000000,0.00000000,0.05023910,0.00442070,0.00816393,0.00815273,0.01060477,1.00478194,0.00000000,0.00000000
9.000,1,1,1,-531.559,190.961,49.568,34.197246,-1.110545,-1.110545,-35.307790,0.000000,0.615275,0.159314,1.055787,-1.819141,1.323478,1.289118,1.328160,-3.681254,1.926613,1.750894,21.618029,-15.239648,36.857677,6.378381,0.00054240,0.00000000,0.00054238,0.00000000,0.00000002,0.000000,0.000000,0.000000,0.000000,0.000000,0.000000,0.000000,0.000000,0.14697186,0.05345571,0.01643529,0.02063374,0.00550871,0.00000000,0.00000000,0.05093842,0.00445464,0.00821765,0.00825349,0.01101742,1.01876833,0.00000000,0.00000000
9.100,1,1,1,-531.552,190.976,49.561,33.981255,-1.128866,-1.128866,-35.110121,0.000000,0.624924,0.161658,0.929666,-0.515662,1.224636,1.285636,1.078909,-4.254212,1.706774,1.744780,21.926651,-15.196651,37.123302,6.730000,0.00054590,0.00000000,0.00054587,0.00000000,0.00000003,0.000000,0.000000,0.000000,0.000000,0.000000,0.000000,0.000000,0.000000,0.14836684,0.05377175,0.01650624,0.02065399,0.00578447,0.00000000,0.00000000,0.05165040,0.00448098,0.00825312,0.00826160,0.01156893,1.03300793,0.00000000,0.00000000
9.200,1,1,1,-531.544,190.992,49.554,33.737033,-1.147553,-1.147553,-34.884586,0.000000,0.628579,0.167328,0.775434,-0.429718,1.101530,1.281085,0.791624,-3.552338,1.450280,1.737066,21.859237,-15.095471,36.954708,6.763766,0.00056260,0.00000000,0.00056257,0.00000000,0.00000003,0.000000,0.000000,0.000000,0.000000,0.000000,0.000000,0.000000,0.000000,0.14953657,0.05399151,0.01654441,0.02066805,0.00597663,0.00000000,0.00000000,0.05235597,0.00449929,0.00827220,0.00826722,0.01195326,1.04711937,0.00000000,0.00000000
9.300,1,1,1,-531.537,191.009,49.547,33.494088,-1.166641,-1.166641,-34.660729,0.000000,0.632372,0.170398,0.611366,-1.360775,0.966705,1.275637,0.504751,-3.896113,1.186717,1.728306,21.922464,-14.963312,36.885776,6.959152,0.00057941,0.00000000,0.00057938,0.00000000,0.00000003,0.000000,0.000000,0.000000,0.000000,0.000000,0.000000,0.000000,0.000000,0.15076542,0.05412814,0.01655993,0.02080907,0.00620783,0.00000000,0.00000000,0.05306046,0.00451068,0.00827996,0.00832363,0.01241566,1.06120911,0.00000000,0.00000000
9.400,1,1,1,-531.529,191.025,49.539,33.252469,-1.186119,-1.186119,-34.438588,0.000000,0.636273,0.177845,0.440703,-1.489690,0.822656,1.269517,0.222815,-3.967733,0.923584,1.719043,21.820678,-14.858795,36.679473,6.961883,0.00059637,0.00000000,0.00059634,0.00000000,0.00000003,0.000000,0.000000,0.000000,0.000000,0.000000,0.000000,0.000000,0.000000,0.15194519,0.05419914,0.01656295,0.02097808,0.00644762,0.00000000,0.00000000,0.05375741,0.00451659,0.00828148,0.00839123,0.01289523,1.07514817,0.00000000,0.00000000
9.500,1,1,1,-531.520,191.042,49.531,33.031386,-1.205955,-1.205955,-34.237341,0.000000,0.639979,0.215343,0.281022,-0.744845,0.687367,1.263010,-0.028728,-3.051000,0.696417,1.709779,20.486683,-14.792895,35.279578,5.693788,0.00061353,0.00000000,0.00061350,0.00000000,0.00000003,0.000000,0.000000,0.000000,0.000000,0.000000,0.000000,0.000000,0.000000,0.15279662,0.05422800,0.01656300,0.02102032,0.00658939,0.00000000,0.00000000,0.05439591,0.00451900,0.00828150,0.00840813,0.01317877,1.08791812,0.00000000,0.00000000
9.600,1,1,1,-531.511,191.060,49.523,32.792384,-1.226103,-1.226103,-34.018487,0.000000,0.643988,0.206734,0.107207,-0.945380,0.534891,1.256322,-0.289621,-2.721550,0.476623,1.700923,21.111978,-14.685606,35.797584,6.426373,0.00063095,0.00000000,0.00063092,0.00000000,0.00000003,0.000000,0.000000,0.000000,0.000000,0.000000,0.000000,0.000000,0.000000,0.15364819,0.05423220,0.01656811,0.02108838,0.00670220,0.00000000,0.00000000,0.05505728,0.00451935,0.00828406,0.00843535,0.01340439,1.10114570,0.00000000,0.00000000
9.700,1,1,1,-531.502,191.077,49.513,32.554749,-1.246563,-1.246563,-33.801312,0.000000,0.647998,0.204217,-0.067428,-1.059972,0.388030,1.249710,-0.534063,-2.592634,0.351004,1.692832,21.467087,-14.582615,36.049701,6.884472,0.00064873,0.00000000,0.00064870,0.00000000,0.00000003,0.000000,0.000000,0.000000,0.000000,0.000000,0.000000,0.000000,0.000000,0.15452877,0.05423387,0.01658549,0.02117396,0.00680459,0.00000000,0.00000000,0.05573087,0.00451949,0.00829275,0.00846958,0.01360918,1.11461733,0.00000000,0.00000000
9.800,1,1,1,-531.491,191.095,49.504,32.318510,-1.267346,-1.267346,-33.585856,0.000000,0.651971,0.204162,-0.240672,-1.489690,0.267537,1.243427,-0.759338,-2.449395,0.399325,1.685775,21.711629,-14.471522,36.183152,7.240107,0.00066701,0.00000000,0.00066698,0.00000000,0.00000003,0.000000,0.000000,0.000000,0.000000,0.000000,0.000000,0.000000,0.000000,0.15552628,0.05425504,0.01662062,0.02134296,0.00689597,0.00000000,0.00000000,0.05641169,0.00452125,0.00831031,0.00853718,0.01379194,1.12823382,0.00000000,0.00000000
9.900,1,1,1,-531.480,191.113,49.493,32.083679,-1.288429,-1.288429,-33.372108,0.000000,0.655870,0.208220,-0.408938,-1.045648,0.227094,1.237697,-0.962180,-3.108296,0.561381,1.679905,21.780935,-14.389763,36.170697,7.391172,0.00068592,0.00000000,0.00068589,0.00000000,0.00000003,0.000000,0.000000,0.000000,0.000000,0.000000,0.000000,0.000000,0.000000,0.15655585,0.05431618,0.01667703,0.02142624,0.00704314,0.00000000,0.00000000,0.05709326,0.00452635,0.00833852,0.00857050,0.01408629,1.14186526,0.00000000,0.00000000
10.000,1,1,1,-531.469,191.131,49.482,31.850246,-1.309790,-1.309790,-33.160036,0.000000,0.659666,0.212622,-0.569082,-0.888085,0.299179,1.232708,-1.138952,-1.074296,0.750831,1.675268,21.834682,-14.299647,36.134329,7.535034,0.00070559,0.00000000,0.00070555,0.00000000,0.00000003,0.000000,0.000000,0.000000,0.000000,0.000000,0.000000,0.000000,0.000000,0.15751187,0.05443453,0.01675604,0.02148628,0.00706072,0.00000000,0.00000000,0.05777431,0.00453621,0.00837802,0.00859451,0.01412143,1.15548610,0.00000000,0.00000000
10.100,1,1,1,-531.456,191.149,49.469,31.618199,-1.331427,-1.331427,-32.949626,0.000000,0.663332,0.217670,-0.719739,-2.277507,0.425905,1.228597,-1.286229,-0.816465,0.935110,1.671791,21.859404,-14.163780,36.023184,7.695624,0.00072615,0.00000000,0.00072612,0.00000000,0.00000004,0.000000,0.000000,0.000000,0.000000,0.000000,0.000000,0.000000,0.000000,0.15888577,0.05462390,0.01685684,0.02188134,0.00707087,0.00000000,0.00000000,0.05845282,0.00455199,0.00842842,0.00875253,0.01414174,1.16905634,0.00000000,0.00000000
10.200,1,1,1,-531.443,191.168,49.456,31.387580,-1.353352,-1.353352,-32.740931,0.000000,0.666849,0.246944,-0.860366,-1.045648,0.566547,1.225463,-1.401445,-1.088620,1.101785,1.669305,20.883045,-14.113567,34.996612,6.769478,0.00074776,0.00000000,0.00074773,0.00000000,0.00000004,0.000000,0.000000,0.000000,0.000000,0.000000,0.000000,0.000000,0.000000,0.16001243,0.05489444,0.01697648,0.02196459,0.00708892,0.00000000,0.00000000,0.05908800,0.00457454,0.00848824,0.00878584,0.01417783,1.18176008,0.00000000,0.00000000
10.300,1,1,1,-531.428,191.187,49.443,31.185812,-1.375537,-1.375537,-32.561349,0.000000,0.669821,0.241815,-0.974413,-2.034000,0.693043,1.223230,-1.474840,-1.246183,1.231313,1.667491,21.333423,-14.008777,35.342199,7.324646,0.00077051,0.00000000,0.00077047,0.00000000,0.00000004,0.000000,0.000000,0.000000,0.000000,0.000000,0.000000,0.000000,0.000000,0.16148200,0.05524149,0.01710899,0.02227963,0.00711257,0.00000000,0.00000000,0.05973932,0.00460346,0.00855449,0.00891185,0.01422514,1.19478644,0.00000000,0.00000000
10.400,1,1,1,-531.413,191.206,49.428,30.957828,-1.397942,-1.397942,-32.355770,0.000000,0.673038,0.237581,-1.092093,-0.458366,0.828105,1.222012,-1.526062,-0.587282,1.348817,1.666161,21.740764,-13.971186,35.711950,7.769577,0.00079436,0.00000000,0.00079433,0.00000000,0.00000004,0.000000,0.000000,0.000000,0.000000,0.000000,0.000000,0.000000,0.000000,0.16274981,0.05567776,0.01725097,0.02229564,0.00711783,0.00000000,0.00000000,0.06040763,0.00463981,0.00862548,0.00891826,0.01423565,1.20815252,0.00000000,0.00000000
10.500,1,1,1,-531.397,191.225,49.412,30.731175,-1.420526,-1.420526,-32.151701,0.000000,0.676099,0.241673,-1.194490,-0.358099,0.954079,1.221748,-1.544041,-0.673225,1.436076,1.665019,21.786739,-13.886199,35.672938,7.900540,0.00081942,0.00000000,0.00081938,0.00000000,0.00000004,0.000000,0.000000,0.000000,0.000000,0.000000,0.000000,0.000000,0.000000,0.16410047,0.05619919,0.01739618,0.02230541,0.00712473,0.00000000,0.00000000,0.06107496,0.00468327,0.00869809,0.00892216,0.01424945,1.22149927,0.00000000,0.00000000
10.600,1,1,1,-531.380,191.244,49.396,30.505783,-1.443245,-1.443245,-31.949028,0.000000,0.679016,0.250510,-1.279565,-0.171887,1.068395,1.222317,-1.529770,0.773493,1.491897,1.663771,21.632318,-13.806370,35.438688,7.825948,0.00084566,0.00000000,0.00084562,0.00000000,0.00000004,0.000000,0.000000,0.000000,0.000000,0.000000,0.000000,0.000000,0.000000,0.16551126,0.05679760,0.01753873,0.02230765,0.00713384,0.00000000,0.00000000,0.06173344,0.00473313,0.00876936,0.00892306,0.01426768,1.23466880,0.00000000,0.00000000
10.700,1,1,1,-531.363,191.263,49.379,30.281637,-1.466081,-1.466081,-31.747718,0.000000,0.681810,0.250615,-1.347143,-0.028648,1.168977,1.223566,-1.483872,1.260507,1.515979,1.662149,21.839138,-13.727398,35.566536,8.111741,0.00087303,0.00000000,0.00087300,0.00000000,0.00000004,0.000000,0.000000,0.000000,0.000000,0.000000,0.000000,0.000000,0.000000,0.16699892,0.05746119,0.01767292,0.02230772,0.00715805,0.00000000,0.00000000,0.06239904,0.00478843,0.00883646,0.00892309,0.01431609,1.24798085,0.00000000,0.00000000
10.800,1,1,1,-531.344,191.283,49.361,30.058728,-1.489033,-1.489033,-31.547761,0.000000,0.680533,0.272779,-1.398070,-0.257831,1.254452,1.225328,-1.407109,0.802141,1.508681,1.659926,20.964065,-13.639127,34.603192,7.324938,0.00092426,0.00000000,0.00092422,0.00000000,0.00000004,0.000000,0.000000,0.000000,0.000000,0.000000,0.000000,0.000000,0.000000,0.16847415,0.05817556,0.01779352,0.02231278,0.00716784,0.00000000,0.00000000,0.06302445,0.00484796,0.00889676,0.00892511,0.01433569,1.26048901,0.00000000,0.00000000
10.900,1,1,1,-531.325,191.302,49.342,29.837024,-1.512063,-1.512063,-31.349087,0.000000,0.674409,0.273706,-1.431479,-0.071620,1.323814,1.227415,-1.300383,1.102944,1.470794,1.656928,20.791541,-13.566603,34.358145,7.224938,0.00100576,0.00000000,0.00100572,0.00000000,0.00000004,0.000000,0.000000,0.000000,0.000000,0.000000,0.000000,0.000000,0.000000,0.16996121,0.05892446,0.01789653,0.02231317,0.00718637,0.00000000,0.00000000,0.06364068,0.00491037,0.00894826,0.00892527,0.01437274,1.27281361,0.00000000,0.00000000
11.000,1,1,1,-531.304,191.321,49.322,29.616482,-1.535113,-1.535113,-31.151594,0.000000,0.670384,0.271213,-1.446726,0.716197,1.376395,1.229625,-1.165181,-0.128916,1.403278,1.653046,20.847554,-13.514194,34.361748,7.333360,0.00107783,0.00000000,0.00107779,0.00000000,0.00000004,0.000000,0.000000,0.000000,0.000000,0.000000,0.000000,0.000000,0.000000,0.17146565,0.05968959,0.01797924,0.02235223,0.00718662,0.00000000,0.00000000,0.06425797,0.00497413,0.00898962,0.00894089,0.01437324,1.28515936,0.00000000,0.00000000
11.100,1,1,1,-531.283,191.341,49.302,29.397040,-1.558128,-1.558128,-30.955168,0.000000,0.668540,0.279918,-1.443061,-0.042972,1.411793,1.231751,-1.004388,0.787817,1.307509,1.648255,20.526131,-13.414731,33.940862,7.111400,0.00113895,0.00000000,0.00113891,0.00000000,0.00000004,0.000000,0.000000,0.000000,0.000000,0.000000,0.000000,0.000000,0.000000,0.17289918,0.06045079,0.01804070,0.02235237,0.00719607,0.00000000,0.00000000,0.06485924,0.00503757,0.00902035,0.00894095,0.01439215,1.29718480,0.00000000,0.00000000
11.200,1,1,1,-531.262,191.360,49.280,29.178671,-1.581056,-1.581056,-30.759727,0.000000,0.668962,0.283441,-1.420393,1.905085,1.429594,1.233597,-0.821511,2.521014,1.185577,1.642613,20.517548,-13.402480,33.920028,7.115068,0.00118750,0.00000000,0.00118746,0.00000000,0.00000004,0.000000,0.000000,0.000000,0.000000,0.000000,0.000000,0.000000,0.000000,0.17465205,0.06118848,0.01808183,0.02262884,0.00729290,0.00000000,0.00000000,0.06546000,0.00509904,0.00904091,0.00905154,0.01458580,1.30920002,0.00000000,0.00000000
11.300,1,1,1,-531.239,191.379,49.259,28.961334,-1.603860,-1.603860,-30.565194,0.000000,0.671720,0.283650,-1.380127,1.475366,1.429466,1.234994,-0.620309,1.446718,1.040440,1.636258,20.737188,-13.314268,34.051457,7.422920,0.00122189,0.00000000,0.00122185,0.00000000,0.00000004,0.000000,0.000000,0.000000,0.000000,0.000000,0.000000,0.000000,0.000000,0.17617630,0.06188456,0.01810527,0.02279456,0.00732477,0.00000000,0.00000000,0.06606714,0.00515705,0.00905263,0.00911783,0.01464954,1.32134285,0.00000000,0.00000000
11.400,1,1,1,-531.216,191.398,49.236,28.744969,-1.626517,-1.626517,-30.371486,0.000000,0.676822,0.292138,-1.323610,1.303479,1.411563,1.235814,-0.404739,2.521014,0.876302,1.629386,20.701711,-13.237605,33.939316,7.464106,0.00124092,0.00000000,0.00124088,0.00000000,0.00000004,0.000000,0.000000,0.000000,0.000000,0.000000,0.000000,0.000000,0.000000,0.17765660,0.06252493,0.01811525,0.02292395,0.00742157,0.00000000,0.00000000,0.06667091,0.00521041,0.00905762,0.00916958,0.01484313,1.33341811,0.00000000,0.00000000
11.500,1,1,1,-531.193,191.416,49.213,28.546768,-1.648981,-1.648981,-30.195748,0.000000,0.683433,0.293986,-1.257442,0.487014,1.380615,1.236007,-0.196880,2.449395,0.717349,1.622266,21.000792,-13.151332,34.152125,7.849460,0.00124747,0.00000000,0.00124743,0.00000000,0.00000004,0.000000,0.000000,0.000000,0.000000,0.000000,0.000000,0.000000,0.000000,0.17896042,0.06310294,0.01811761,0.02294201,0.00751295,0.00000000,0.00000000,0.06728492,0.00525858,0.00905880,0.00917680,0.01502590,1.34569845,0.00000000,0.00000000
11.600,1,1,1,-531.169,191.435,49.190,28.332259,-1.671210,-1.671210,-30.003469,0.000000,0.692867,0.299415,-1.170480,1.790493,1.330396,1.235447,0.036250,0.859437,0.537915,1.615137,21.257765,-13.125871,34.383636,8.131895,0.00123472,0.00000000,0.00123468,0.00000000,0.00000004,0.000000,0.000000,0.000000,0.000000,0.000000,0.000000,0.000000,0.000000,0.18034117,0.06360384,0.01811769,0.02318620,0.00752420,0.00000000,0.00000000,0.06790924,0.00530032,0.00905884,0.00927448,0.01504840,1.35818476,0.00000000,0.00000000
11.700,1,1,1,-531.144,191.453,49.166,28.118677,-1.693178,-1.693178,-29.811855,0.000000,0.704458,0.301190,-1.068716,0.673225,1.264344,1.234094,0.273584,2.821817,0.378426,1.608303,21.746469,-13.024193,34.770662,8.722277,0.00120447,0.00000000,0.00120443,0.00000000,0.00000004,0.000000,0.000000,0.000000,0.000000,0.000000,0.000000,0.000000,0.000000,0.18156135,0.06402127,0.01812225,0.02322071,0.00764546,0.00000000,0.00000000,0.06855166,0.00533511,0.00906112,0.00928829,0.01529091,1.37103317,0.00000000,0.00000000
