t,controller_id,state_code,wp_idx,x,y,dist,yaw_deg,yaw_to_wp_deg,yaw_ref_deg,yaw_err_deg,yaw_rate_deg_s,speed_ref,speed_meas,roll_deg,roll_rate_deg_s,roll_rms_window_deg,roll_rms_total_deg,pitch_deg,pitch_rate_deg_s,pitch_rms_window_deg,pitch_rms_total_deg,base_cmd,diff_cmd,T_left,T_right,J_inst,J_goal,J_wave_roll,J_progress,J_smooth,J_mpc_distance,J_mpc_final,J_mpc_heading,J_mpc_wrong_way,J_mpc_pitch,J_mpc_control,J_mpc_slew,J_mpc_turn,J_total,J_roll,J_pitch,J_roll_rate,J_pitch_rate,J_goal_heading,J_no_progress,J_control,I_roll,I_pitch,I_roll_rate,I_pitch_rate,I_control,I_no_progress,I_goal_heading
0.600,1,1,1,-532.008,189.985,50.008,56.471824,0.017181,0.017181,-56.454643,0.000000,0.400105,0.000000,-0.329582,0.716197,0.334612,0.000000,0.427895,-1.360775,0.480017,0.000000,0.000000,-5.000000,5.000000,-5.000000,0.00000006,0.00000000,0.00000003,0.00000000,0.00000002,0.000000,0.000000,0.000000,0.000000,0.000000,0.000000,0.000000,0.000000,0.00000000,0.00000000,0.00000000,0.00000000,0.00000000,0.00000000,0.00000000,0.00000000,0.00000000,0.00000000,0.00000000,0.00000000,0.00000000,0.00000000,0.00000000
0.701,1,1,1,-532.008,189.985,50.008,56.471824,0.017181,0.017181,-56.454643,0.000000,0.400105,0.000000,-0.329582,0.716197,0.334612,0.329582,0.427895,-1.360775,0.480017,0.427895,0.000000,-10.000000,10.000000,-10.000000,0.00000003,0.00000000,0.00000003,0.00000000,0.00000000,0.000000,0.000000,0.000000,0.000000,0.000000,0.000000,0.000000,0.000000,0.00022007,0.00004006,0.00001125,0.00003941,0.00002845,0.00000000,0.00000000,0.00010089,0.00000334,0.00000563,0.00001576,0.00005691,0.00201785,0.00000000,0.00000000
0.800,1,1,1,-532.015,189.971,50.015,56.355878,0.033593,0.033593,-56.322286,0.000000,0.403116,0.027574,-0.327454,0.300803,0.331027,0.328527,0.115320,-0.229183,0.370087,0.314395,1.557146,-13.442854,15.000000,-11.885707,0.00000014,0.00000000,0.00000012,0.00000000,0.00000002,0.000000,0.000000,0.000000,0.000000,0.000000,0.000000,0.000000,0.000000,0.00044944,0.00007901,0.00001206,0.00004626,0.00002925,0.00000000,0.00000000,0.00028286,0.00000658,0.00000603,0.00001850,0.00005850,0.00565728,0.00000000,0.00000000
0.900,1,1,1,-532.018,189.965,50.018,56.275140,0.040213,0.040213,-56.234927,0.000000,0.405765,0.043864,-0.311982,0.859437,0.328662,0.323120,0.119076,1.174563,0.329147,0.265886,3.833582,-16.166418,20.000000,-12.332835,0.00000018,0.00000000,0.00000018,0.00000000,0.00000000,0.000000,0.000000,0.000000,0.000000,0.000000,0.000000,0.000000,0.000000,0.00083819,0.00011449,0.00001292,0.00010236,0.00005021,0.00000000,0.00000000,0.00055820,0.00000954,0.00000646,0.00004095,0.00010042,0.01116408,0.00000000,0.00000000
1.000,1,1,1,-532.020,189.961,50.020,56.174128,0.044494,0.044494,-56.129634,0.000000,0.408574,0.041837,-0.278191,1.647254,0.319704,0.312494,0.241261,2.592634,0.254141,0.259948,6.510858,-18.489142,25.000000,-11.978284,0.00000021,0.00000000,0.00000021,0.00000000,0.00000000,0.000000,0.000000,0.000000,0.000000,0.000000,0.000000,0.000000,0.000000,0.00156335,0.00014279,0.00001647,0.00030902,0.00015260,0.00000000,0.00000000,0.00094248,0.00001190,0.00000823,0.00012361,0.00030519,0.01884952,0.00000000,0.00000000
1.100,1,1,1,-532.021,189.958,50.021,56.051185,0.047646,0.047646,-56.003539,0.000000,0.411495,0.035890,-0.237128,1.145916,0.304251,0.298929,0.377069,1.704549,0.221576,0.287247,9.298881,-20.701119,30.000000,-11.402238,0.00000024,0.00000000,0.00000024,0.00000000,0.00000000,0.000000,0.000000,0.000000,0.000000,0.000000,0.000000,0.000000,0.000000,0.00225278,0.00016337,0.00002514,0.00040916,0.00019691,0.00000000,0.00000000,0.00145820,0.00001361,0.00001257,0.00016366,0.00039382,0.02916396,0.00000000,0.00000000
1.200,1,1,1,-532.022,189.955,50.022,55.905252,0.051043,0.051043,-55.854209,0.000000,0.414672,0.034511,-0.199902,0.587282,0.280988,0.284822,0.447796,1.088620,0.274135,0.319662,12.002050,-22.997950,35.000000,-10.995901,0.00000026,0.00000000,0.00000026,0.00000000,0.00000000,0.000000,0.000000,0.000000,0.000000,0.000000,0.000000,0.000000,0.000000,0.00299730,0.00017799,0.00003737,0.00043544,0.00021497,0.00000000,0.00000000,0.00213154,0.00001483,0.00001868,0.00017418,0.00042994,0.04263081,0.00000000,0.00000000
1.300,1,1,1,-532.024,189.952,50.024,55.735208,0.055017,0.055017,-55.680191,0.000000,0.418014,0.030624,-0.165262,1.059972,0.250112,0.270993,0.452883,0.701873,0.343281,0.341884,14.405562,-24.906196,39.311758,-10.500635,0.00000029,0.00000000,0.00000029,0.00000000,0.00000000,0.000000,0.000000,0.000000,0.000000,0.000000,0.000000,0.000000,0.000000,0.00394089,0.00018797,0.00004986,0.00052102,0.00022247,0.00000000,0.00000000,0.00295956,0.00001566,0.00002493,0.00020841,0.00044495,0.05919114,0.00000000,0.00000000
1.400,1,1,1,-532.025,189.949,50.025,55.540470,0.058850,0.058850,-55.481620,0.000000,0.421776,0.034668,-0.122893,0.802141,0.213978,0.257194,0.445125,0.057296,0.398093,0.356422,14.346465,-24.632604,38.979070,-10.286139,0.00000031,0.00000000,0.00000031,0.00000000,0.00000000,0.000000,0.000000,0.000000,0.000000,0.000000,0.000000,0.000000,0.000000,0.00481992,0.00019349,0.00006193,0.00057001,0.00022252,0.00000000,0.00000000,0.00377196,0.00001612,0.00003097,0.00022800,0.00044505,0.07543925,0.00000000,0.00000000
1.500,1,1,1,-532.027,189.946,50.027,55.322284,0.061641,0.061641,-55.260643,0.000000,0.426107,0.031344,-0.067564,0.214859,0.175651,0.243539,0.466048,1.217535,0.435853,0.370199,14.639738,-24.363404,39.003142,-9.723666,0.00000033,0.00000000,0.00000032,0.00000000,0.00000000,0.000000,0.000000,0.000000,0.000000,0.000000,0.000000,0.000000,0.000000,0.00566833,0.00019516,0.00007516,0.00057352,0.00024509,0.00000000,0.00000000,0.00457940,0.00001626,0.00003758,0.00022941,0.00049018,0.09158802,0.00000000,0.00000000
1.600,1,1,1,-532.027,189.945,50.027,55.083847,0.063138,0.063138,-55.020709,0.000000,0.430915,0.023618,-0.007378,0.759169,0.137377,0.231064,0.513093,1.203211,0.459620,0.386857,15.144745,-24.141929,39.286674,-8.997184,0.00000032,0.00000000,0.00000032,0.00000000,0.00000000,0.000000,0.000000,0.000000,0.000000,0.000000,0.000000,0.000000,0.000000,0.00656180,0.00019518,0.00009118,0.00061738,0.00026712,0.00000000,0.00000000,0.00539094,0.00001626,0.00004559,0.00024695,0.00053424,0.10781880,0.00000000,0.00000000
1.700,1,1,1,-532.028,189.944,50.028,54.827970,0.063565,0.063565,-54.764405,0.000000,0.435953,0.014933,0.047230,2.277507,0.101576,0.220775,0.564336,0.744845,0.481892,0.406200,15.701766,-23.957782,39.659548,-8.256016,0.00000031,0.00000000,0.00000031,0.00000000,0.00000000,0.000000,0.000000,0.000000,0.000000,0.000000,0.000000,0.000000,0.000000,0.00780551,0.00019599,0.00011058,0.00101224,0.00027557,0.00000000,0.00000000,0.00621113,0.00001633,0.00005529,0.00040490,0.00055114,0.12422269,0.00000000,0.00000000
1.800,1,1,1,-532.028,189.945,50.028,54.557038,0.063101,0.063101,-54.493937,0.000000,0.440978,0.010358,0.095073,0.687549,0.075348,0.213154,0.615213,0.931056,0.514650,0.427530,16.090374,-23.683032,39.773406,-7.592659,0.00000029,0.00000000,0.00000029,0.00000000,0.00000000,0.000000,0.000000,0.000000,0.000000,0.000000,0.000000,0.000000,0.000000,0.00870049,0.00019930,0.00013363,0.00104822,0.00028877,0.00000000,0.00000000,0.00703058,0.00001661,0.00006681,0.00041929,0.00057753,0.14061151,0.00000000,0.00000000
1.900,1,1,1,-532.027,189.946,50.027,54.273186,0.061638,0.061638,-54.211548,0.000000,0.445876,0.011937,0.143290,0.572958,0.076164,0.208616,0.681633,1.403747,0.560889,0.452154,16.226886,-23.466859,39.693744,-7.239973,0.00000027,0.00000000,0.00000027,0.00000000,0.00000000,0.000000,0.000000,0.000000,0.000000,0.000000,0.000000,0.000000,0.000000,0.00960444,0.00020679,0.00016191,0.00107320,0.00031875,0.00000000,0.00000000,0.00784379,0.00001723,0.00008095,0.00042928,0.00063750,0.15687589,0.00000000,0.00000000
2.000,1,1,1,-532.026,189.948,50.026,53.978352,0.059026,0.059026,-53.919326,0.000000,0.450578,0.012004,0.196695,0.458366,0.107327,0.207786,0.771832,1.747521,0.619970,0.482105,16.430953,-23.259385,39.690338,-6.828433,0.00000024,0.00000000,0.00000024,0.00000000,0.00000000,0.000000,0.000000,0.000000,0.000000,0.000000,0.000000,0.000000,0.000000,0.01052949,0.00022095,0.00019824,0.00108922,0.00036532,0.00000000,0.00000000,0.00865575,0.00001841,0.00009912,0.00043569,0.00073064,0.17311505,0.00000000,0.00000000
2.100,1,1,1,-532.024,189.952,50.024,53.698834,0.055437,0.055437,-53.643397,0.000000,0.454677,0.022520,0.246623,0.759169,0.146961,0.210599,0.858750,0.644578,0.683000,0.515854,16.188904,-23.083336,39.272240,-6.894432,0.00000021,0.00000000,0.00000021,0.00000000,0.00000000,0.000000,0.000000,0.000000,0.000000,0.000000,0.000000,0.000000,0.000000,0.01144213,0.00024319,0.00024319,0.00113313,0.00037165,0.00000000,0.00000000,0.00945097,0.00002027,0.00012159,0.00045325,0.00074330,0.18901950,0.00000000,0.00000000
2.200,1,1,1,-532.022,189.955,50.022,53.425109,0.051345,0.051345,-53.373764,0.000000,0.458331,0.029475,0.289057,0.229183,0.189474,0.216337,0.920593,0.572958,0.751161,0.549941,16.095934,-22.892779,38.988713,-6.796845,0.00000019,0.00000000,0.00000018,0.00000000,0.00000000,0.000000,0.000000,0.000000,0.000000,0.000000,0.000000,0.000000,0.000000,0.01231631,0.00027373,0.00029481,0.00113713,0.00037665,0.00000000,0.00000000,0.01023400,0.00002281,0.00014741,0.00045485,0.00075330,0.20467993,0.00000000,0.00000000
2.300,1,1,1,-532.021,189.959,50.021,53.107584,0.047121,0.047121,-53.060463,0.000000,0.461012,0.033186,0.327544,0.386747,0.236001,0.224400,0.951087,0.143239,0.823894,0.581217,16.109063,-22.711463,38.820526,-6.602399,0.00000018,0.00000000,0.00000017,0.00000000,0.00000000,0.000000,0.000000,0.000000,0.000000,0.000000,0.000000,0.000000,0.000000,0.01319658,0.00031290,0.00034985,0.00114850,0.00037696,0.00000000,0.00000000,0.01100836,0.00002608,0.00017493,0.00045940,0.00075392,0.22016717,0.00000000,0.00000000
2.400,1,1,1,-532.019,189.963,50.019,52.810308,0.042694,0.042694,-52.767614,0.000000,0.462487,0.035666,0.356442,0.143239,0.275221,0.233703,0.953879,0.114592,0.878281,0.607949,16.130625,-22.533949,38.664574,-6.403324,0.00000017,0.00000000,0.00000017,0.00000000,0.00000000,0.000000,0.000000,0.000000,0.000000,0.000000,0.000000,0.000000,0.000000,0.01406835,0.00035935,0.00040530,0.00115006,0.00037716,0.00000000,0.00000000,0.01177648,0.00002995,0.00020265,0.00046003,0.00075432,0.23552952,0.00000000,0.00000000
2.500,1,1,1,-532.017,189.967,50.017,52.482519,0.037625,0.037625,-52.444894,0.000000,0.464509,0.039644,0.385669,0.830789,0.314669,0.244073,0.961073,0.214859,0.921764,0.631480,16.118745,-22.377801,38.496547,-6.259056,0.00000015,0.00000000,0.00000015,0.00000000,0.00000000,0.000000,0.000000,0.000000,0.000000,0.000000,0.000000,0.000000,0.000000,0.01499291,0.00041373,0.00046157,0.00120263,0.00037786,0.00000000,0.00000000,0.01253712,0.00003448,0.00023079,0.00048105,0.00075573,0.25074231,0.00000000,0.00000000
2.600,1,1,1,-532.015,189.972,50.015,52.150732,0.031532,0.031532,-52.119200,0.000000,0.467037,0.050790,0.412990,0.214859,0.349404,0.255186,0.995145,0.959704,0.950526,0.654475,15.838000,-22.184413,38.022412,-6.346413,0.00000012,0.00000000,0.00000012,0.00000000,0.00000000,0.000000,0.000000,0.000000,0.000000,0.000000,0.000000,0.000000,0.000000,0.01587588,0.00047606,0.00052189,0.00120615,0.00039189,0.00000000,0.00000000,0.01327990,0.00003967,0.00026095,0.00048246,0.00078378,0.26559803,0.00000000,0.00000000
2.700,1,1,1,-532.012,189.979,50.012,51.815695,0.024452,0.024452,-51.791243,0.000000,0.469961,0.058062,0.433620,0.529986,0.379335,0.266406,1.049388,0.444042,0.974517,0.678512,15.745673,-22.024909,37.770582,-6.279236,0.00000008,0.00000000,0.00000008,0.00000000,0.00000000,0.000000,0.000000,0.000000,0.000000,0.000000,0.000000,0.000000,0.000000,0.01676906,0.00054478,0.00058898,0.00122754,0.00039489,0.00000000,0.00000000,0.01401287,0.00004540,0.00029449,0.00049101,0.00078978,0.28025745,0.00000000,0.00000000
2.800,1,1,1,-532.009,189.985,50.009,51.478032,0.016783,0.016783,-51.461248,0.000000,0.473203,0.064805,0.443242,0.415394,0.404046,0.276906,1.097136,1.017000,1.003555,0.702971,15.692763,-21.853914,37.546677,-6.161151,0.00000004,0.00000000,0.00000004,0.00000000,0.00000000,0.000000,0.000000,0.000000,0.000000,0.000000,0.000000,0.000000,0.000000,0.01766698,0.00061660,0.00066231,0.00124068,0.00041064,0.00000000,0.00000000,0.01473674,0.00005138,0.00033116,0.00049627,0.00082129,0.29473487,0.00000000,0.00000000
2.900,1,1,1,-532.006,189.992,50.006,51.138266,0.008926,0.008926,-51.129341,0.000000,0.476832,0.068928,0.442966,0.085944,0.422591,0.286137,1.117633,0.644578,1.038761,0.725941,15.766147,-21.679025,37.445171,-5.912878,0.00000002,0.00000000,0.00000001,0.00000000,0.00000000,0.000000,0.000000,0.000000,0.000000,0.000000,0.000000,0.000000,0.000000,0.01854019,0.00068832,0.00073841,0.00124124,0.00041697,0.00000000,0.00000000,0.01545525,0.00005736,0.00036920,0.00049650,0.00083394,0.30910497,0.00000000,0.00000000
3.000,1,1,1,-532.003,189.999,50.003,50.796904,0.000999,0.000999,-50.795906,0.000000,0.481029,0.071155,0.436990,0.243507,0.434007,0.293972,1.110576,-0.143239,1.072140,0.745938,15.939205,-21.522438,37.461642,-5.583233,0.00000000,0.00000000,0.00000000,0.00000000,0.00000000,0.000000,0.000000,0.000000,0.000000,0.000000,0.000000,0.000000,0.000000,0.01940721,0.00075812,0.00081355,0.00124575,0.00041728,0.00000000,0.00000000,0.01617250,0.00006318,0.00040677,0.00049830,0.00083457,0.32345002,0.00000000,0.00000000
3.100,1,1,1,-532.000,190.006,50.000,50.454400,-0.007155,-0.007155,-50.461556,0.000000,0.485949,0.073416,0.427244,0.472690,0.437954,0.300441,1.089514,0.257831,1.094038,0.762661,16.136272,-21.370120,37.506391,-5.233848,0.00000001,0.00000000,0.00000001,0.00000000,0.00000001,0.000000,0.000000,0.000000,0.000000,0.000000,0.000000,0.000000,0.000000,0.02028143,0.00082485,0.00088587,0.00126277,0.00041830,0.00000000,0.00000000,0.01688964,0.00006874,0.00044294,0.00050511,0.00083659,0.33779271,0.00000000,0.00000000
3.200,1,1,1,-531.997,190.014,49.997,50.111131,-0.015740,-0.015740,-50.126871,0.000000,0.491637,0.077026,0.411531,0.587282,0.434833,0.305462,1.065455,0.057296,1.099478,0.776496,16.305107,-21.215916,37.521023,-4.910809,0.00000004,0.00000000,0.00000004,0.00000000,0.00000001,0.000000,0.000000,0.000000,0.000000,0.000000,0.000000,0.000000,0.000000,0.02115489,0.00088677,0.00095504,0.00128904,0.00041835,0.00000000,0.00000000,0.01760569,0.00007390,0.00047752,0.00051562,0.00083669,0.35211386,0.00000000,0.00000000
3.300,1,1,1,-531.994,190.022,49.994,49.767408,-0.024812,-0.024812,-49.792220,0.000000,0.498049,0.085561,0.386991,-0.214859,0.425286,0.308866,1.038811,0.429718,1.089465,0.787769,16.298182,-21.035235,37.333417,-4.737054,0.00000009,0.00000000,0.00000009,0.00000000,0.00000001,0.000000,0.000000,0.000000,0.000000,0.000000,0.000000,0.000000,0.000000,0.02198967,0.00094150,0.00102077,0.00129256,0.00042116,0.00000000,0.00000000,0.01831368,0.00007846,0.00051039,0.00051702,0.00084232,0.36627361,0.00000000,0.00000000
3.400,1,1,1,-531.990,190.030,49.990,49.423521,-0.034289,-0.034289,-49.457810,0.000000,0.505127,0.087272,0.354021,0.085944,0.409566,0.310591,1.005130,-0.272155,1.068484,0.796553,16.602877,-20.892105,37.494982,-4.289228,0.00000017,0.00000000,0.00000016,0.00000000,0.00000001,0.000000,0.000000,0.000000,0.000000,0.000000,0.000000,0.000000,0.000000,0.02281079,0.00098731,0.00108232,0.00129312,0.00042229,0.00000000,0.00000000,0.01902576,0.00008228,0.00054116,0.00051725,0.00084457,0.38051514,0.00000000,0.00000000
3.500,1,1,1,-531.987,190.038,49.987,49.079724,-0.044103,-0.044103,-49.123827,0.000000,0.512852,0.088741,0.315538,0.257831,0.387487,0.310763,0.963752,0.243507,1.040699,0.802899,16.937539,-20.745762,37.683301,-3.808223,0.00000026,0.00000000,0.00000025,0.00000000,0.00000001,0.000000,0.000000,0.000000,0.000000,0.000000,0.000000,0.000000,0.000000,0.02362700,0.00102371,0.00113890,0.00129818,0.00042319,0.00000000,0.00000000,0.01974302,0.00008531,0.00056945,0.00051927,0.00084638,0.39486037,0.00000000,0.00000000
3.600,1,1,1,-531.983,190.047,49.983,48.736225,-0.054277,-0.054277,-48.790502,0.000000,0.521222,0.092635,0.274176,0.701873,0.358998,0.309613,0.918764,1.031324,1.007950,0.807029,17.192729,-20.609194,37.801923,-3.416465,0.00000036,0.00000000,0.00000035,0.00000000,0.00000001,0.000000,0.000000,0.000000,0.000000,0.000000,0.000000,0.000000,0.000000,0.02447996,0.00105119,0.00119033,0.00133570,0.00043939,0.00000000,0.00000000,0.02046335,0.00008760,0.00059517,0.00053428,0.00087878,0.40926704,0.00000000,0.00000000
3.700,1,1,1,-531.979,190.057,49.979,48.393190,-0.064853,-0.064853,-48.458044,0.000000,0.530199,0.097242,0.230002,0.572958,0.324723,0.307367,0.872811,0.286479,0.970505,0.809235,17.440972,-20.455850,37.896822,-3.014878,0.00000046,0.00000000,0.00000045,0.00000000,0.00000001,0.000000,0.000000,0.000000,0.000000,0.000000,0.000000,0.000000,0.000000,0.02529471,0.00107053,0.00123675,0.00136070,0.00044064,0.00000000,0.00000000,0.02118609,0.00008921,0.00061838,0.00054428,0.00088128,0.42372185,0.00000000,0.00000000
3.800,1,1,1,-531.975,190.066,49.975,48.050772,-0.075801,-0.075801,-48.126574,0.000000,0.537843,0.101418,0.181544,-1.647254,0.285870,0.304223,0.822378,0.128916,0.928400,0.809649,17.650307,-20.240735,37.891042,-2.590428,0.00000060,0.00000000,0.00000059,0.00000000,0.00000001,0.000000,0.000000,0.000000,0.000000,0.000000,0.000000,0.000000,0.000000,0.02627611,0.00108258,0.00127796,0.00156735,0.00044089,0.00000000,0.00000000,0.02190734,0.00009021,0.00063898,0.00062694,0.00088179,0.43814678,0.00000000,0.00000000
3.900,1,1,1,-531.971,190.076,49.971,47.709173,-0.087022,-0.087022,-47.796195,0.000000,0.544342,0.104892,0.128708,-0.300803,0.243691,0.300416,0.761172,-0.114592,0.881543,0.808223,17.841242,-20.141879,37.983121,-2.300637,0.00000078,0.00000000,0.00000077,0.00000000,0.00000001,0.000000,0.000000,0.000000,0.000000,0.000000,0.000000,0.000000,0.000000,0.02704841,0.00108863,0.00131325,0.00157424,0.00044109,0.00000000,0.00000000,0.02263121,0.00009072,0.00065662,0.00062969,0.00088219,0.45262410,0.00000000,0.00000000
4.000,1,1,1,-531.966,190.086,49.966,47.368518,-0.098446,-0.098446,-47.466964,0.000000,0.550977,0.110463,0.073633,0.014324,0.199272,0.296233,0.687713,-0.085944,0.829184,0.804936,17.951963,-20.008465,37.960427,-2.056502,0.00000098,0.00000000,0.00000097,0.00000000,0.00000001,0.000000,0.000000,0.000000,0.000000,0.000000,0.000000,0.000000,0.000000,0.02780203,0.00109061,0.00134206,0.00157425,0.00044121,0.00000000,0.00000000,0.02335389,0.00009088,0.00067103,0.00062970,0.00088241,0.46707787,0.00000000,0.00000000
4.100,1,1,1,-531.961,190.096,49.961,47.069568,-0.110116,-0.110116,-47.179683,0.000000,0.556558,0.112784,0.025259,-0.358099,0.158422,0.291997,0.617963,-0.300803,0.776458,0.800195,18.156162,-19.875401,38.031563,-1.719240,0.00000120,0.00000000,0.00000119,0.00000000,0.00000001,0.000000,0.000000,0.000000,0.000000,0.000000,0.000000,0.000000,0.000000,0.02856219,0.00109084,0.00136535,0.00158403,0.00044259,0.00000000,0.00000000,0.02407937,0.00009090,0.00068268,0.00063361,0.00088517,0.48158748,0.00000000,0.00000000
4.200,1,1,1,-531.956,190.107,49.956,46.730852,-0.122154,-0.122154,-46.853006,0.000000,0.562546,0.116028,-0.028818,0.759169,0.114449,0.287955,0.541748,-0.372423,0.711353,0.794155,18.338759,-19.769494,38.108253,-1.430735,0.00000146,0.00000000,0.00000145,0.00000000,0.00000001,0.000000,0.000000,0.000000,0.000000,0.000000,0.000000,0.000000,0.000000,0.02935319,0.00109115,0.00138323,0.00162790,0.00044470,0.00000000,0.00000000,0.02480622,0.00009093,0.00069161,0.00065116,0.00088940,0.49612438,0.00000000,0.00000000
4.300,1,1,1,-531.951,190.117,49.951,46.393240,-0.134646,-0.134646,-46.527886,0.000000,0.568518,0.119391,-0.082214,0.615930,0.079477,0.284358,0.474374,-0.615930,0.641096,0.787221,18.516350,-19.623677,38.140028,-1.107327,0.00000175,0.00000000,0.00000173,0.00000000,0.00000001,0.000000,0.000000,0.000000,0.000000,0.000000,0.000000,0.000000,0.000000,0.03013207,0.00109362,0.00139694,0.00165680,0.00045048,0.00000000,0.00000000,0.02553424,0.00009113,0.00069847,0.00066272,0.00090095,0.51068487,0.00000000,0.00000000
4.400,1,1,1,-531.945,190.129,49.945,46.056773,-0.147559,-0.147559,-46.204332,0.000000,0.574445,0.123277,-0.134983,0.300803,0.072318,0.281445,0.414393,-0.243507,0.569338,0.779697,18.671230,-19.474966,38.146196,-0.803736,0.00000207,0.00000000,0.00000206,0.00000000,0.00000001,0.000000,0.000000,0.000000,0.000000,0.000000,0.000000,0.000000,0.000000,0.03088489,0.00110028,0.00140740,0.00166369,0.00045138,0.00000000,0.00000000,0.02626215,0.00009169,0.00070370,0.00066547,0.00090276,0.52524292,0.00000000,0.00000000
4.500,1,1,1,-531.938,190.140,49.938,45.721526,-0.160785,-0.160785,-45.882311,0.000000,0.580299,0.127905,-0.185935,0.214859,0.099314,0.279404,0.356314,-0.329451,0.500064,0.771748,18.793933,-19.335908,38.129840,-0.541975,0.00000243,0.00000000,0.00000242,0.00000000,0.00000001,0.000000,0.000000,0.000000,0.000000,0.000000,0.000000,0.000000,0.000000,0.03163750,0.00111292,0.00141514,0.00166720,0.00045303,0.00000000,0.00000000,0.02698921,0.00009274,0.00070757,0.00066688,0.00090607,0.53978421,0.00000000,0.00000000
4.600,1,1,1,-531.931,190.152,49.932,45.387559,-0.174238,-0.174238,-45.561796,0.000000,0.586060,0.131941,-0.233336,-0.916732,0.140740,0.278345,0.296871,-0.529986,0.435443,0.763484,18.939290,-19.166833,38.106123,-0.227543,0.00000283,0.00000000,0.00000282,0.00000000,0.00000001,0.000000,0.000000,0.000000,0.000000,0.000000,0.000000,0.000000,0.000000,0.03245713,0.00113282,0.00142050,0.00173120,0.00045731,0.00000000,0.00000000,0.02771529,0.00009440,0.00071025,0.00069248,0.00091462,0.55430577,0.00000000,0.00000000
4.700,1,1,1,-531.924,190.164,49.925,45.054949,-0.187919,-0.187919,-45.242868,0.000000,0.591712,0.135806,-0.276353,-0.429718,0.185290,0.278297,0.237927,0.630254,0.375156,0.755029,19.088397,-19.051827,38.140224,0.036570,0.00000328,0.00000000,0.00000327,0.00000000,0.00000001,0.000000,0.000000,0.000000,0.000000,0.000000,0.000000,0.000000,0.000000,0.03323615,0.00116074,0.00142395,0.00174527,0.00046336,0.00000000,0.00000000,0.02844282,0.00009673,0.00071198,0.00069811,0.00092672,0.56885635,0.00000000,0.00000000
4.800,1,1,1,-531.917,190.176,49.917,44.723742,-0.201893,-0.201893,-44.925636,0.000000,0.597245,0.138918,-0.315444,0.200535,0.229148,0.279238,0.184169,0.544310,0.317774,0.746530,19.264533,-18.940868,38.205400,0.323665,0.00000378,0.00000000,0.00000377,0.00000000,0.00000001,0.000000,0.000000,0.000000,0.000000,0.000000,0.000000,0.000000,0.000000,0.03401178,0.00119710,0.00142602,0.00174833,0.00046787,0.00000000,0.00000000,0.02917245,0.00009976,0.00071301,0.00069933,0.00093575,0.58344899,0.00000000,0.00000000
4.900,1,1,1,-531.909,190.188,49.909,44.393917,-0.216179,-0.216179,-44.610096,0.000000,0.602658,0.142974,-0.349372,0.229183,0.270509,0.281068,0.138994,0.243507,0.262634,0.738101,19.396899,-18.811292,38.208191,0.585606,0.00000435,0.00000000,0.00000434,0.00000000,0.00000002,0.000000,0.000000,0.000000,0.000000,0.000000,0.000000,0.000000,0.000000,0.03479271,0.00124173,0.00142720,0.00175233,0.00046878,0.00000000,0.00000000,0.02990267,0.00010348,0.00071360,0.00070093,0.00093755,0.59805350,0.00000000,0.00000000
5.000,1,1,1,-531.900,190.201,49.901,44.065470,-0.230761,-0.230761,-44.296231,0.000000,0.605334,0.147476,-0.377337,0.787817,0.308091,0.283619,0.102928,0.100268,0.210682,0.729831,19.399539,-18.699597,38.099137,0.699942,0.00000547,0.00000000,0.00000545,0.00000000,0.00000002,0.000000,0.000000,0.000000,0.000000,0.000000,0.000000,0.000000,0.000000,0.03561885,0.00129378,0.00142784,0.00179960,0.00046893,0.00000000,0.00000000,0.03062870,0.00010781,0.00071392,0.00071984,0.00093786,0.61257397,0.00000000,0.00000000
5.100,1,1,1,-531.891,190.214,49.891,43.738407,-0.245614,-0.245614,-43.984021,0.000000,0.607524,0.151566,-0.399420,0.372423,0.341108,0.286702,0.075345,1.059972,0.163985,0.721760,19.404170,-18.558358,37.962528,0.845813,0.00000685,0.00000000,0.00000684,0.00000000,0.00000002,0.000000,0.000000,0.000000,0.000000,0.000000,0.000000,0.000000,0.000000,0.03642640,0.00135211,0.00142819,0.00181016,0.00048605,0.00000000,0.00000000,0.03134989,0.00011268,0.00071409,0.00072407,0.00097210,0.62699771,0.00000000,0.00000000
5.201,1,1,1,-531.881,190.227,49.882,43.412728,-0.260732,-0.260732,-43.673460,0.000000,0.610118,0.166571,-0.416131,0.286479,0.369161,0.290148,0.056553,0.372423,0.124514,0.713880,18.980656,-18.430195,37.410851,0.550461,0.00000836,0.00000000,0.00000834,0.00000000,0.00000002,0.000000,0.000000,0.000000,0.000000,0.000000,0.000000,0.000000,0.000000,0.03720226,0.00141575,0.00142838,0.00181645,0.00048817,0.00000000,0.00000000,0.03205351,0.00011798,0.00071419,0.00072658,0.00097634,0.64107013,0.00000000,0.00000000
5.300,1,1,1,-531.871,190.240,49.872,43.088468,-0.276093,-0.276093,-43.364561,0.000000,0.613169,0.166681,-0.426777,-0.157563,0.391851,0.293698,0.047917,0.701873,0.093314,0.706323,19.203993,-18.292496,37.496489,0.911497,0.00000994,0.00000000,0.00000993,0.00000000,0.00000002,0.000000,0.000000,0.000000,0.000000,0.000000,0.000000,0.000000,0.000000,0.03797736,0.00148195,0.00142852,0.00181833,0.00049563,0.00000000,0.00000000,0.03275293,0.00012350,0.00071426,0.00072733,0.00099127,0.65505866,0.00000000,0.00000000
5.400,1,1,1,-531.861,190.254,49.861,42.765631,-0.291684,-0.291684,-43.057315,0.000000,0.616710,0.168595,-0.431725,0.687549,0.408973,0.297227,0.049895,1.446718,0.070891,0.698965,19.367224,-18.196908,37.564132,1.170316,0.00001158,0.00000000,0.00001156,0.00000000,0.00000002,0.000000,0.000000,0.000000,0.000000,0.000000,0.000000,0.000000,0.000000,0.03881960,0.00155007,0.00142868,0.00185432,0.00052751,0.00000000,0.00000000,0.03345903,0.00012917,0.00071434,0.00074173,0.00105501,0.66918062,0.00000000,0.00000000
5.500,1,1,1,-531.850,190.268,49.850,42.444316,-0.307462,-0.307462,-42.751778,0.000000,0.620768,0.169949,-0.429969,0.472690,0.420411,0.300521,0.060929,1.074296,0.058378,0.691855,19.571502,-18.067949,37.639451,1.503553,0.00001322,0.00000000,0.00001321,0.00000000,0.00000002,0.000000,0.000000,0.000000,0.000000,0.000000,0.000000,0.000000,0.000000,0.03963097,0.00161760,0.00142890,0.00187132,0.00054507,0.00000000,0.00000000,0.03416806,0.00013480,0.00071445,0.00074853,0.00109014,0.68336127,0.00000000,0.00000000
5.600,1,1,1,-531.844,190.275,49.845,42.149823,-0.315729,-0.315729,-42.465552,0.000000,0.625118,0.166606,-0.422310,0.902409,0.425633,0.303435,0.077253,0.429718,0.056875,0.684990,19.977421,-17.969387,37.946808,2.008034,0.00001410,0.00000000,0.00001410,0.00000000,0.00000001,0.000000,0.000000,0.000000,0.000000,0.000000,0.000000,0.000000,0.000000,0.04048312,0.00168278,0.00142927,0.00193332,0.00054788,0.00000000,0.00000000,0.03488987,0.00014023,0.00071463,0.00077333,0.00109577,0.69779740,0.00000000,0.00000000
5.700,1,1,1,-531.832,190.289,49.833,41.869307,-0.331726,-0.331726,-42.201033,0.000000,0.629607,0.165749,-0.410043,0.816465,0.425887,0.305883,0.097703,1.203211,0.064181,0.678378,20.277654,-17.864760,38.142414,2.412893,0.00001559,0.00000000,0.00001557,0.00000000,0.00000002,0.000000,0.000000,0.000000,0.000000,0.000000,0.000000,0.000000,0.000000,0.04134850,0.00174425,0.00142985,0.00198410,0.00056994,0.00000000,0.00000000,0.03562036,0.00014535,0.00071492,0.00079364,0.00113988,0.71240720,0.00000000,0.00000000
5.800,1,1,1,-531.820,190.302,49.821,41.551559,-0.347885,-0.347885,-41.899444,0.000000,0.635304,0.171912,-0.391491,1.260507,0.420418,0.307754,0.127538,0.515662,0.080494,0.672057,20.334396,-17.759026,38.093422,2.575370,0.00001693,0.00000000,0.00001691,0.00000000,0.00000002,0.000000,0.000000,0.000000,0.000000,0.000000,0.000000,0.000000,0.000000,0.04225935,0.00180027,0.00143084,0.00210509,0.00057399,0.00000000,0.00000000,0.03634916,0.00015002,0.00071542,0.00084204,0.00114798,0.72698322,0.00000000,0.00000000
5.900,1,1,1,-531.807,190.317,49.808,41.235710,-0.364246,-0.364246,-41.599956,0.000000,0.641591,0.229990,-0.367720,1.031324,0.409026,0.308993,0.166321,0.143239,0.104217,0.666078,18.280427,-17.633170,35.913597,0.647257,0.00001805,0.00000000,0.00001803,0.00000000,0.00000002,0.000000,0.000000,0.000000,0.000000,0.000000,0.000000,0.000000,0.000000,0.04303687,0.00184970,0.00143252,0.00218609,0.00057430,0.00000000,0.00000000,0.03699426,0.00015414,0.00071626,0.00087444,0.00114860,0.73988511,0.00000000,0.00000000
6.000,1,1,1,-531.794,190.331,49.795,40.920916,-0.380757,-0.380757,-41.301673,0.000000,0.648482,0.215088,-0.337480,1.661578,0.391855,0.309545,0.215787,1.145916,0.135688,0.660535,19.322854,-17.535650,36.858504,1.787205,0.00001890,0.00000000,0.00001888,0.00000000,0.00000002,0.000000,0.000000,0.000000,0.000000,0.000000,0.000000,0.000000,0.000000,0.04399235,0.00189133,0.00143536,0.00239631,0.00059430,0.00000000,0.00000000,0.03767505,0.00015761,0.00071768,0.00095853,0.00118860,0.75350102,0.00000000,0.00000000
6.100,1,1,1,-531.780,190.345,49.781,40.607601,-0.397401,-0.397401,-41.005003,0.000000,0.655907,0.208988,-0.306012,0.515662,0.369606,0.309481,0.274285,1.561310,0.175611,0.655547,19.986053,-17.383051,37.369104,2.603002,0.00001942,0.00000000,0.00001940,0.00000000,0.00000002,0.000000,0.000000,0.000000,0.000000,0.000000,0.000000,0.000000,0.000000,0.04479014,0.00192556,0.00143994,0.00241656,0.00063143,0.00000000,0.00000000,0.03837665,0.00016046,0.00071997,0.00096663,0.00126285,0.76753295,0.00000000,0.00000000
6.200,1,1,1,-531.766,190.360,49.767,40.295561,-0.414158,-0.414158,-40.709719,0.000000,0.663798,0.206402,-0.270626,0.673225,0.343052,0.308829,0.337561,1.747521,0.223563,0.651224,20.503628,-17.274666,37.778293,3.228962,0.00001957,0.00000000,0.00001955,0.00000000,0.00000002,0.000000,0.000000,0.000000,0.000000,0.000000,0.000000,0.000000,0.000000,0.04562528,0.00195238,0.00144690,0.00245115,0.00067803,0.00000000,0.00000000,0.03909683,0.00016270,0.00072345,0.00098046,0.00135605,0.78193667,0.00000000,0.00000000
6.300,1,1,1,-531.752,190.374,49.753,40.009818,-0.430948,-0.430948,-40.440765,0.000000,0.671364,0.206196,-0.233756,1.231859,0.315678,0.307671,0.397328,0.673225,0.272435,0.647633,20.897794,-17.190537,38.088331,3.707257,0.00001950,0.00000000,0.00001948,0.00000000,0.00000002,0.000000,0.000000,0.000000,0.000000,0.000000,0.000000,0.000000,0.000000,0.04650833,0.00197233,0.00145650,0.00256655,0.00068492,0.00000000,0.00000000,0.03982803,0.00016436,0.00072825,0.00102662,0.00136984,0.79656069,0.00000000,0.00000000
6.400,1,1,1,-531.737,190.389,49.739,39.700333,-0.447771,-0.447771,-40.148104,0.000000,0.677261,0.206474,-0.189019,0.487014,0.281602,0.306016,0.463151,0.902409,0.331420,0.644899,21.197488,-17.054044,38.251532,4.143444,0.00002052,0.00000000,0.00002050,0.00000000,0.00000002,0.000000,0.000000,0.000000,0.000000,0.000000,0.000000,0.000000,0.000000,0.04730502,0.00198538,0.00146957,0.00258461,0.00069732,0.00000000,0.00000000,0.04056814,0.00016545,0.00073478,0.00103384,0.00139464,0.81136271,0.00000000,0.00000000
6.500,1,1,1,-531.722,190.403,49.724,39.392506,-0.464691,-0.464691,-39.857197,0.000000,0.682433,0.242245,-0.142825,2.034000,0.244546,0.303980,0.530409,0.515662,0.393826,0.643129,20.003268,-16.990471,36.993739,3.012797,0.00002198,0.00000000,0.00002196,0.00000000,0.00000002,0.000000,0.000000,0.000000,0.000000,0.000000,0.000000,0.000000,0.000000,0.04833765,0.00199284,0.00148671,0.00289970,0.00070137,0.00000000,0.00000000,0.04125702,0.00016607,0.00074336,0.00115988,0.00140275,0.82514044,0.00000000,0.00000000
6.600,1,1,1,-531.706,190.418,49.708,39.085588,-0.481713,-0.481713,-39.567301,0.000000,0.687616,0.228947,-0.096870,1.518338,0.204859,0.301696,0.600098,0.701873,0.458608,0.642435,20.873350,-16.859832,37.733182,4.013517,0.00002346,0.00000000,0.00002344,0.00000000,0.00000002,0.000000,0.000000,0.000000,0.000000,0.000000,0.000000,0.000000,0.000000,0.04926605,0.00199627,0.00150865,0.00307527,0.00070888,0.00000000,0.00000000,0.04197698,0.00016636,0.00075433,0.00123011,0.00141775,0.83953967,0.00000000,0.00000000
6.700,1,1,1,-531.691,190.433,49.693,38.780408,-0.498827,-0.498827,-39.279235,0.000000,0.692781,0.222924,-0.052491,1.045648,0.163462,0.299288,0.671649,1.289155,0.525397,0.642924,21.416647,-16.732959,38.149605,4.683688,0.00002497,0.00000000,0.00002494,0.00000000,0.00000002,0.000000,0.000000,0.000000,0.000000,0.000000,0.000000,0.000000,0.000000,0.05014160,0.00199728,0.00153613,0.00315852,0.00073418,0.00000000,0.00000000,0.04271549,0.00016644,0.00076806,0.00126341,0.00146837,0.85430986,0.00000000,0.00000000
6.800,1,1,1,-531.675,190.447,49.677,38.476474,-0.516005,-0.516005,-38.992478,0.000000,0.697920,0.220131,-0.006950,-0.085944,0.122357,0.296866,0.742699,1.604282,0.593784,0.644657,21.814235,-16.588041,38.402276,5.226194,0.00002650,0.00000000,0.00002648,0.00000000,0.00000002,0.000000,0.000000,0.000000,0.000000,0.000000,0.000000,0.000000,0.000000,0.05096615,0.00199730,0.00156974,0.00315908,0.00077339,0.00000000,0.00000000,0.04346664,0.00016644,0.00078487,0.00126363,0.00154678,0.86933288,0.00000000,0.00000000
6.900,1,1,1,-531.658,190.462,49.660,38.173924,-0.533189,-0.533189,-38.707113,0.000000,0.702692,0.216363,0.040350,0.057296,0.085260,0.294545,0.811096,0.601606,0.662969,0.647632,22.232033,-16.485662,38.717695,5.746371,0.00002807,0.00000000,0.00002804,0.00000000,0.00000002,0.000000,0.000000,0.000000,0.000000,0.000000,0.000000,0.000000,0.000000,0.05177837,0.00199789,0.00160981,0.00315933,0.00077890,0.00000000,0.00000000,0.04423244,0.00016649,0.00080490,0.00126373,0.00155780,0.88464883,0.00000000,0.00000000
7.000,1,1,1,-531.642,190.477,49.644,37.872654,-0.550398,-0.550398,-38.423052,0.000000,0.706554,0.218226,0.086965,0.873761,0.061660,0.292436,0.875399,1.117268,0.731748,0.651804,22.376004,-16.403204,38.779208,5.972800,0.00002967,0.00000000,0.00002965,0.00000000,0.00000002,0.000000,0.000000,0.000000,0.000000,0.000000,0.000000,0.000000,0.000000,0.05267484,0.00200066,0.00165650,0.00321748,0.00079792,0.00000000,0.00000000,0.04500229,0.00016672,0.00082825,0.00128699,0.00159583,0.90004582,0.00000000,0.00000000
7.100,1,1,1,-531.625,190.492,49.627,37.572741,-0.567681,-0.567681,-38.140422,0.000000,0.710389,0.224197,0.130284,1.776169,0.067181,0.290628,0.934693,1.059972,0.798612,0.657079,22.354342,-16.320927,38.675269,6.033415,0.00003134,0.00000000,0.00003131,0.00000000,0.00000002,0.000000,0.000000,0.000000,0.000000,0.000000,0.000000,0.000000,0.000000,0.05375780,0.00200686,0.00170973,0.00345775,0.00081503,0.00000000,0.00000000,0.04576844,0.00016724,0.00085487,0.00138310,0.00163006,0.91536873,0.00000000,0.00000000
7.200,1,1,1,-531.608,190.507,49.610,37.274237,-0.585035,-0.585035,-37.859272,0.000000,0.714211,0.295029,0.169659,0.802141,0.095239,0.289173,0.988301,0.529986,0.862097,0.663332,19.668591,-16.179163,35.847753,3.489428,0.00003308,0.00000000,0.00003305,0.00000000,0.00000002,0.000000,0.000000,0.000000,0.000000,0.000000,0.000000,0.000000,0.000000,0.05452957,0.00201738,0.00176922,0.00350674,0.00081931,0.00000000,0.00000000,0.04641692,0.00016812,0.00088461,0.00140269,0.00163861,0.92833846,0.00000000,0.00000000
7.300,1,1,1,-531.591,190.521,49.593,36.977025,-0.602364,-0.602364,-37.579389,0.000000,0.718040,0.265257,0.207317,0.515662,0.130722,0.288122,1.036532,1.375099,0.921151,0.670432,21.212926,-16.061823,37.274750,5.151103,0.00003489,0.00000000,0.00003486,0.00000000,0.00000002,0.000000,0.000000,0.000000,0.000000,0.000000,0.000000,0.000000,0.000000,0.05536785,0.00203309,0.00183469,0.00352699,0.00084811,0.00000000,0.00000000,0.04712497,0.00016942,0.00091734,0.00141080,0.00169622,0.94249941,0.00000000,0.00000000
7.400,1,1,1,-531.573,190.536,49.576,36.681081,-0.619627,-0.619627,-37.300708,0.000000,0.721881,0.250647,0.240301,0.787817,0.167196,0.287476,1.078571,0.529986,0.975194,0.678215,22.077604,-15.962155,38.039760,6.115449,0.00003678,0.00000000,0.00003676,0.00000000,0.00000002,0.000000,0.000000,0.000000,0.000000,0.000000,0.000000,0.000000,0.000000,0.05625355,0.00205420,0.00190556,0.00357425,0.00085239,0.00000000,0.00000000,0.04786715,0.00017118,0.00095278,0.00142970,0.00170478,0.95734303,0.00000000,0.00000000
7.500,1,1,1,-531.556,190.551,49.559,36.386491,-0.636852,-0.636852,-37.023343,0.000000,0.725750,0.237519,0.270126,-0.200535,0.202062,0.287232,1.112118,0.945380,1.023435,0.686466,22.857384,-15.823289,38.680673,7.034094,0.00003877,0.00000000,0.00003874,0.00000000,0.00000002,0.000000,0.000000,0.000000,0.000000,0.000000,0.000000,0.000000,0.000000,0.05714516,0.00208088,0.00198092,0.00357732,0.00086600,0.00000000,0.00000000,0.04864005,0.00017341,0.00099046,0.00143093,0.00173200,0.97280108,0.00000000,0.00000000
7.600,1,1,1,-531.539,190.566,49.542,36.093343,-0.654039,-0.654039,-36.747382,0.000000,0.729663,0.232635,0.297173,0.644578,0.234533,0.287377,1.136117,0.931056,1.064931,0.694941,23.281913,-15.743308,39.025221,7.538605,0.00004085,0.00000000,0.00004083,0.00000000,0.00000002,0.000000,0.000000,0.000000,0.000000,0.000000,0.000000,0.000000,0.000000,0.05809081,0.00211316,0.00205955,0.00360896,0.00087920,0.00000000,0.00000000,0.04942994,0.00017610,0.00102978,0.00144358,0.00175841,0.98859885,0.00000000,0.00000000
7.700,1,1,1,-531.521,190.580,49.525,35.801541,-0.671214,-0.671214,-36.472754,0.000000,0.733642,0.232187,0.320010,0.615930,0.264205,0.287862,1.150547,0.042972,1.098801,0.703408,23.522935,-15.634009,39.156944,7.888926,0.00004304,0.00000000,0.00004302,0.00000000,0.00000002,0.000000,0.000000,0.000000,0.000000,0.000000,0.000000,0.000000,0.000000,0.05903536,0.00215058,0.00214018,0.00363784,0.00087923,0.00000000,0.00000000,0.05022752,0.00017922,0.00107009,0.00145514,0.00175846,1.00455042,0.00000000,0.00000000
7.800,1,1,1,-531.504,190.595,49.507,35.511005,-0.688424,-0.688424,-36.199429,0.000000,0.737422,0.231215,0.336991,1.117268,0.290311,0.288602,1.156056,0.057296,1.124234,0.711671,23.780165,-15.540923,39.321089,8.239242,0.00004574,0.00000000,0.00004572,0.00000000,0.00000002,0.000000,0.000000,0.000000,0.000000,0.000000,0.000000,0.000000,0.000000,0.06006056,0.00219210,0.00222162,0.00373291,0.00087928,0.00000000,0.00000000,0.05103465,0.00018268,0.00111081,0.00149317,0.00175856,1.02069290,0.00000000,0.00000000
7.900,1,1,1,-531.486,190.610,49.490,35.221789,-0.705700,-0.705700,-35.927489,0.000000,0.739075,0.255970,0.348304,-0.401070,0.312332,0.289503,1.153365,0.472690,1.140782,0.719555,22.891944,-15.384857,38.276802,7.507087,0.00005171,0.00000000,0.00005169,0.00000000,0.00000002,0.000000,0.000000,0.000000,0.000000,0.000000,0.000000,0.000000,0.000000,0.06096233,0.00223645,0.00230266,0.00374516,0.00088269,0.00000000,0.00000000,0.05179537,0.00018637,0.00115133,0.00149807,0.00176537,1.03590744,0.00000000,0.00000000
8.000,1,1,1,-531.468,190.624,49.472,34.933978,-0.723003,-0.723003,-35.656981,0.000000,0.741367,0.242631,0.355712,0.085944,0.329906,0.290499,1.143431,0.200535,1.148609,0.726935,23.634710,-15.294574,38.929283,8.340136,0.00005733,0.00000000,0.00005730,0.00000000,0.00000002,0.000000,0.000000,0.000000,0.000000,0.000000,0.000000,0.000000,0.000000,0.06188225,0.00228271,0.00238234,0.00374573,0.00088330,0.00000000,0.00000000,0.05258817,0.00019023,0.00119117,0.00149829,0.00176660,1.05176333,0.00000000,0.00000000
8.100,1,1,1,-531.450,190.639,49.454,34.647534,-0.740310,-0.740310,-35.387844,0.000000,0.744333,0.240623,0.358285,-0.515662,0.342750,0.291506,1.126321,-0.143239,1.148243,0.733691,23.919274,-15.169314,39.088588,8.749960,0.00006244,0.00000000,0.00006242,0.00000000,0.00000002,0.000000,0.000000,0.000000,0.000000,0.000000,0.000000,0.000000,0.000000,0.06282910,0.00232963,0.00245961,0.00376597,0.00088361,0.00000000,0.00000000,0.05339027,0.00019414,0.00122981,0.00150639,0.00176722,1.06780539,0.00000000,0.00000000
8.200,1,1,1,-531.432,190.654,49.437,34.396541,-0.757636,-0.757636,-35.154177,0.000000,0.747470,0.236939,0.356341,0.730521,0.350174,0.292453,1.104707,-0.186211,1.141255,0.739785,24.277997,-15.118634,39.396630,9.159363,0.00006681,0.00000000,0.00006679,0.00000000,0.00000002,0.000000,0.000000,0.000000,0.000000,0.000000,0.000000,0.000000,0.000000,0.06380959,0.00237607,0.00253401,0.00380664,0.00088414,0.00000000,0.00000000,0.05420873,0.00019801,0.00126700,0.00152266,0.00176828,1.08417467,0.00000000,0.00000000
8.300,1,1,1,-531.414,190.668,49.419,34.112638,-0.774994,-0.774994,-34.887632,0.000000,0.751741,0.234510,0.350264,0.286479,0.353979,0.293277,1.072245,0.773493,1.126232,0.745055,24.628132,-14.995915,39.624047,9.632217,0.00007067,0.00000000,0.00007065,0.00000000,0.00000002,0.000000,0.000000,0.000000,0.000000,0.000000,0.000000,0.000000,0.000000,0.06477135,0.00242092,0.00260406,0.00381289,0.00089325,0.00000000,0.00000000,0.05504023,0.00020174,0.00130203,0.00152516,0.00178650,1.10080466,0.00000000,0.00000000
8.400,1,1,1,-531.396,190.683,49.401,33.830021,-0.792384,-0.792384,-34.622406,0.000000,0.756690,0.234169,0.339329,0.444042,0.353250,0.293913,1.031392,-0.859437,1.103538,0.749417,24.917753,-14.893158,39.810911,10.024596,0.00007372,0.00000000,0.00007370,0.00000000,0.00000002,0.000000,0.000000,0.000000,0.000000,0.000000,0.000000,0.000000,0.000000,0.06574688,0.00246300,0.00266884,0.00382790,0.00090450,0.00000000,0.00000000,0.05588264,0.00020525,0.00133442,0.00153116,0.00180900,1.11765287,0.00000000,0.00000000
8.500,1,1,1,-531.378,190.698,49.383,33.548696,-0.809808,-0.809808,-34.358504,0.000000,0.762337,0.255490,0.323517,0.859437,0.347949,0.294306,0.983020,0.773493,1.073050,0.752828,24.343767,-14.798034,39.141800,9.545733,0.00007584,0.00000000,0.00007582,0.00000000,0.00000002,0.000000,0.000000,0.000000,0.000000,0.000000,0.000000,0.000000,0.000000,0.06672144,0.00250128,0.00272774,0.00388418,0.00091362,0.00000000,0.00000000,0.05669463,0.00020844,0.00136387,0.00155367,0.00182723,1.13389267,0.00000000,0.00000000
8.600,1,1,1,-531.359,190.713,49.364,33.268679,-0.827272,-0.827272,-34.095951,0.000000,0.768678,0.246781,0.304045,0.171887,0.338210,0.294430,0.928989,0.515662,1.034886,0.755284,25.060817,-14.668525,39.729342,10.392291,0.00007694,0.00000000,0.00007691,0.00000000,0.00000002,0.000000,0.000000,0.000000,0.000000,0.000000,0.000000,0.000000,0.000000,0.06765718,0.00253506,0.00278031,0.00388643,0.00091766,0.00000000,0.00000000,0.05753772,0.00021126,0.00139016,0.00155457,0.00183533,1.15075431,0.00000000,0.00000000
8.700,1,1,1,-531.340,190.728,49.346,32.990078,-0.844800,-0.844800,-33.834878,0.000000,0.775691,0.242547,0.280854,0.501338,0.324183,0.294266,0.871144,0.085944,0.989749,0.756823,25.604047,-14.572543,40.176591,11.031504,0.00007690,0.00000000,0.00007688,0.00000000,0.00000002,0.000000,0.000000,0.000000,0.000000,0.000000,0.000000,0.000000,0.000000,0.06861960,0.00256390,0.00282656,0.00390557,0.00091778,0.00000000,0.00000000,0.05840580,0.00021366,0.00141328,0.00156223,0.00183555,1.16811600,0.00000000,0.00000000
8.800,1,1,1,-531.322,190.742,49.327,32.712594,-0.862405,-0.862405,-33.574999,0.000000,0.783348,0.241016,0.254107,-0.071620,0.306076,0.293810,0.810290,0.200535,0.938705,0.757497,26.053859,-14.448238,40.502097,11.605621,0.00007567,0.00000000,0.00007564,0.00000000,0.00000002,0.000000,0.000000,0.000000,0.000000,0.000000,0.000000,0.000000,0.000000,0.06957154,0.00258750,0.00286655,0.00390596,0.00091839,0.00000000,0.00000000,0.05929314,0.00021562,0.00143327,0.00156238,0.00183678,1.18586280,0.00000000,0.00000000
8.900,1,1,1,-531.302,190.757,49.308,32.434326,-0.880085,-0.880085,-33.314411,0.000000,0.790415,0.239246,0.224217,-0.257831,0.284294,0.293070,0.747034,-0.716197,0.882992,0.757372,26.485211,-14.336667,40.821878,12.148544,0.00007564,0.00000000,0.00007562,0.00000000,0.00000002,0.000000,0.000000,0.000000,0.000000,0.000000,0.000000,0.000000,0.000000,0.07054307,0.00260586,0.00290052,0.00391102,0.00092620,0.00000000,0.00000000,0.06019947,0.00021716,0.00145026,0.00156441,0.00185239,1.20398937,0.00000000,0.00000000
9.000,1,1,1,-531.283,190.772,49.289,32.162035,-0.897855,-0.897855,-33.059891,0.000000,0.796018,0.239170,0.192058,-0.587282,0.259280,0.292073,0.681883,-0.114592,0.823804,0.756517,26.784103,-14.223761,41.007864,12.560342,0.00007853,0.00000000,0.00007850,0.00000000,0.00000002,0.000000,0.000000,0.000000,0.000000,0.000000,0.000000,0.000000,0.000000,0.07153119,0.00261935,0.00292885,0.00393729,0.00092640,0.00000000,0.00000000,0.06111931,0.00021828,0.00146443,0.00157492,0.00185279,1.22238622,0.00000000,0.00000000
9.100,1,1,1,-531.263,190.787,49.270,31.906112,-0.915736,-0.915736,-32.821848,0.000000,0.801313,0.239030,0.160845,-0.000000,0.234280,0.290873,0.620996,-0.787817,0.768311,0.755064,27.075192,-14.147589,41.222781,12.927603,0.00008141,0.00000000,0.00008138,0.00000000,0.00000002,0.000000,0.000000,0.000000,0.000000,0.000000,0.000000,0.000000,0.000000,0.07250694,0.00262881,0.00295235,0.00393729,0.00093585,0.00000000,0.00000000,0.06205265,0.00021907,0.00147617,0.00157492,0.00187170,1.24105291,0.00000000,0.00000000
9.200,1,1,1,-531.243,190.803,49.250,31.638584,-0.933728,-0.933728,-32.572311,0.000000,0.805977,0.242715,0.124807,-0.000000,0.204261,0.289491,0.554775,-0.759169,0.704911,0.753042,27.184972,-14.045229,41.230201,13.139743,0.00008429,0.00000000,0.00008427,0.00000000,0.00000002,0.000000,0.000000,0.000000,0.000000,0.000000,0.000000,0.000000,0.000000,0.07347614,0.00263450,0.00297109,0.00393729,0.00094463,0.00000000,0.00000000,0.06298864,0.00021954,0.00148555,0.00157492,0.00188925,1.25977274,0.00000000,0.00000000
9.300,1,1,1,-531.223,190.818,49.230,31.374519,-0.951822,-0.951822,-32.326341,0.000000,0.810377,0.247694,0.087743,0.272155,0.172445,0.287976,0.489882,-0.572958,0.640416,0.750542,27.238042,-13.952799,41.190840,13.285243,0.00008717,0.00000000,0.00008715,0.00000000,0.00000002,0.000000,0.000000,0.000000,0.000000,0.000000,0.000000,0.000000,0.000000,0.07444069,0.00263731,0.00298571,0.00394293,0.00094963,0.00000000,0.00000000,0.06392511,0.00021978,0.00149286,0.00157717,0.00189925,1.27850223,0.00000000,0.00000000
9.400,1,1,1,-531.213,190.825,49.220,31.123188,-0.960548,-0.960548,-32.083736,0.000000,0.814750,0.243133,0.054234,0.028648,0.142844,0.286392,0.434985,-0.487014,0.582235,0.747703,27.690913,-13.845963,41.536877,13.844950,0.00008829,0.00000000,0.00008829,0.00000000,0.00000001,0.000000,0.000000,0.000000,0.000000,0.000000,0.000000,0.000000,0.000000,0.07541603,0.00263839,0.00299725,0.00394299,0.00095324,0.00000000,0.00000000,0.06488417,0.00021987,0.00149862,0.00157720,0.00190648,1.29768330,0.00000000,0.00000000
9.500,1,1,1,-531.192,190.840,49.199,30.862694,-0.978801,-0.978801,-31.841494,0.000000,0.819135,0.250929,0.015915,0.401070,0.109777,0.284784,0.375909,-0.143239,0.518362,0.744557,27.629993,-13.758190,41.388183,13.871802,0.00009120,0.00000000,0.00009117,0.00000000,0.00000003,0.000000,0.000000,0.000000,0.000000,0.000000,0.000000,0.000000,0.000000,0.07639010,0.00263848,0.00300586,0.00395524,0.00095355,0.00000000,0.00000000,0.06583697,0.00021987,0.00150293,0.00158210,0.00190710,1.31673935,0.00000000,0.00000000
9.600,1,1,1,-531.171,190.856,49.178,30.605647,-0.997168,-0.997168,-31.602815,0.000000,0.823472,0.250697,-0.021659,-0.372423,0.078496,0.283207,0.321079,-0.358099,0.456398,0.741183,27.908819,-13.636185,41.545004,14.272634,0.00009412,0.00000000,0.00009409,0.00000000,0.00000003,0.000000,0.000000,0.000000,0.000000,0.000000,0.000000,0.000000,0.000000,0.07737356,0.00263865,0.00301214,0.00396580,0.00095550,0.00000000,0.00000000,0.06680147,0.00021989,0.00150607,0.00158632,0.00191101,1.33602944,0.00000000,0.00000000
9.700,1,1,1,-531.149,190.871,49.157,30.330276,-1.015630,-1.015630,-31.345906,0.000000,0.828123,0.257387,-0.058810,0.472690,0.054542,0.281714,0.271157,0.802141,0.397387,0.737648,27.914542,-13.556937,41.471479,14.357605,0.00009710,0.00000000,0.00009707,0.00000000,0.00000003,0.000000,0.000000,0.000000,0.000000,0.000000,0.000000,0.000000,0.000000,0.07836911,0.00263992,0.00301661,0.00398282,0.00096530,0.00000000,0.00000000,0.06776446,0.00021999,0.00150831,0.00159313,0.00193061,1.35528917,0.00000000,0.00000000
9.800,1,1,1,-531.127,190.887,49.135,30.054107,-1.034176,-1.034176,-31.088282,0.000000,0.832781,0.260842,-0.095333,-0.028648,0.050773,0.280355,0.226702,-0.329451,0.342210,0.734009,28.061268,-13.433867,41.495135,14.627400,0.00010014,0.00000000,0.00010012,0.00000000,0.00000003,0.000000,0.000000,0.000000,0.000000,0.000000,0.000000,0.000000,0.000000,0.07934509,0.00264324,0.00301975,0.00398288,0.00096696,0.00000000,0.00000000,0.06873227,0.00022027,0.00150987,0.00159315,0.00193392,1.37464539,0.00000000,0.00000000
9.900,1,1,1,-531.104,190.902,49.113,29.803341,-1.052803,-1.052803,-30.856143,0.000000,0.836992,0.233024,-0.130383,-1.346451,0.070076,0.279171,0.188366,0.286479,0.291560,0.730313,29.480010,-13.300007,42.780017,16.180002,0.00010328,0.00000000,0.00010326,0.00000000,0.00000003,0.000000,0.000000,0.000000,0.000000,0.000000,0.000000,0.000000,0.000000,0.08053863,0.00264945,0.00302191,0.00412093,0.00096821,0.00000000,0.00000000,0.06977813,0.00022079,0.00151095,0.00164837,0.00193641,1.39556267,0.00000000,0.00000000
10.000,1,1,1,-531.081,190.918,49.090,29.556070,-1.071523,-1.071523,-30.627593,0.000000,0.841123,0.249840,-0.163564,-0.759169,0.099010,0.278195,0.156134,1.718873,0.245989,0.726597,29.021066,-13.229492,42.250558,15.791574,0.00010654,0.00000000,0.00010651,0.00000000,0.00000003,0.000000,0.000000,0.000000,0.000000,0.000000,0.000000,0.000000,0.000000,0.08165602,0.00265923,0.00302339,0.00416482,0.00101321,0.00000000,0.00000000,0.07079537,0.00022160,0.00151170,0.00166593,0.00202641,1.41590736,0.00000000,0.00000000
10.100,1,1,1,-531.058,190.934,49.067,29.281663,-1.090332,-1.090332,-30.371994,0.000000,0.845689,0.262277,-0.193663,0.100268,0.130112,0.277439,0.130399,0.286479,0.205921,0.722886,28.787192,-13.152010,41.939201,15.635182,0.00010992,0.00000000,0.00010989,0.00000000,0.00000003,0.000000,0.000000,0.000000,0.000000,0.000000,0.000000,0.000000,0.000000,0.08267463,0.00267294,0.00302443,0.00416558,0.00101446,0.00000000,0.00000000,0.07179722,0.00022275,0.00151221,0.00166623,0.00202891,1.43594438,0.00000000,0.00000000
10.200,1,1,1,-531.034,190.949,49.043,29.006443,-1.109197,-1.109197,-30.115641,0.000000,0.850240,0.268974,-0.221186,-0.143239,0.160699,0.276912,0.112478,0.085944,0.171830,0.719203,28.804130,-13.038222,41.842352,15.765907,0.00011345,0.00000000,0.00011342,0.00000000,0.00000003,0.000000,0.000000,0.000000,0.000000,0.000000,0.000000,0.000000,0.000000,0.08369456,0.00269082,0.00302520,0.00416715,0.00101457,0.00000000,0.00000000,0.07279682,0.00022424,0.00151260,0.00166686,0.00202914,1.45593637,0.00000000,0.00000000
10.300,1,1,1,-531.009,190.965,49.019,28.765457,-1.128129,-1.128129,-29.893587,0.000000,0.854176,0.277598,-0.246349,-0.085944,0.189773,0.276614,0.103079,0.572958,0.144285,0.715563,28.721197,-12.951395,41.672593,15.769802,0.00011713,0.00000000,0.00011710,0.00000000,0.00000003,0.000000,0.000000,0.000000,0.000000,0.000000,0.000000,0.000000,0.000000,0.08471539,0.00271300,0.00302585,0.00416771,0.00101957,0.00000000,0.00000000,0.07378927,0.00022608,0.00151292,0.00166708,0.00203914,1.47578533,0.00000000,0.00000000
10.400,1,1,1,-530.984,190.981,48.994,28.527898,-1.147128,-1.147128,-29.675025,0.000000,0.858022,0.284395,-0.268549,0.000000,0.216840,0.276533,0.101983,0.644578,0.123956,0.711977,28.716677,-12.867073,41.583750,15.849604,0.00012098,0.00000000,0.00012095,0.00000000,0.00000003,0.000000,0.000000,0.000000,0.000000,0.000000,0.000000,0.000000,0.000000,0.08573897,0.00273937,0.00302648,0.00416771,0.00102590,0.00000000,0.00000000,0.07477952,0.00022828,0.00151324,0.00166708,0.00205179,1.49559043,0.00000000,0.00000000
10.500,1,1,1,-530.959,190.997,48.969,28.254280,-1.166150,-1.166150,-29.420430,0.000000,0.862452,0.291816,-0.287281,0.343775,0.241432,0.276643,0.108394,0.759169,0.111734,0.708456,28.713716,-12.773029,41.486746,15.940687,0.00012499,0.00000000,0.00012496,0.00000000,0.00000003,0.000000,0.000000,0.000000,0.000000,0.000000,0.000000,0.000000,0.000000,0.08677522,0.00276953,0.00302720,0.00417671,0.00103467,0.00000000,0.00000000,0.07576711,0.00023079,0.00151360,0.00167068,0.00206935,1.51534213,0.00000000,0.00000000
10.600,1,1,1,-530.933,191.012,48.944,28.041714,-1.185151,-1.185151,-29.226865,0.000000,0.865815,0.260377,-0.301044,-0.114592,0.261147,0.276898,0.120598,0.974028,0.108192,0.705008,30.270294,-12.683899,42.954193,17.586395,0.00012914,0.00000000,0.00012912,0.00000000,0.00000003,0.000000,0.000000,0.000000,0.000000,0.000000,0.000000,0.000000,0.000000,0.08790178,0.00280266,0.00302808,0.00417771,0.00104912,0.00000000,0.00000000,0.07684421,0.00023356,0.00151404,0.00167108,0.00209825,1.53688420,0.00000000,0.00000000
10.700,1,1,1,-530.907,191.028,48.918,27.768406,-1.204137,-1.204137,-28.972543,0.000000,0.869749,0.277911,-0.312322,-0.329451,0.280098,0.277271,0.139056,0.615930,0.112294,0.701646,29.789187,-12.573863,42.363050,17.215324,0.00013498,0.00000000,0.00013495,0.00000000,0.00000003,0.000000,0.000000,0.000000,0.000000,0.000000,0.000000,0.000000,0.000000,0.08899816,0.00283832,0.00302926,0.00418597,0.00105490,0.00000000,0.00000000,0.07788970,0.00023653,0.00151463,0.00167439,0.00210980,1.55779407,0.00000000,0.00000000
10.800,1,1,1,-530.880,191.044,48.891,27.547363,-1.223130,-1.223130,-28.770493,0.000000,0.871303,0.290870,-0.319045,0.902409,0.294196,0.277711,0.159841,0.959704,0.122369,0.698376,29.423289,-12.534462,41.957751,16.888827,0.00014628,0.00000000,0.00014625,0.00000000,0.00000003,0.000000,0.000000,0.000000,0.000000,0.000000,0.000000,0.000000,0.000000,0.09013615,0.00287554,0.00303082,0.00424801,0.00106893,0.00000000,0.00000000,0.07891286,0.00023963,0.00151541,0.00169920,0.00213787,1.57825717,0.00000000,0.00000000
10.900,1,1,1,-530.853,191.059,48.865,27.267296,-1.242105,-1.242105,-28.509401,0.000000,0.873981,0.301462,-0.323029,-0.200535,0.307302,0.278187,0.193261,0.931056,0.141919,0.695236,29.217906,-12.391561,41.609467,16.826345,0.00015757,0.00000000,0.00015754,0.00000000,0.00000003,0.000000,0.000000,0.000000,0.000000,0.000000,0.000000,0.000000,0.000000,0.09120110,0.00291372,0.00303309,0.00425107,0.00108215,0.00000000,0.00000000,0.07992107,0.00024281,0.00151655,0.00170043,0.00216430,1.59842132,0.00000000,0.00000000
11.000,1,1,1,-530.825,191.075,48.837,27.043683,-1.261043,-1.261043,-28.304725,0.000000,0.876407,0.308743,-0.322852,0.888085,0.315249,0.278650,0.230216,1.059972,0.166150,0.692258,29.146790,-12.346916,41.493706,16.799874,0.00016661,0.00000000,0.00016658,0.00000000,0.00000003,0.000000,0.000000,0.000000,0.000000,0.000000,0.000000,0.000000,0.000000,0.09231983,0.00295176,0.00303632,0.00431104,0.00109924,0.00000000,0.00000000,0.08092147,0.00024598,0.00151816,0.00172442,0.00219847,1.61842944,0.00000000,0.00000000
11.100,1,1,1,-530.798,191.090,48.810,26.770880,-1.279932,-1.279932,-28.050812,0.000000,0.880168,0.314960,-0.319266,0.358099,0.319572,0.279066,0.272872,1.217535,0.196357,0.689460,29.177972,-12.225932,41.403904,16.952041,0.00017399,0.00000000,0.00017396,0.00000000,0.00000003,0.000000,0.000000,0.000000,0.000000,0.000000,0.000000,0.000000,0.000000,0.09339796,0.00298913,0.00304087,0.00432084,0.00112188,0.00000000,0.00000000,0.08192524,0.00024909,0.00152043,0.00172833,0.00224376,1.63850486,0.00000000,0.00000000
11.200,1,1,1,-530.769,191.106,48.782,26.554103,-1.298750,-1.298750,-27.852853,0.000000,0.883478,0.287077,-0.313057,0.873761,0.320323,0.279405,0.314412,1.518338,0.228477,0.686885,30.594585,-12.166075,42.760660,18.428510,0.00017956,0.00000000,0.00017954,0.00000000,0.00000003,0.000000,0.000000,0.000000,0.000000,0.000000,0.000000,0.000000,0.000000,0.09461447,0.00302487,0.00304688,0.00437885,0.00115692,0.00000000,0.00000000,0.08300694,0.00025207,0.00152344,0.00175154,0.00231383,1.66013888,0.00000000,0.00000000
11.300,1,1,1,-530.741,191.121,48.754,26.337115,-1.317472,-1.317472,-27.654587,0.000000,0.887266,0.303750,-0.301706,-0.329451,0.317718,0.279622,0.364268,0.415394,0.269138,0.684573,30.153867,-12.052457,42.206324,18.101410,0.00018327,0.00000000,0.00018325,0.00000000,0.00000003,0.000000,0.000000,0.000000,0.000000,0.000000,0.000000,0.000000,0.000000,0.09572150,0.00305816,0.00305496,0.00438712,0.00115955,0.00000000,0.00000000,0.08406172,0.00025485,0.00152748,0.00175485,0.00231909,1.68123434,0.00000000,0.00000000
11.400,1,1,1,-530.712,191.136,48.725,26.064554,-1.336089,-1.336089,-27.400643,0.000000,0.892523,0.316901,-0.286495,0.214859,0.311428,0.279686,0.415029,1.160240,0.313928,0.682566,29.939999,-11.968613,41.908612,17.971386,0.00018476,0.00000000,0.00018473,0.00000000,0.00000003,0.000000,0.000000,0.000000,0.000000,0.000000,0.000000,0.000000,0.000000,0.09682535,0.00308815,0.00306545,0.00439063,0.00118004,0.00000000,0.00000000,0.08510107,0.00025735,0.00153273,0.00175625,0.00236009,1.70202142,0.00000000,0.00000000
11.500,1,1,1,-530.682,191.151,48.696,25.791067,-1.354599,-1.354599,-27.145667,0.000000,0.898343,0.321233,-0.268488,0.759169,0.301359,0.279586,0.466984,1.160240,0.361739,0.680899,30.123187,-11.882808,42.005996,18.240379,0.00018377,0.00000000,0.00018375,0.00000000,0.00000003,0.000000,0.000000,0.000000,0.000000,0.000000,0.000000,0.000000,0.000000,0.09797784,0.00311450,0.00307874,0.00443452,0.00120054,0.00000000,0.00000000,0.08614954,0.00025954,0.00153937,0.00177381,0.00240109,1.72299077,0.00000000,0.00000000
11.600,1,1,1,-530.653,191.166,48.667,25.579913,-1.373020,-1.373020,-26.952933,0.000000,0.903624,0.326458,-0.247760,0.487014,0.287730,0.279313,0.520274,1.160240,0.411673,0.679610,30.244333,-11.801204,42.045537,18.443130,0.00018027,0.00000000,0.00018024,0.00000000,0.00000003,0.000000,0.000000,0.000000,0.000000,0.000000,0.000000,0.000000,0.000000,0.09910952,0.00313694,0.00309523,0.00445258,0.00122105,0.00000000,0.00000000,0.08720371,0.00026141,0.00154762,0.00178103,0.00244210,1.74407415,0.00000000,0.00000000
11.700,1,1,1,-530.623,191.181,48.637,25.372033,-1.391332,-1.391332,-26.763365,0.000000,0.908102,0.329694,-0.224145,0.644578,0.270927,0.278864,0.574131,0.429718,0.463024,0.678732,30.413556,-11.735075,42.148630,18.678481,0.00017969,0.00000000,0.00017967,0.00000000,0.00000003,0.000000,0.000000,0.000000,0.000000,0.000000,0.000000,0.000000,0.000000,0.10024512,0.00315531,0.00311531,0.00448423,0.00122386,0.00000000,0.00000000,0.08826641,0.00026294,0.00155766,0.00179369,0.00244773,1.76532824,0.00000000,0.00000000
11.800,1,1,1,-530.593,191.196,48.607,25.099727,-1.409504,-1.409504,-26.509231,0.000000,0.912523,0.331150,-0.198153,0.902409,0.251195,0.278247,0.627553,1.274831,0.515286,0.678293,30.651701,-11.640076,42.291777,19.011625,0.00018412,0.00000000,0.00018409,0.00000000,0.00000003,0.000000,0.000000,0.000000,0.000000,0.000000,0.000000,0.000000,0.000000,0.10144537,0.00316966,0.00313931,0.00454625,0.00124862,0.00000000,0.00000000,0.08934153,0.00026414,0.00156965,0.00181850,0.00249724,1.78683068,0.00000000,0.00000000
11.900,1,1,1,-530.562,191.210,48.577,24.826422,-1.427533,-1.427533,-26.253955,0.000000,0.916978,0.401002,-0.169738,0.587282,0.228855,0.277473,0.679784,0.945380,0.567968,0.678306,28.069709,-11.526832,39.596541,16.542876,0.00018844,0.00000000,0.00018841,0.00000000,0.00000002,0.000000,0.000000,0.000000,0.000000,0.000000,0.000000,0.000000,0.000000,0.10244456,0.00318019,0.00316746,0.00457251,0.00126223,0.00000000,0.00000000,0.09026217,0.00026502,0.00158373,0.00182900,0.00252446,1.80524349,0.00000000,0.00000000
12.000,1,1,1,-530.532,191.225,48.547,24.624213,-1.445399,-1.445399,-26.069612,0.000000,0.920236,0.373128,-0.137768,0.057296,0.204103,0.276555,0.730844,1.518338,0.620458,0.678784,29.544012,-11.443050,40.987061,18.100962,0.00019265,0.00000000,0.00019262,0.00000000,0.00000002,0.000000,0.000000,0.000000,0.000000,0.000000,0.000000,0.000000,0.000000,0.10352313,0.00318713,0.00320000,0.00457276,0.00129734,0.00000000,0.00000000,0.09126591,0.00026559,0.00160000,0.00182910,0.00259468,1.82531810,0.00000000,0.00000000
12.100,1,1,1,-530.501,191.239,48.517,24.425275,-1.463088,-1.463088,-25.888362,0.000000,0.923453,0.351063,-0.105892,-0.171887,0.177226,0.275527,0.779555,1.532662,0.672212,0.679725,30.722252,-11.370811,42.093063,19.351441,0.00019674,0.00000000,0.00019671,0.00000000,0.00000002,0.000000,0.000000,0.000000,0.000000,0.000000,0.000000,0.000000,0.000000,0.10467543,0.00319123,0.00323702,0.00457501,0.00133312,0.00000000,0.00000000,0.09233906,0.00026594,0.00161851,0.00183000,0.00266623,1.84678114,0.00000000,0.00000000
