t,controller_id,state_code,wp_idx,x,y,dist,yaw_deg,yaw_to_wp_deg,yaw_ref_deg,yaw_err_deg,yaw_rate_deg_s,speed_ref,speed_meas,roll_deg,roll_rate_deg_s,roll_rms_window_deg,roll_rms_total_deg,pitch_deg,pitch_rate_deg_s,pitch_rms_window_deg,pitch_rms_total_deg,base_cmd,diff_cmd,T_left,T_right,J_inst,J_goal,J_wave_roll,J_progress,J_smooth,J_mpc_distance,J_mpc_final,J_mpc_heading,J_mpc_wrong_way,J_mpc_pitch,J_mpc_control,J_mpc_slew,J_mpc_turn,J_total,J_roll,J_pitch,J_roll_rate,J_pitch_rate,J_goal_heading,J_no_progress,J_control,I_roll,I_pitch,I_roll_rate,I_pitch_rate,I_control,I_no_progress,I_goal_heading
0.200,1,1,1,-532.004,190.001,50.004,57.306944,-0.001286,-0.001286,-57.308231,0.000000,0.321214,0.000000,-1.425851,-1.446718,1.332600,0.000000,-0.745553,1.618606,0.780294,0.000000,0.000000,-5.000000,5.000000,-5.000000,0.00000000,0.00000000,0.00000000,0.00000000,0.00000000,0.000000,0.000000,0.000000,0.000000,0.000000,0.000000,0.000000,0.000000,0.00000000,0.00000000,0.00000000,0.00000000,0.00000000,0.00000000,0.00000000,0.00000000,0.00000000,0.00000000,0.00000000,0.00000000,0.00000000,0.00000000,0.00000000
0.300,1,1,1,-532.004,190.003,50.004,57.304754,-0.003716,-0.003716,-57.308469,0.000000,0.318689,0.002315,-1.478347,-1.045648,1.377605,1.478347,-0.640451,-0.458366,0.749359,0.640451,0.000000,-10.000000,10.000000,-10.000000,0.00000001,0.00000000,0.00000001,0.00000000,0.00000000,0.000000,0.000000,0.000000,0.000000,0.000000,0.000000,0.000000,0.000000,0.00100998,0.00079860,0.00002498,0.00008324,0.00000320,0.00000000,0.00000000,0.00009996,0.00006655,0.00001249,0.00003329,0.00000640,0.00199927,0.00000000,0.00000000
0.400,1,1,1,-532.005,190.004,50.005,57.290792,-0.004366,-0.004366,-57.295159,0.000000,0.312901,0.007793,-1.477556,0.630254,1.404918,1.477951,-0.632718,-1.532662,0.719356,0.636595,0.013098,-14.986902,15.000000,-14.973804,0.00000001,0.00000000,0.00000001,0.00000000,0.00000000,0.000000,0.000000,0.000000,0.000000,0.000000,0.000000,0.000000,0.000000,0.00212331,0.00159683,0.00004938,0.00011349,0.00003899,0.00000000,0.00000000,0.00032463,0.00013307,0.00002469,0.00004540,0.00007797,0.00649251,0.00000000,0.00000000
0.500,1,1,1,-532.007,190.002,50.007,57.258898,-0.002308,-0.002308,-57.261206,0.000000,0.313459,0.015841,-1.453154,0.186211,1.431560,1.469731,-0.769169,-1.948057,0.711120,0.683655,2.440352,-17.559648,20.000000,-15.119296,0.00000000,0.00000000,0.00000000,0.00000000,0.00000000,0.000000,0.000000,0.000000,0.000000,0.000000,0.000000,0.000000,0.000000,0.00330615,0.00236884,0.00008542,0.00011613,0.00009679,0.00000000,0.00000000,0.00063896,0.00019740,0.00004271,0.00004645,0.00019359,0.01277930,0.00000000,0.00000000
0.600,1,1,1,-532.010,189.999,50.010,57.205051,0.001017,0.001017,-57.204034,0.000000,0.314591,0.026720,-1.427099,-0.587282,1.455406,1.459191,-0.962424,-2.549662,0.731847,0.762951,4.841569,-20.158431,25.000000,-15.316863,0.00000000,0.00000000,0.00000000,0.00000000,0.00000000,0.000000,0.000000,0.000000,0.000000,0.000000,0.000000,0.000000,0.000000,0.00466199,0.00311322,0.00014185,0.00014240,0.00019580,0.00000000,0.00000000,0.00106872,0.00025944,0.00007092,0.00005696,0.00039159,0.02137448,0.00000000,0.00000000
0.700,1,1,1,-532.012,189.997,50.012,57.126949,0.002950,0.002950,-57.123998,0.000000,0.315759,0.026853,-1.385140,1.102944,1.451110,1.444685,-1.059114,-0.945380,0.805559,0.830671,7.438731,-22.561269,30.000000,-15.122538,0.00000000,0.00000000,0.00000000,0.00000000,0.00000000,0.000000,0.000000,0.000000,0.000000,0.000000,0.000000,0.000000,0.000000,0.00610214,0.00381450,0.00021018,0.00023503,0.00020941,0.00000000,0.00000000,0.00163302,0.00031787,0.00010509,0.00009401,0.00041881,0.03266046,0.00000000,0.00000000
0.800,1,1,1,-532.012,189.998,50.012,57.022579,0.001839,0.001839,-57.020740,0.000000,0.317402,0.020945,-1.297694,1.833465,1.421839,1.421238,-0.977055,1.317803,0.890372,0.856812,10.188155,-24.811845,35.000000,-14.623690,0.00000000,0.00000000,0.00000000,0.00000000,0.00000000,0.000000,0.000000,0.000000,0.000000,0.000000,0.000000,0.000000,0.000000,0.00777808,0.00443019,0.00026835,0.00049108,0.00023586,0.00000000,0.00000000,0.00235259,0.00036918,0.00013418,0.00019643,0.00047173,0.04705185,0.00000000,0.00000000
0.900,1,1,1,-532.010,190.002,50.010,56.891282,-0.001884,-0.001884,-56.893166,0.000000,0.320282,0.020591,-1.160240,1.274831,1.368358,1.386969,-0.769429,2.291831,0.932950,0.844884,11.122109,-25.391538,36.513647,-14.269429,0.00000000,0.00000000,0.00000000,0.00000000,0.00000000,0.000000,0.000000,0.000000,0.000000,0.000000,0.000000,0.000000,0.000000,0.00927812,0.00492217,0.00030442,0.00061482,0.00031585,0.00000000,0.00000000,0.00312087,0.00041018,0.00015221,0.00024593,0.00063169,0.06241739,0.00000000,0.00000000
1.000,1,1,1,-532.007,190.006,50.007,56.734522,-0.006721,-0.006721,-56.741243,0.000000,0.324731,0.033751,-0.996373,2.119944,1.288391,1.344358,-0.546132,1.847789,0.910297,0.813557,10.733141,-25.184174,35.917315,-14.451032,0.00000002,0.00000000,0.00000002,0.00000000,0.00000000,0.000000,0.000000,0.000000,0.000000,0.000000,0.000000,0.000000,0.000000,0.01080313,0.00528512,0.00032259,0.00095713,0.00036786,0.00000000,0.00000000,0.00387043,0.00044043,0.00016129,0.00038285,0.00073572,0.07740867,0.00000000,0.00000000
1.100,1,1,1,-532.004,190.010,50.004,56.555287,-0.011626,-0.011626,-56.566914,0.000000,0.330658,0.042467,-0.827037,2.535338,1.179423,1.297112,-0.368951,0.845113,0.816207,0.776830,10.616627,-24.973348,35.589976,-14.356721,0.00000006,0.00000000,0.00000006,0.00000000,0.00000000,0.000000,0.000000,0.000000,0.000000,0.000000,0.000000,0.000000,0.000000,0.01229804,0.00553512,0.00033088,0.00144658,0.00037873,0.00000000,0.00000000,0.00460672,0.00046126,0.00016544,0.00057863,0.00075747,0.09213442,0.00000000,0.00000000
1.200,1,1,1,-532.001,190.014,50.001,56.356362,-0.016585,-0.016585,-56.372947,0.000000,0.336759,0.046004,-0.649117,1.933733,1.042635,1.247550,-0.222198,1.833465,0.662906,0.740306,10.735959,-24.741995,35.477954,-14.006036,0.00000012,0.00000000,0.00000012,0.00000000,0.00000000,0.000000,0.000000,0.000000,0.000000,0.000000,0.000000,0.000000,0.000000,0.01351849,0.00568914,0.00033389,0.00173135,0.00042994,0.00000000,0.00000000,0.00533417,0.00047410,0.00016694,0.00069254,0.00085987,0.10668331,0.00000000,0.00000000
1.300,1,1,1,-531.997,190.019,49.997,56.140084,-0.022175,-0.022175,-56.162259,0.000000,0.343287,0.053493,-0.445629,2.105620,0.884580,1.197067,-0.056881,2.578310,0.486305,0.706070,10.715789,-24.548875,35.264664,-13.833086,0.00000021,0.00000000,0.00000020,0.00000000,0.00000000,0.000000,0.000000,0.000000,0.000000,0.000000,0.000000,0.000000,0.000000,0.01474737,0.00576172,0.00033409,0.00206892,0.00053116,0.00000000,0.00000000,0.00605148,0.00048014,0.00016704,0.00082757,0.00106233,0.12102961,0.00000000,0.00000000
1.400,1,1,1,-531.992,190.025,49.992,55.937244,-0.028764,-0.028764,-55.966008,0.000000,0.349714,0.062631,-0.242353,3.280183,0.731941,1.148174,0.121310,1.303479,0.343140,0.676879,10.632503,-24.408371,35.040875,-13.775868,0.00000033,0.00000000,0.00000033,0.00000000,0.00000000,0.000000,0.000000,0.000000,0.000000,0.000000,0.000000,0.000000,0.000000,0.01632597,0.00578322,0.00033498,0.00288942,0.00055708,0.00000000,0.00000000,0.00676126,0.00048193,0.00016749,0.00115577,0.00111415,0.13522530,0.00000000,0.00000000
1.500,1,1,1,-531.987,190.032,49.987,55.694520,-0.036252,-0.036252,-55.730772,0.000000,0.356627,0.079790,0.000428,2.306155,0.560166,1.103122,0.345180,1.847789,0.247937,0.657330,10.247925,-24.198715,34.446639,-13.950790,0.00000051,0.00000000,0.00000050,0.00000000,0.00000000,0.000000,0.000000,0.000000,0.000000,0.000000,0.000000,0.000000,0.000000,0.01748114,0.00578322,0.00034225,0.00329454,0.00060909,0.00000000,0.00000000,0.00745204,0.00048193,0.00017112,0.00131782,0.00121819,0.14904081,0.00000000,0.00000000
1.600,1,1,1,-531.981,190.039,49.981,55.440639,-0.044439,-0.044439,-55.485077,0.000000,0.363423,0.084745,0.237087,2.363451,0.403175,1.064914,0.571443,1.632930,0.281763,0.651575,10.377506,-24.029832,34.407338,-13.652325,0.00000073,0.00000000,0.00000072,0.00000000,0.00000001,0.000000,0.000000,0.000000,0.000000,0.000000,0.000000,0.000000,0.000000,0.01867179,0.00580375,0.00036212,0.00371961,0.00064967,0.00000000,0.00000000,0.00813664,0.00048365,0.00018106,0.00148784,0.00129935,0.16273276,0.00000000,0.00000000
1.700,1,1,1,-531.975,190.047,49.975,55.177231,-0.053373,-0.053373,-55.230604,0.000000,0.369826,0.090522,0.463617,1.991028,0.309442,1.035745,0.804054,1.632930,0.420923,0.662832,10.455162,-23.852898,34.308060,-13.397737,0.00000101,0.00000000,0.00000101,0.00000000,0.00000001,0.000000,0.000000,0.000000,0.000000,0.000000,0.000000,0.000000,0.000000,0.01981055,0.00588232,0.00040151,0.00402151,0.00069029,0.00000000,0.00000000,0.00881493,0.00049019,0.00020076,0.00160860,0.00138058,0.17629854,0.00000000,0.00000000
1.800,1,1,1,-531.969,190.055,49.969,54.905765,-0.063272,-0.063272,-54.969038,0.000000,0.375612,0.097973,0.688943,2.549662,0.355715,1.017538,1.063263,2.836141,0.613078,0.694657,10.438483,-23.711476,34.149959,-13.272992,0.00000139,0.00000000,0.00000138,0.00000000,0.00000001,0.000000,0.000000,0.000000,0.000000,0.000000,0.000000,0.000000,0.000000,0.02134187,0.00605584,0.00047040,0.00451662,0.00081281,0.00000000,0.00000000,0.00948619,0.00050465,0.00023520,0.00180665,0.00162563,0.18972389,0.00000000,0.00000000
1.900,1,1,1,-531.962,190.065,49.962,54.627627,-0.074124,-0.074124,-54.701751,0.000000,0.379171,0.106732,0.916299,2.277507,0.512847,1.011861,1.350779,3.222888,0.839486,0.749344,10.278946,-23.549121,33.828067,-13.270176,0.00000187,0.00000000,0.00000186,0.00000000,0.00000001,0.000000,0.000000,0.000000,0.000000,0.000000,0.000000,0.000000,0.000000,0.02297396,0.00636286,0.00058160,0.00491178,0.00097107,0.00000000,0.00000000,0.01014665,0.00053024,0.00029080,0.00196471,0.00194215,0.20293303,0.00000000,0.00000000
2.000,1,1,1,-531.954,190.075,49.954,54.343931,-0.085492,-0.085492,-54.429423,0.000000,0.381215,0.112663,1.134408,1.532662,0.709257,1.019053,1.634231,2.406423,1.088331,0.823799,10.179855,-23.377222,33.557077,-13.197367,0.00000247,0.00000000,0.00000246,0.00000000,0.00000001,0.000000,0.000000,0.000000,0.000000,0.000000,0.000000,0.000000,0.000000,0.02452369,0.00683309,0.00074424,0.00509060,0.00105924,0.00000000,0.00000000,0.01079652,0.00056942,0.00037212,0.00203624,0.00211848,0.21593045,0.00000000,0.00000000
2.100,1,1,1,-531.948,190.084,49.948,54.055494,-0.096805,-0.096805,-54.152299,0.000000,0.382323,0.114827,1.328768,2.463719,0.912996,1.037652,1.872911,2.420747,1.344148,0.909658,10.200762,-23.260078,33.460840,-13.059316,0.00000318,0.00000000,0.00000317,0.00000000,0.00000001,0.000000,0.000000,0.000000,0.000000,0.000000,0.000000,0.000000,0.000000,0.02657844,0.00747819,0.00095785,0.00555264,0.00114845,0.00000000,0.00000000,0.01144131,0.00062318,0.00047893,0.00222105,0.00229690,0.22882618,0.00000000,0.00000000
2.200,1,1,1,-531.942,190.094,49.942,53.762969,-0.107809,-0.107809,-53.870778,0.000000,0.377684,0.114648,1.495687,1.976704,1.110568,1.065231,2.053250,1.604282,1.589482,0.998413,10.080563,-23.097613,33.178177,-13.017050,0.00000430,0.00000000,0.00000429,0.00000000,0.00000001,0.000000,0.000000,0.000000,0.000000,0.000000,0.000000,0.000000,0.000000,0.02862408,0.00829561,0.00121459,0.00585008,0.00118764,0.00000000,0.00000000,0.01207617,0.00069130,0.00060729,0.00234003,0.00237527,0.24152338,0.00000000,0.00000000
2.300,1,1,1,-531.937,190.103,49.937,53.490895,-0.118741,-0.118741,-53.609636,0.000000,0.367838,0.108839,1.630093,1.174563,1.277293,1.098742,2.185849,1.131592,1.790006,1.084861,9.981138,-22.938792,32.919929,-12.957654,0.00000599,0.00000000,0.00000598,0.00000000,0.00000001,0.000000,0.000000,0.000000,0.000000,0.000000,0.000000,0.000000,0.000000,0.03063734,0.00926715,0.00150575,0.00595516,0.00120714,0.00000000,0.00000000,0.01270213,0.00077226,0.00075287,0.00238207,0.00241429,0.25404258,0.00000000,0.00000000
2.400,1,1,1,-531.932,190.113,49.932,53.192749,-0.130073,-0.130073,-53.322822,0.000000,0.358101,0.109938,1.758205,1.905085,1.446032,1.137035,2.323993,1.546986,1.984835,1.169987,9.603561,-22.820819,32.424379,-13.217258,0.00000814,0.00000000,0.00000813,0.00000000,0.00000001,0.000000,0.000000,0.000000,0.000000,0.000000,0.000000,0.000000,0.000000,0.03302151,0.01039680,0.00183469,0.00623147,0.00124358,0.00000000,0.00000000,0.01331496,0.00086640,0.00091735,0.00249259,0.00248716,0.26629920,0.00000000,0.00000000
2.500,1,1,1,-531.927,190.124,49.927,52.892697,-0.142050,-0.142050,-53.034747,0.000000,0.349887,0.112310,1.861354,1.188887,1.594465,1.177822,2.467298,1.804817,2.153055,1.254596,9.245849,-22.657454,31.903303,-13.411606,0.00001070,0.00000000,0.00001069,0.00000000,0.00000001,0.000000,0.000000,0.000000,0.000000,0.000000,0.000000,0.000000,0.000000,0.03541468,0.01166313,0.00220552,0.00633910,0.00129319,0.00000000,0.00000000,0.01391374,0.00097193,0.00110276,0.00253564,0.00258638,0.27827476,0.00000000,0.00000000
2.600,1,1,1,-531.923,190.135,49.923,52.591081,-0.154457,-0.154457,-52.745538,0.000000,0.343337,0.113035,1.929921,0.701873,1.719846,1.218464,2.598217,0.229183,2.301874,1.337800,9.031540,-22.502683,31.534223,-13.471143,0.00001365,0.00000000,0.00001363,0.00000000,0.00000001,0.000000,0.000000,0.000000,0.000000,0.000000,0.000000,0.000000,0.000000,0.03781368,0.01302461,0.00261680,0.00637661,0.00129399,0.00000000,0.00000000,0.01450167,0.00108538,0.00130840,0.00255065,0.00258798,0.29003347,0.00000000,0.00000000
2.700,1,1,1,-531.920,190.145,49.920,52.288139,-0.166834,-0.166834,-52.454973,0.000000,0.338650,0.113105,1.961388,0.071620,1.819304,1.256643,2.688853,0.988352,2.435330,1.416800,8.922126,-22.343508,31.265634,-13.421382,0.00001684,0.00000000,0.00001683,0.00000000,0.00000001,0.000000,0.000000,0.000000,0.000000,0.000000,0.000000,0.000000,0.000000,0.04025452,0.01443086,0.00305727,0.00637701,0.00130887,0.00000000,0.00000000,0.01508051,0.00120257,0.00152864,0.00255080,0.00261773,0.30161023,0.00000000,0.00000000
2.800,1,1,1,-531.919,190.150,49.920,51.984180,-0.172657,-0.172657,-52.156837,0.000000,0.336172,0.109828,1.961122,0.114592,1.890077,1.290861,2.724673,0.544310,2.549300,1.488493,9.039191,-22.202499,31.241689,-13.163308,0.00001872,0.00000000,0.00001872,0.00000000,0.00000000,0.000000,0.000000,0.000000,0.000000,0.000000,0.000000,0.000000,0.000000,0.04269234,0.01583644,0.00350947,0.00637801,0.00131338,0.00000000,0.00000000,0.01565505,0.00131970,0.00175473,0.00255120,0.00262676,0.31310100,0.00000000,0.00000000
2.900,1,1,1,-531.918,190.161,49.918,51.716160,-0.184500,-0.184500,-51.900660,0.000000,0.335830,0.096813,1.938675,-0.572958,1.927686,1.320546,2.714207,-0.673225,2.626955,1.551283,9.636725,-22.059875,31.696600,-12.423149,0.00002181,0.00000000,0.00002180,0.00000000,0.00000001,0.000000,0.000000,0.000000,0.000000,0.000000,0.000000,0.000000,0.000000,0.04512742,0.01721086,0.00395846,0.00640302,0.00132028,0.00000000,0.00000000,0.01623479,0.00143424,0.00197923,0.00256121,0.00264057,0.32469575,0.00000000,0.00000000
3.000,1,1,1,-531.918,190.171,49.918,51.411279,-0.196106,-0.196106,-51.607385,0.000000,0.337973,0.097031,1.886894,-0.372423,1.940107,1.344889,2.665278,-0.974028,2.676791,1.604450,9.770173,-21.927163,31.697336,-12.156990,0.00002480,0.00000000,0.00002479,0.00000000,0.00000001,0.000000,0.000000,0.000000,0.000000,0.000000,0.000000,0.000000,0.000000,0.04746324,0.01851250,0.00439130,0.00641358,0.00133474,0.00000000,0.00000000,0.01681112,0.00154271,0.00219565,0.00256543,0.00266947,0.33622244,0.00000000,0.00000000
3.100,1,1,1,-531.918,190.181,49.919,51.106287,-0.207713,-0.207713,-51.313999,0.000000,0.342725,0.099005,1.803225,-2.177240,1.922242,1.363266,2.583127,-0.802141,2.683765,1.647913,9.935258,-21.731224,31.666481,-11.795966,0.00002757,0.00000000,0.00002756,0.00000000,0.00000001,0.000000,0.000000,0.000000,0.000000,0.000000,0.000000,0.000000,0.000000,0.05000076,0.01970140,0.00479792,0.00677467,0.00134454,0.00000000,0.00000000,0.01738222,0.00164178,0.00239896,0.00270987,0.00268908,0.34764445,0.00000000,0.00000000
3.200,1,1,1,-531.920,190.191,49.920,50.801388,-0.219404,-0.219404,-51.020791,0.000000,0.350094,0.101376,1.686539,-1.246183,1.874969,1.375264,2.466935,-1.618606,2.648754,1.681646,10.187940,-21.622193,31.810133,-11.434253,0.00003000,0.00000000,0.00002999,0.00000000,0.00000001,0.000000,0.000000,0.000000,0.000000,0.000000,0.000000,0.000000,0.000000,0.05214033,0.02074095,0.00516862,0.00689291,0.00138443,0.00000000,0.00000000,0.01795342,0.00172841,0.00258431,0.00275717,0.00276887,0.35906846,0.00000000,0.00000000
3.300,1,1,1,-531.922,190.201,49.923,50.496783,-0.231138,-0.231138,-50.727921,0.000000,0.360099,0.102416,1.541291,-1.933733,1.798771,1.380930,2.315679,-1.933733,2.575656,1.705777,10.598505,-21.459567,32.058073,-10.861062,0.00003194,0.00000000,0.00003193,0.00000000,0.00000001,0.000000,0.000000,0.000000,0.000000,0.000000,0.000000,0.000000,0.000000,0.05424959,0.02160917,0.00549525,0.00717763,0.00144138,0.00000000,0.00000000,0.01852617,0.00180076,0.00274763,0.00287105,0.00288276,0.37052331,0.00000000,0.00000000
3.400,1,1,1,-531.925,190.212,49.926,50.192652,-0.242903,-0.242903,-50.435555,0.000000,0.372764,0.103221,1.373549,-2.005352,1.694228,1.380700,2.133950,-2.478042,2.468426,1.720772,11.119224,-21.317254,32.436478,-10.198030,0.00003323,0.00000000,0.00003322,0.00000000,0.00000001,0.000000,0.000000,0.000000,0.000000,0.000000,0.000000,0.000000,0.000000,0.05619466,0.02229887,0.00577271,0.00748390,0.00153491,0.00000000,0.00000000,0.01910427,0.00185824,0.00288635,0.00299356,0.00306983,0.38208549,0.00000000,0.00000000
3.500,1,1,1,-531.929,190.222,49.929,49.889186,-0.254787,-0.254787,-50.143974,0.000000,0.388039,0.092778,1.186567,-1.647254,1.562995,1.375220,1.929073,-2.162916,2.330048,1.727453,12.200606,-21.188008,33.388614,-8.987403,0.00003373,0.00000000,0.00003372,0.00000000,0.00000001,0.000000,0.000000,0.000000,0.000000,0.000000,0.000000,0.000000,0.000000,0.05781160,0.02281349,0.00599940,0.00769053,0.00160616,0.00000000,0.00000000,0.01970202,0.00190112,0.00299970,0.00307621,0.00321232,0.39404031,0.00000000,0.00000000
3.600,1,1,1,-531.933,190.233,49.933,49.586526,-0.266904,-0.266904,-49.853430,0.000000,0.405776,0.101591,0.980780,-2.148592,1.408083,1.365246,1.703888,-2.191564,2.163182,1.726764,12.565575,-21.031423,33.596997,-8.465848,0.00003334,0.00000000,0.00003333,0.00000000,0.00000001,0.000000,0.000000,0.000000,0.000000,0.000000,0.000000,0.000000,0.000000,0.05936520,0.02316515,0.00617630,0.00804213,0.00167932,0.00000000,0.00000000,0.02030230,0.00193043,0.00308815,0.00321685,0.00335864,0.40604595,0.00000000,0.00000000
3.700,1,1,1,-531.937,190.243,49.938,49.284806,-0.279279,-0.279279,-49.564085,0.000000,0.415179,0.107011,0.758319,-2.062648,1.233450,1.351692,1.455428,-3.179916,1.970734,1.719606,12.728709,-20.894388,33.623096,-8.165679,0.00003540,0.00000000,0.00003538,0.00000000,0.00000001,0.000000,0.000000,0.000000,0.000000,0.000000,0.000000,0.000000,0.000000,0.06078105,0.02337535,0.00630535,0.00836613,0.00183333,0.00000000,0.00000000,0.02090088,0.00194795,0.00315268,0.00334645,0.00366667,0.41801769,0.00000000,0.00000000
3.800,1,1,1,-531.941,190.254,49.942,48.984188,-0.291834,-0.291834,-49.276022,0.000000,0.422574,0.113448,0.523449,-2.549662,1.043392,1.335640,1.181248,-3.222888,1.755712,1.706947,12.774735,-20.740112,33.514847,-7.965377,0.00003826,0.00000000,0.00003825,0.00000000,0.00000001,0.000000,0.000000,0.000000,0.000000,0.000000,0.000000,0.000000,0.000000,0.06221275,0.02347550,0.00639036,0.00886116,0.00199153,0.00000000,0.00000000,0.02149420,0.00195629,0.00319518,0.00354447,0.00398306,0.42988400,0.00000000,0.00000000
3.900,1,1,1,-531.946,190.265,49.947,48.684836,-0.304532,-0.304532,-48.989368,0.000000,0.428378,0.117223,0.281297,-2.563986,0.842836,1.318278,0.886019,-3.666930,1.520974,1.690010,12.874754,-20.602674,33.477428,-7.727920,0.00004117,0.00000000,0.00004116,0.00000000,0.00000001,0.000000,0.000000,0.000000,0.000000,0.000000,0.000000,0.000000,0.000000,0.06358518,0.02350443,0.00643818,0.00936181,0.00219633,0.00000000,0.00000000,0.02208444,0.00195870,0.00321909,0.00374472,0.00439266,0.44168870,0.00000000,0.00000000
4.000,1,1,1,-531.951,190.277,49.951,48.386898,-0.317460,-0.317460,-48.704358,0.000000,0.433947,0.119449,0.036079,-2.449395,0.639620,1.300832,0.581779,-3.208564,1.269973,1.670296,13.035513,-20.470551,33.506064,-7.435038,0.00004416,0.00000000,0.00004415,0.00000000,0.00000001,0.000000,0.000000,0.000000,0.000000,0.000000,0.000000,0.000000,0.000000,0.06480878,0.02350490,0.00645880,0.00981864,0.00235311,0.00000000,0.00000000,0.02267333,0.00195874,0.00322940,0.00392746,0.00470622,0.45346656,0.00000000,0.00000000
4.100,1,1,1,-531.955,190.288,49.956,48.090465,-0.330780,-0.330780,-48.421245,0.000000,0.439559,0.122646,-0.208814,-2.635606,0.451385,1.284473,0.281400,-2.091296,1.008752,1.649348,13.161954,-20.330717,33.492671,-7.168763,0.00004731,0.00000000,0.00004729,0.00000000,0.00000001,0.000000,0.000000,0.000000,0.000000,0.000000,0.000000,0.000000,0.000000,0.06601234,0.02352085,0.00646363,0.01034791,0.00241976,0.00000000,0.00000000,0.02326020,0.00196007,0.00323181,0.00413916,0.00483951,0.46520402,0.00000000,0.00000000
4.200,1,1,1,-531.959,190.300,49.960,47.795598,-0.344593,-0.344593,-48.140192,0.000000,0.445096,0.110217,-0.449760,-2.578310,0.327319,1.270311,-0.008106,-3.495043,0.749008,1.628606,13.933361,-20.200966,34.134327,-6.267605,0.00005070,0.00000000,0.00005068,0.00000000,0.00000001,0.000000,0.000000,0.000000,0.000000,0.000000,0.000000,0.000000,0.000000,0.06738047,0.02359478,0.00646363,0.01085403,0.00260576,0.00000000,0.00000000,0.02386227,0.00196623,0.00323182,0.00434161,0.00521152,0.47724535,0.00000000,0.00000000
4.300,1,1,1,-531.962,190.313,49.963,47.502363,-0.358888,-0.358888,-47.861251,0.000000,0.450443,0.118810,-0.683011,-2.334803,0.352992,1.259251,-0.286508,-2.478042,0.516011,1.609246,13.815732,-20.079167,33.894899,-6.263435,0.00005438,0.00000000,0.00005437,0.00000000,0.00000002,0.000000,0.000000,0.000000,0.000000,0.000000,0.000000,0.000000,0.000000,0.06865860,0.02376529,0.00646863,0.01126914,0.00269928,0.00000000,0.00000000,0.02445627,0.00198044,0.00323432,0.00450766,0.00539856,0.48912532,0.00000000,0.00000000
4.400,1,1,1,-531.965,190.326,49.966,47.210796,-0.373596,-0.373596,-47.584392,0.000000,0.455505,0.124857,-0.903947,-2.334803,0.503614,1.251963,-0.554691,-3.208564,0.375729,1.592274,13.805280,-19.952122,33.757402,-6.146842,0.00005842,0.00000000,0.00005840,0.00000000,0.00000002,0.000000,0.000000,0.000000,0.000000,0.000000,0.000000,0.000000,0.000000,0.07013675,0.02406400,0.00648738,0.01168431,0.00285609,0.00000000,0.00000000,0.02504498,0.00200533,0.00324369,0.00467372,0.00571218,0.50089951,0.00000000,0.00000000
4.500,1,1,1,-531.967,190.339,49.968,46.920931,-0.388665,-0.388665,-47.309596,0.000000,0.460202,0.129030,-1.109765,-1.375099,0.696143,1.248841,-0.809501,-2.807493,0.422494,1.578487,13.865421,-19.857477,33.722898,-5.992056,0.00006286,0.00000000,0.00006284,0.00000000,0.00000002,0.000000,0.000000,0.000000,0.000000,0.000000,0.000000,0.000000,0.000000,0.07147725,0.02451411,0.00652729,0.01182828,0.00297612,0.00000000,0.00000000,0.02563145,0.00204284,0.00326365,0.00473131,0.00595224,0.51262892,0.00000000,0.00000000
4.600,1,1,1,-531.969,190.352,49.970,46.632755,-0.404126,-0.404126,-47.036881,0.000000,0.464481,0.132751,-1.298122,-2.320479,0.895599,1.249982,-1.043867,-1.776169,0.599897,1.568361,13.931870,-19.705321,33.637190,-5.773451,0.00006779,0.00000000,0.00006777,0.00000000,0.00000002,0.000000,0.000000,0.000000,0.000000,0.000000,0.000000,0.000000,0.000000,0.07320029,0.02513015,0.00659369,0.01223838,0.00302417,0.00000000,0.00000000,0.02621390,0.00209418,0.00329684,0.00489535,0.00604835,0.52427797,0.00000000,0.00000000
4.700,1,1,1,-531.969,190.366,49.971,46.369106,-0.420038,-0.420038,-46.789144,0.000000,0.467994,0.135991,-1.453528,-1.919409,1.070107,1.254868,-1.234994,-1.518338,0.790490,1.561721,13.990485,-19.613289,33.603774,-5.622804,0.00007330,0.00000000,0.00007328,0.00000000,0.00000002,0.000000,0.000000,0.000000,0.000000,0.000000,0.000000,0.000000,0.000000,0.07496314,0.02590312,0.00668669,0.01251919,0.00305932,0.00000000,0.00000000,0.02679482,0.00215859,0.00334334,0.00500768,0.00611863,0.53589642,0.00000000,0.00000000
4.800,1,1,1,-531.969,190.381,49.971,46.084084,-0.436422,-0.436422,-46.520506,0.000000,0.471426,0.122790,-1.599988,-1.432394,1.251873,1.263372,-1.411697,-1.518338,1.001116,1.558614,14.726568,-19.512975,34.239544,-4.786407,0.00007944,0.00000000,0.00007942,0.00000000,0.00000002,0.000000,0.000000,0.000000,0.000000,0.000000,0.000000,0.000000,0.000000,0.07680880,0.02683863,0.00680807,0.01267540,0.00309442,0.00000000,0.00000000,0.02739228,0.00223655,0.00340403,0.00507016,0.00618884,0.54784567,0.00000000,0.00000000
4.900,1,1,1,-531.968,190.395,49.970,45.800608,-0.453266,-0.453266,-46.253874,0.000000,0.460702,0.133662,-1.720992,-0.730521,1.416556,1.274820,-1.554383,-1.131592,1.195856,1.558524,13.870805,-19.421706,33.292511,-5.550901,0.00009673,0.00000000,0.00009671,0.00000000,0.00000002,0.000000,0.000000,0.000000,0.000000,0.000000,0.000000,0.000000,0.000000,0.07866843,0.02792131,0.00695527,0.01271604,0.00311392,0.00000000,0.00000000,0.02796189,0.00232678,0.00347763,0.00508642,0.00622785,0.55923784,0.00000000,0.00000000
5.000,1,1,1,-531.966,190.410,49.968,45.518603,-0.470552,-0.470552,-45.989155,0.000000,0.451278,0.141621,-1.814199,-0.845113,1.560661,1.288366,-1.661392,0.286479,1.366436,1.560737,13.221751,-19.307705,32.529456,-6.085953,0.00011485,0.00000000,0.00011482,0.00000000,0.00000002,0.000000,0.000000,0.000000,0.000000,0.000000,0.000000,0.000000,0.000000,0.08064363,0.02912484,0.00712349,0.01277045,0.00311517,0.00000000,0.00000000,0.02850968,0.00242707,0.00356174,0.00510818,0.00623035,0.57019367,0.00000000,0.00000000
5.100,1,1,1,-531.963,190.426,49.965,45.238003,-0.488248,-0.488248,-45.726251,0.000000,0.443725,0.148445,-1.879853,0.186211,1.681482,1.303120,-1.729480,-0.644578,1.507373,1.564361,12.716864,-19.233062,31.949927,-6.516198,0.00013322,0.00000000,0.00013319,0.00000000,0.00000002,0.000000,0.000000,0.000000,0.000000,0.000000,0.000000,0.000000,0.000000,0.08265765,0.03041623,0.00730566,0.01277309,0.00312150,0.00000000,0.00000000,0.02904116,0.00253469,0.00365283,0.00510924,0.00624300,0.58082322,0.00000000,0.00000000
5.200,1,1,1,-531.959,190.442,49.961,44.958723,-0.506347,-0.506347,-45.465070,0.000000,0.437695,0.154589,-1.918103,0.845113,1.777232,1.318243,-1.755868,-0.444042,1.614767,1.568423,12.315092,-19.148041,31.463133,-6.832949,0.00015143,0.00000000,0.00015141,0.00000000,0.00000002,0.000000,0.000000,0.000000,0.000000,0.000000,0.000000,0.000000,0.000000,0.08476732,0.03176191,0.00749361,0.01282751,0.00312450,0.00000000,0.00000000,0.02955978,0.00264683,0.00374680,0.00513100,0.00624901,0.59119563,0.00000000,0.00000000
5.300,1,1,1,-531.955,190.458,49.957,44.680633,-0.524813,-0.524813,-45.205446,0.000000,0.433758,0.160601,-1.927951,0.888085,1.846738,1.332866,-1.740172,-0.243507,1.685885,1.571967,12.011209,-19.046506,31.057715,-7.035297,0.00016904,0.00000000,0.00016902,0.00000000,0.00000003,0.000000,0.000000,0.000000,0.000000,0.000000,0.000000,0.000000,0.000000,0.08687628,0.03311918,0.00767790,0.01288751,0.00312541,0.00000000,0.00000000,0.03006628,0.00275993,0.00383895,0.00515500,0.00625081,0.60132559,0.00000000,0.00000000
5.400,1,1,1,-531.949,190.474,49.951,44.436831,-0.543566,-0.543566,-44.980397,0.000000,0.432554,0.160981,-1.912217,0.558634,1.886089,1.346373,-1.693392,0.587282,1.717430,1.574393,12.054225,-18.953362,31.007587,-6.899136,0.00018520,0.00000000,0.00018517,0.00000000,0.00000003,0.000000,0.000000,0.000000,0.000000,0.000000,0.000000,0.000000,0.000000,0.08892316,0.03445711,0.00785277,0.01291130,0.00313067,0.00000000,0.00000000,0.03057131,0.00287143,0.00392639,0.00516452,0.00626133,0.61142613,0.00000000,0.00000000
5.500,1,1,1,-531.942,190.490,49.945,44.160794,-0.562530,-0.562530,-44.723324,0.000000,0.434106,0.211293,-1.866995,0.214859,1.903634,1.358038,-1.605841,0.615930,1.715899,1.574992,10.144496,-18.848029,28.992525,-8.703533,0.00020019,0.00000000,0.00020016,0.00000000,0.00000003,0.000000,0.000000,0.000000,0.000000,0.000000,0.000000,0.000000,0.000000,0.09082073,0.03573050,0.00800979,0.01291481,0.00313644,0.00000000,0.00000000,0.03102919,0.00297754,0.00400489,0.00516593,0.00627288,0.62058380,0.00000000,0.00000000
5.600,1,1,1,-531.935,190.507,49.937,43.885796,-0.581646,-0.581646,-44.467443,0.000000,0.438673,0.195541,-1.793564,1.074296,1.893355,1.367359,-1.483200,1.661578,1.676461,1.573342,11.130623,-18.783642,29.914265,-7.653019,0.00021287,0.00000000,0.00021284,0.00000000,0.00000003,0.000000,0.000000,0.000000,0.000000,0.000000,0.000000,0.000000,0.000000,0.09273618,0.03690570,0.00814373,0.01300265,0.00317846,0.00000000,0.00000000,0.03150562,0.00307548,0.00407187,0.00520106,0.00635693,0.63011249,0.00000000,0.00000000
5.700,1,1,1,-531.927,190.524,49.929,43.611819,-0.600898,-0.600898,-44.212717,0.000000,0.446282,0.189103,-1.696279,0.329451,1.855597,1.374046,-1.325723,1.461042,1.600543,1.569186,11.812987,-18.670417,30.483404,-6.857429,0.00022267,0.00000000,0.00022264,0.00000000,0.00000003,0.000000,0.000000,0.000000,0.000000,0.000000,0.000000,0.000000,0.000000,0.09442493,0.03795810,0.00825087,0.01301092,0.00321100,0.00000000,0.00000000,0.03199404,0.00316318,0.00412543,0.00520437,0.00642199,0.63988074,0.00000000,0.00000000
5.800,1,1,1,-531.918,190.540,49.921,43.338840,-0.620330,-0.620330,-43.959170,0.000000,0.455954,0.191650,-1.576106,1.661578,1.791495,1.377913,-1.134891,2.048324,1.490205,1.562491,12.182352,-18.625248,30.807599,-6.442896,0.00022910,0.00000000,0.00022907,0.00000000,0.00000003,0.000000,0.000000,0.000000,0.000000,0.000000,0.000000,0.000000,0.000000,0.09618039,0.03886588,0.00832931,0.01322111,0.00327488,0.00000000,0.00000000,0.03248920,0.00323882,0.00416466,0.00528844,0.00654976,0.64978402,0.00000000,0.00000000
5.900,1,1,1,-531.908,190.557,49.911,43.066821,-0.639929,-0.639929,-43.706750,0.000000,0.467823,0.190879,-1.432792,1.561310,1.702465,1.378894,-0.913306,2.778845,1.347864,1.553442,12.765488,-18.535023,31.300511,-5.769535,0.00023169,0.00000000,0.00023166,0.00000000,0.00000003,0.000000,0.000000,0.000000,0.000000,0.000000,0.000000,0.000000,0.000000,0.09779137,0.03961629,0.00838013,0.01340675,0.00339249,0.00000000,0.00000000,0.03299570,0.00330136,0.00419007,0.00536270,0.00678499,0.65991408,0.00000000,0.00000000
6.000,1,1,1,-531.897,190.575,49.900,42.795734,-0.659669,-0.659669,-43.455403,0.000000,0.482093,0.195615,-1.268273,1.546986,1.590166,1.377063,-0.665279,1.518338,1.176484,1.542471,13.203573,-18.450279,31.653852,-5.246706,0.00022997,0.00000000,0.00022994,0.00000000,0.00000003,0.000000,0.000000,0.000000,0.000000,0.000000,0.000000,0.000000,0.000000,0.09913807,0.04020412,0.00840709,0.01358895,0.00342760,0.00000000,0.00000000,0.03351031,0.00335034,0.00420354,0.00543558,0.00685519,0.67020629,0.00000000,0.00000000
6.100,1,1,1,-531.885,190.592,49.889,42.525625,-0.679549,-0.679549,-43.205174,0.000000,0.498596,0.200256,-1.086624,1.059972,1.456765,1.372648,-0.396020,2.162916,0.980768,1.530201,13.728156,-18.353088,32.081244,-4.624932,0.00022356,0.00000000,0.00022353,0.00000000,0.00000003,0.000000,0.000000,0.000000,0.000000,0.000000,0.000000,0.000000,0.000000,0.10026231,0.04063610,0.00841665,0.01367459,0.00349891,0.00000000,0.00000000,0.03403606,0.00338634,0.00420833,0.00546984,0.00699782,0.68072128,0.00000000,0.00000000
6.200,1,1,1,-531.873,190.609,49.877,42.256534,-0.699575,-0.699575,-42.956109,0.000000,0.510427,0.232659,-0.892299,2.463719,1.304501,1.366026,-0.110393,2.578310,0.769254,1.517460,12.906598,-18.316249,31.222847,-5.409651,0.00022325,0.00000000,0.00022322,0.00000000,0.00000003,0.000000,0.000000,0.000000,0.000000,0.000000,0.000000,0.000000,0.000000,0.10162006,0.04092723,0.00841739,0.01413697,0.00360019,0.00000000,0.00000000,0.03453827,0.00341060,0.00420870,0.00565479,0.00720038,0.69076549,0.00000000,0.00000000
6.300,1,1,1,-531.860,190.626,49.864,41.988431,-0.719715,-0.719715,-42.708146,0.000000,0.514671,0.226905,-0.687415,1.819141,1.136206,1.357644,0.187621,2.821817,0.560289,1.505170,13.375878,-18.213966,31.589844,-4.838088,0.00023515,0.00000000,0.00023512,0.00000000,0.00000003,0.000000,0.000000,0.000000,0.000000,0.000000,0.000000,0.000000,0.000000,0.10267814,0.04109984,0.00841954,0.01438881,0.00372138,0.00000000,0.00000000,0.03504857,0.00342499,0.00420977,0.00575552,0.00744276,0.70097150,0.00000000,0.00000000
6.400,1,1,1,-531.847,190.644,49.851,41.721306,-0.739914,-0.739914,-42.461220,0.000000,0.519082,0.222348,-0.475197,1.976704,0.955806,1.348004,0.493458,3.108296,0.404881,1.494299,13.790388,-18.139073,31.929461,-4.348685,0.00024701,0.00000000,0.00024698,0.00000000,0.00000003,0.000000,0.000000,0.000000,0.000000,0.000000,0.000000,0.000000,0.000000,0.10373927,0.04118237,0.00843437,0.01468633,0.00386851,0.00000000,0.00000000,0.03556770,0.00343186,0.00421718,0.00587453,0.00773702,0.71135393,0.00000000,0.00000000
6.500,1,1,1,-531.833,190.661,49.837,41.455188,-0.760127,-0.760127,-42.215316,0.000000,0.523600,0.223536,-0.257866,1.418071,0.768430,1.337660,0.800976,2.563986,0.411518,1.485825,13.964289,-18.042410,32.006699,-4.078121,0.00025884,0.00000000,0.00025881,0.00000000,0.00000003,0.000000,0.000000,0.000000,0.000000,0.000000,0.000000,0.000000,0.000000,0.10457625,0.04120667,0.00847345,0.01483943,0.00396861,0.00000000,0.00000000,0.03608809,0.00343389,0.00423672,0.00593577,0.00793723,0.72176184,0.00000000,0.00000000
6.600,1,1,1,-531.818,190.679,49.823,41.190103,-0.780306,-0.780306,-41.970409,0.000000,0.528158,0.223747,-0.038442,2.621282,0.581408,1.327177,1.103899,3.509366,0.589342,1.480615,14.180670,-18.001296,32.181966,-3.820626,0.00027067,0.00000000,0.00027064,0.00000000,0.00000003,0.000000,0.000000,0.000000,0.000000,0.000000,0.000000,0.000000,0.000000,0.10588699,0.04120721,0.00854769,0.01536268,0.00415619,0.00000000,0.00000000,0.03661322,0.00343393,0.00427384,0.00614507,0.00831238,0.73226445,0.00000000,0.00000000
6.700,1,1,1,-531.803,190.696,49.808,40.926042,-0.800422,-0.800422,-41.726464,0.000000,0.532687,0.224933,0.178881,2.034000,0.409490,1.317116,1.396788,1.862113,0.838574,1.479362,14.354997,-17.901845,32.256842,-3.546848,0.00028257,0.00000000,0.00028254,0.00000000,0.00000003,0.000000,0.000000,0.000000,0.000000,0.000000,0.000000,0.000000,0.000000,0.10691192,0.04121891,0.00866654,0.01567773,0.00420900,0.00000000,0.00000000,0.03713974,0.00343491,0.00433327,0.00627109,0.00841800,0.74279484,0.00000000,0.00000000
6.800,1,1,1,-531.789,190.713,49.794,40.684006,-0.820465,-0.820465,-41.504471,0.000000,0.536827,0.226898,0.373617,1.561310,0.300498,1.307897,1.653654,2.449395,1.081880,1.482159,14.482107,-17.815429,32.297536,-3.333322,0.00029465,0.00000000,0.00029462,0.00000000,0.00000003,0.000000,0.000000,0.000000,0.000000,0.000000,0.000000,0.000000,0.000000,0.10793495,0.04126999,0.00883335,0.01586360,0.00430049,0.00000000,0.00000000,0.03766752,0.00343917,0.00441667,0.00634544,0.00860098,0.75335031,0.00000000,0.00000000
6.900,1,1,1,-531.774,190.730,49.779,40.421920,-0.840418,-0.840418,-41.262338,0.000000,0.541116,0.240266,0.577169,1.489690,0.300631,1.300017,1.915741,2.105620,1.354988,1.489556,14.147661,-17.733559,31.881220,-3.585898,0.00030699,0.00000000,0.00030696,0.00000000,0.00000003,0.000000,0.000000,0.000000,0.000000,0.000000,0.000000,0.000000,0.000000,0.10903107,0.04139172,0.00905686,0.01603254,0.00436799,0.00000000,0.00000000,0.03818196,0.00344931,0.00452843,0.00641302,0.00873599,0.76363919,0.00000000,0.00000000
7.000,1,1,1,-531.759,190.747,49.765,40.160896,-0.860240,-0.860240,-41.021136,0.000000,0.543339,0.234276,0.770564,1.991028,0.421830,1.293799,2.156469,1.790493,1.621397,1.501515,14.541060,-17.668229,32.209289,-3.127169,0.00031970,0.00000000,0.00031967,0.00000000,0.00000003,0.000000,0.000000,0.000000,0.000000,0.000000,0.000000,0.000000,0.000000,0.11040626,0.04160885,0.00934028,0.01633454,0.00441684,0.00000000,0.00000000,0.03870576,0.00346740,0.00467014,0.00653382,0.00883368,0.77411517,0.00000000,0.00000000
7.100,1,1,1,-531.745,190.764,49.751,39.900935,-0.879901,-0.879901,-40.780836,0.000000,0.543737,0.229630,0.950811,1.905085,0.587381,1.289482,2.371655,1.088620,1.874433,1.517686,14.795099,-17.582232,32.377331,-2.787133,0.00033288,0.00000000,0.00033285,0.00000000,0.00000003,0.000000,0.000000,0.000000,0.000000,0.000000,0.000000,0.000000,0.000000,0.11190125,0.04193917,0.00968281,0.01661082,0.00443488,0.00000000,0.00000000,0.03923357,0.00349493,0.00484141,0.00664433,0.00886977,0.78467135,0.00000000,0.00000000
7.200,1,1,1,-531.731,190.781,49.737,39.642021,-0.899387,-0.899387,-40.541408,0.000000,0.544150,0.225279,1.115405,1.403747,0.760988,1.287161,2.556882,2.506690,2.108794,1.537485,15.034618,-17.482480,32.517098,-2.447862,0.00034662,0.00000000,0.00034659,0.00000000,0.00000003,0.000000,0.000000,0.000000,0.000000,0.000000,0.000000,0.000000,0.000000,0.11353179,0.04239396,0.01008111,0.01676088,0.00453059,0.00000000,0.00000000,0.03976525,0.00353283,0.00504056,0.00670435,0.00906117,0.79530500,0.00000000,0.00000000
7.300,1,1,1,-531.718,190.797,49.724,39.384165,-0.918690,-0.918690,-40.302855,0.000000,0.544639,0.221062,1.262104,0.701873,0.929686,1.286812,2.708709,1.375099,2.319869,1.560100,15.269987,-17.376411,32.646399,-2.106424,0.00036101,0.00000000,0.00036098,0.00000000,0.00000003,0.000000,0.000000,0.000000,0.000000,0.000000,0.000000,0.000000,0.000000,0.11516264,0.04297628,0.01052816,0.01679840,0.00455939,0.00000000,0.00000000,0.04030041,0.00358136,0.00526408,0.00671936,0.00911878,0.80600826,0.00000000,0.00000000
7.400,1,1,1,-531.705,190.814,49.711,39.127395,-0.937815,-0.937815,-40.065211,0.000000,0.545272,0.216242,1.389160,0.544310,1.087391,1.288288,2.824916,1.246183,2.503611,1.584587,15.534868,-17.286950,32.821818,-1.752081,0.00037609,0.00000000,0.00037606,0.00000000,0.00000003,0.000000,0.000000,0.000000,0.000000,0.000000,0.000000,0.000000,0.000000,0.11694001,0.04368145,0.01101417,0.01682095,0.00458303,0.00000000,0.00000000,0.04084040,0.00364012,0.00550709,0.00672838,0.00916607,0.81680798,0.00000000,0.00000000
7.500,1,1,1,-531.693,190.830,49.700,38.871729,-0.956777,-0.956777,-39.828505,0.000000,0.546119,0.211342,1.495254,1.188887,1.230338,1.291348,2.904233,0.315127,2.656603,1.609993,15.810307,-17.220214,33.030521,-1.409907,0.00039190,0.00000000,0.00039187,0.00000000,0.00000003,0.000000,0.000000,0.000000,0.000000,0.000000,0.000000,0.000000,0.000000,0.11892718,0.04449888,0.01152813,0.01692862,0.00458455,0.00000000,0.00000000,0.04138700,0.00370824,0.00576407,0.00677145,0.00916909,0.82774008,0.00000000,0.00000000
7.600,1,1,1,-531.681,190.846,49.688,38.617150,-0.975597,-0.975597,-39.592747,0.000000,0.540529,0.218283,1.579329,0.630254,1.355915,1.295668,2.945915,1.203211,2.776207,1.635343,15.331229,-17.112864,32.444093,-1.781635,0.00042886,0.00000000,0.00042883,0.00000000,0.00000003,0.000000,0.000000,0.000000,0.000000,0.000000,0.000000,0.000000,0.000000,0.12094844,0.04541090,0.01205701,0.01695887,0.00460660,0.00000000,0.00000000,0.04191506,0.00378424,0.00602850,0.00678355,0.00921321,0.83830111,0.00000000,0.00000000
7.700,1,1,1,-531.670,190.862,49.678,38.363647,-0.994285,-0.994285,-39.357932,0.000000,0.531329,0.207933,1.641048,0.615930,1.462273,1.300875,2.949868,-0.744845,2.860645,1.659728,15.436756,-17.021905,32.458662,-1.585149,0.00048038,0.00000000,0.00048036,0.00000000,0.00000003,0.000000,0.000000,0.000000,0.000000,0.000000,0.000000,0.000000,0.000000,0.12302799,0.04639514,0.01258705,0.01698776,0.00461505,0.00000000,0.00000000,0.04244300,0.00386626,0.00629352,0.00679510,0.00923010,0.84885993,0.00000000,0.00000000
7.800,1,1,1,-531.661,190.878,49.668,38.111234,-1.012867,-1.012867,-39.124101,0.000000,0.524701,0.200183,1.678666,0.243507,1.547961,1.306555,2.916466,-1.059972,2.908947,1.682370,15.541019,-16.917979,32.458999,-1.376960,0.00052771,0.00000000,0.00052769,0.00000000,0.00000003,0.000000,0.000000,0.000000,0.000000,0.000000,0.000000,0.000000,0.000000,0.12512569,0.04742523,0.01310526,0.01699228,0.00463217,0.00000000,0.00000000,0.04297075,0.00395210,0.00655263,0.00679691,0.00926433,0.85941504,0.00000000,0.00000000
7.900,1,1,1,-531.652,190.894,49.660,37.859923,-1.031373,-1.031373,-38.891295,0.000000,0.520789,0.193717,1.691987,-0.200535,1.611776,1.312285,2.846319,-1.203211,2.920747,1.702589,15.704247,-16.810904,32.515151,-1.106657,0.00056973,0.00000000,0.00056970,0.00000000,0.00000003,0.000000,0.000000,0.000000,0.000000,0.000000,0.000000,0.000000,0.000000,0.12721954,0.04847144,0.01359871,0.01699534,0.00465421,0.00000000,0.00000000,0.04349985,0.00403929,0.00679935,0.00679813,0.00930842,0.86999692,0.00000000,0.00000000
8.000,1,1,1,-531.643,190.910,49.652,37.609757,-1.049822,-1.049822,-38.659578,0.000000,0.519695,0.187016,1.681918,0.716197,1.652998,1.317680,2.740617,-1.833465,2.896182,1.719865,15.991566,-16.744707,32.736273,-0.753140,0.00060539,0.00000000,0.00060536,0.00000000,0.00000003,0.000000,0.000000,0.000000,0.000000,0.000000,0.000000,0.000000,0.000000,0.12933742,0.04950542,0.01405627,0.01703440,0.00470541,0.00000000,0.00000000,0.04403592,0.00412545,0.00702814,0.00681376,0.00941081,0.88071844,0.00000000,0.00000000
8.100,1,1,1,-531.636,190.926,49.644,37.360742,-1.068242,-1.068242,-38.428984,0.000000,0.521474,0.181742,1.649432,0.458366,1.671387,1.322397,2.601082,-2.764521,2.835904,1.733813,16.333557,-16.638400,32.971957,-0.304842,0.00063379,0.00000000,0.00063377,0.00000000,0.00000003,0.000000,0.000000,0.000000,0.000000,0.000000,0.000000,0.000000,0.000000,0.13141904,0.05049940,0.01446824,0.01705039,0.00482175,0.00000000,0.00000000,0.04457926,0.00420828,0.00723412,0.00682016,0.00964350,0.89158517,0.00000000,0.00000000
8.200,1,1,1,-531.629,190.941,49.638,37.112869,-1.086682,-1.086682,-38.199551,0.000000,0.526160,0.177521,1.594964,-0.845113,1.666988,1.326153,2.430000,-1.933733,2.741047,1.744240,16.746537,-16.499752,33.246289,0.246786,0.00065413,0.00000000,0.00065411,0.00000000,0.00000003,0.000000,0.000000,0.000000,0.000000,0.000000,0.000000,0.000000,0.000000,0.13337439,0.05143010,0.01482830,0.01710483,0.00487875,0.00000000,0.00000000,0.04513242,0.00428584,0.00741415,0.00684193,0.00975750,0.90264841,0.00000000,0.00000000
8.300,1,1,1,-531.623,190.957,49.632,36.866201,-1.105214,-1.105214,-37.971415,0.000000,0.533759,0.186140,1.518047,-0.401070,1.640156,1.328690,2.230348,-1.862113,2.613267,1.751062,16.744169,-16.416602,33.160771,0.327567,0.00066574,0.00000000,0.00066572,0.00000000,0.00000003,0.000000,0.000000,0.000000,0.000000,0.000000,0.000000,0.000000,0.000000,0.13513427,0.05227224,0.01513127,0.01711707,0.00493155,0.00000000,0.00000000,0.04568214,0.00435602,0.00756564,0.00684683,0.00986309,0.91364272,0.00000000,0.00000000
8.400,1,1,1,-531.617,190.973,49.626,36.620770,-1.123845,-1.123845,-37.744614,0.000000,0.544218,0.179335,1.422954,-1.002676,1.591784,1.329880,2.005980,-2.836141,2.454850,1.754392,17.502389,-16.298994,33.801383,1.203395,0.00066808,0.00000000,0.00066805,0.00000000,0.00000003,0.000000,0.000000,0.000000,0.000000,0.000000,0.000000,0.000000,0.000000,0.13688961,0.05301195,0.01537628,0.01719359,0.00505399,0.00000000,0.00000000,0.04625379,0.00441766,0.00768814,0.00687744,0.01010798,0.92507588,0.00000000,0.00000000
8.500,1,1,1,-531.611,190.990,49.621,36.405821,-1.142640,-1.142640,-37.548461,0.000000,0.555913,0.176107,1.324070,-1.905085,1.530830,1.329810,1.791405,-3.394775,2.288580,1.754843,18.147862,-16.188841,34.336703,1.959021,0.00066416,0.00000000,0.00066414,0.00000000,0.00000003,0.000000,0.000000,0.000000,0.000000,0.000000,0.000000,0.000000,0.000000,0.13877097,0.05365337,0.01557196,0.01747022,0.00522967,0.00000000,0.00000000,0.04684574,0.00447111,0.00778598,0.00698809,0.01045934,0.93691478,0.00000000,0.00000000
8.600,1,1,1,-531.606,191.006,49.616,36.162749,-1.161669,-1.161669,-37.324419,0.000000,0.571567,0.174555,1.195779,-1.131592,1.444699,1.328294,1.531796,-3.122620,2.080550,1.752355,18.878072,-16.114987,34.993059,2.763085,0.00064785,0.00000000,0.00064782,0.00000000,0.00000003,0.000000,0.000000,0.000000,0.000000,0.000000,0.000000,0.000000,0.000000,0.14029835,0.05417593,0.01571488,0.01756772,0.00537815,0.00000000,0.00000000,0.04746167,0.00451466,0.00785744,0.00702709,0.01075630,0.94923342,0.00000000,0.00000000
8.700,1,1,1,-531.603,191.015,49.613,35.920958,-1.171678,-1.171678,-37.092637,0.000000,0.589921,0.166904,1.052184,-1.231859,1.340579,1.325378,1.259405,-1.890761,1.851966,1.747361,19.960955,-16.006788,35.967743,3.954167,0.00061154,0.00000000,0.00061154,0.00000000,0.00000001,0.000000,0.000000,0.000000,0.000000,0.000000,0.000000,0.000000,0.000000,0.14162522,0.05458089,0.01581158,0.01768336,0.00543264,0.00000000,0.00000000,0.04811676,0.00454841,0.00790579,0.00707334,0.01086527,0.96233520,0.00000000,0.00000000
8.800,1,1,1,-531.598,191.031,49.608,35.699646,-1.191173,-1.191173,-36.890819,0.000000,0.596051,0.163749,0.908672,-1.518338,1.233092,1.321294,1.001120,-2.306155,1.632274,1.740533,20.337430,-15.908271,36.245702,4.429159,0.00062492,0.00000000,0.00062489,0.00000000,0.00000003,0.000000,0.000000,0.000000,0.000000,0.000000,0.000000,0.000000,0.000000,0.14290960,0.05488230,0.01587255,0.01785868,0.00551353,0.00000000,0.00000000,0.04878254,0.00457352,0.00793628,0.00714347,0.01102706,0.97565072,0.00000000,0.00000000
8.900,1,1,1,-531.592,191.048,49.603,35.460339,-1.211025,-1.211025,-36.671364,0.000000,0.599661,0.169154,0.743526,-1.589958,1.100199,1.316095,0.716386,-3.738550,1.377461,1.732206,20.264347,-15.806078,36.070425,4.458269,0.00064393,0.00000000,0.00064390,0.00000000,0.00000003,0.000000,0.000000,0.000000,0.000000,0.000000,0.000000,0.000000,0.000000,0.14420865,0.05508435,0.01590382,0.01805117,0.00572638,0.00000000,0.00000000,0.04944293,0.00459036,0.00795191,0.00722047,0.01145276,0.98885854,0.00000000,0.00000000
9.000,1,1,1,-531.586,191.066,49.598,35.250848,-1.231258,-1.231258,-36.482106,0.000000,0.603010,0.151692,0.591954,-1.518338,0.970437,1.310115,0.466482,-3.280183,1.143154,1.723051,21.141948,-15.725130,36.867078,5.416818,0.00066301,0.00000000,0.00066298,0.00000000,0.00000003,0.000000,0.000000,0.000000,0.000000,0.000000,0.000000,0.000000,0.000000,0.14538395,0.05521247,0.01591708,0.01822677,0.00589029,0.00000000,0.00000000,0.05013734,0.00460104,0.00795854,0.00729071,0.01178058,1.00274676,0.00000000,0.00000000
9.100,1,1,1,-531.580,191.083,49.592,35.014049,-1.251909,-1.251909,-36.265958,0.000000,0.606842,0.169843,0.413229,-1.618606,0.817521,1.303469,0.187607,-2.549662,0.884052,1.713457,20.560437,-15.622199,36.182636,4.938238,0.00068232,0.00000000,0.00068229,0.00000000,0.00000003,0.000000,0.000000,0.000000,0.000000,0.000000,0.000000,0.000000,0.000000,0.14641401,0.05527490,0.01591922,0.01842632,0.00598932,0.00000000,0.00000000,0.05080424,0.00460624,0.00795961,0.00737053,0.01197865,1.01608488,0.00000000,0.00000000
9.200,1,1,1,-531.573,191.102,49.585,34.778593,-1.272999,-1.272999,-36.051592,0.000000,0.610743,0.180831,0.230731,-1.403747,0.659128,1.296437,-0.081475,-2.306155,0.638325,1.703936,20.310385,-15.529927,35.840312,4.780457,0.00070192,0.00000000,0.00070189,0.00000000,0.00000003,0.000000,0.000000,0.000000,0.000000,0.000000,0.000000,0.000000,0.000000,0.14731841,0.05529436,0.01591963,0.01857635,0.00607031,0.00000000,0.00000000,0.05145778,0.00460786,0.00795981,0.00743054,0.01214061,1.02915552,0.00000000,0.00000000
9.300,1,1,1,-531.566,191.120,49.578,34.544498,-1.294496,-1.294496,-35.838994,0.000000,0.614673,0.189427,0.047036,-1.704549,0.500997,1.289303,-0.336345,-3.179916,0.433800,1.694913,20.177685,-15.422335,35.600019,4.755350,0.00072192,0.00000000,0.00072188,0.00000000,0.00000004,0.000000,0.000000,0.000000,0.000000,0.000000,0.000000,0.000000,0.000000,0.14834651,0.05529517,0.01592652,0.01879764,0.00622434,0.00000000,0.00000000,0.05210284,0.00460793,0.00796326,0.00751906,0.01244868,1.04205687,0.00000000,0.00000000
9.400,1,1,1,-531.558,191.139,49.571,34.311774,-1.316373,-1.316373,-35.628147,0.000000,0.618592,0.197037,-0.135221,-2.377775,0.354445,1.282354,-0.573527,-2.263183,0.342579,1.686737,20.096032,-15.305492,35.401524,4.790541,0.00074241,0.00000000,0.00074238,0.00000000,0.00000004,0.000000,0.000000,0.000000,0.000000,0.000000,0.000000,0.000000,0.000000,0.14951988,0.05530185,0.01594656,0.01922819,0.00630235,0.00000000,0.00000000,0.05274094,0.00460849,0.00797328,0.00769128,0.01260470,1.05481870,0.00000000,0.00000000
9.500,1,1,1,-531.549,191.158,49.563,34.080456,-1.338600,-1.338600,-35.419056,0.000000,0.622461,0.202305,-0.313613,-2.248859,0.250845,1.275855,-0.790058,-2.463719,0.423795,1.679642,20.116189,-15.216295,35.332484,4.899894,0.00076356,0.00000000,0.00076352,0.00000000,0.00000004,0.000000,0.000000,0.000000,0.000000,0.000000,0.000000,0.000000,0.000000,0.15070773,0.05533780,0.01598459,0.01961336,0.00639480,0.00000000,0.00000000,0.05337718,0.00461148,0.00799229,0.00784534,0.01278961,1.06754350,0.00000000,0.00000000
9.600,1,1,1,-531.540,191.177,49.554,33.850563,-1.361157,-1.361157,-35.211719,0.000000,0.626243,0.182568,-0.486073,-1.991028,0.253757,1.270041,-0.983141,-2.420747,0.593654,1.673759,21.165960,-15.131899,36.297859,6.034061,0.00078551,0.00000000,0.00078547,0.00000000,0.00000004,0.000000,0.000000,0.000000,0.000000,0.000000,0.000000,0.000000,0.000000,0.15192109,0.05542417,0.01604347,0.01991525,0.00648406,0.00000000,0.00000000,0.05405414,0.00461868,0.00802174,0.00796610,0.01296811,1.08108281,0.00000000,0.00000000
9.700,1,1,1,-531.529,191.197,49.544,33.622087,-1.384043,-1.384043,-35.006130,0.000000,0.629908,0.200302,-0.651069,-2.277507,0.357895,1.265104,-1.150344,-1.962380,0.779930,1.669105,20.639499,-15.031643,35.671142,5.607856,0.00080845,0.00000000,0.00080841,0.00000000,0.00000004,0.000000,0.000000,0.000000,0.000000,0.000000,0.000000,0.000000,0.000000,0.15326212,0.05557910,0.01612408,0.02031022,0.00654270,0.00000000,0.00000000,0.05470601,0.00463159,0.00806204,0.00812409,0.01308541,1.09412015,0.00000000,0.00000000
9.800,1,1,1,-531.518,191.216,49.533,33.395015,-1.407255,-1.407255,-34.802270,0.000000,0.633430,0.211889,-0.805244,-1.360775,0.498754,1.261177,-1.288950,-1.045648,0.957438,1.665591,20.384478,-14.970834,35.355312,5.413644,0.00083254,0.00000000,0.00083250,0.00000000,0.00000004,0.000000,0.000000,0.000000,0.000000,0.000000,0.000000,0.000000,0.000000,0.15439806,0.05581620,0.01622534,0.02045128,0.00655936,0.00000000,0.00000000,0.05534588,0.00465135,0.00811267,0.00818051,0.01311872,1.10691756,0.00000000,0.00000000
9.900,1,1,1,-531.506,191.237,49.522,33.169319,-1.430764,-1.430764,-34.600083,0.000000,0.636795,0.221132,-0.947131,-1.346451,0.646627,1.258339,-1.395906,-0.830789,1.116017,1.663034,20.230888,-14.881902,35.112790,5.348985,0.00085792,0.00000000,0.00085788,0.00000000,0.00000004,0.000000,0.000000,0.000000,0.000000,0.000000,0.000000,0.000000,0.000000,0.15562394,0.05614409,0.01634404,0.02058934,0.00656987,0.00000000,0.00000000,0.05597660,0.00467867,0.00817202,0.00823573,0.01313975,1.11953193,0.00000000,0.00000000
10.000,1,1,1,-531.494,191.257,49.510,32.944973,-1.454558,-1.454558,-34.399531,0.000000,0.639994,0.228652,-1.075801,-0.716197,0.791127,1.256610,-1.469278,-0.888085,1.250116,1.661171,20.147671,-14.814111,34.961782,5.333561,0.00088469,0.00000000,0.00088465,0.00000000,0.00000004,0.000000,0.000000,0.000000,0.000000,0.000000,0.000000,0.000000,0.000000,0.15685521,0.05656723,0.01647559,0.02062841,0.00658189,0.00000000,0.00000000,0.05660210,0.00471394,0.00823779,0.00825136,0.01316378,1.13204200,0.00000000,0.00000000
10.100,1,1,1,-531.480,191.277,49.496,32.721946,-1.478615,-1.478615,-34.200560,0.000000,0.643028,0.232014,-1.189902,-0.315127,0.927482,1.255954,-1.508409,-0.128916,1.356166,1.659698,20.231770,-14.740011,34.971780,5.491759,0.00091294,0.00000000,0.00091290,0.00000000,0.00000004,0.000000,0.000000,0.000000,0.000000,0.000000,0.000000,0.000000,0.000000,0.15814529,0.05708459,0.01661415,0.02063597,0.00658214,0.00000000,0.00000000,0.05722845,0.00475705,0.00830708,0.00825439,0.01316428,1.14456895,0.00000000,0.00000000
10.200,1,1,1,-531.465,191.298,49.482,32.500187,-1.502894,-1.502894,-34.003080,0.000000,0.645905,0.240020,-1.287666,-1.733197,1.052673,1.256276,-1.513761,0.630254,1.431814,1.658302,20.115512,-14.612036,34.727548,5.503476,0.00094268,0.00000000,0.00094263,0.00000000,0.00000004,0.000000,0.000000,0.000000,0.000000,0.000000,0.000000,0.000000,0.000000,0.15974447,0.05769088,0.01675380,0.02086480,0.00658819,0.00000000,0.00000000,0.05784679,0.00480757,0.00837690,0.00834592,0.01317639,1.15693580,0.00000000,0.00000000
10.300,1,1,1,-531.450,191.319,49.467,32.279693,-1.527348,-1.527348,-33.807041,0.000000,0.648642,0.315382,-1.367374,-0.529986,1.164513,1.257424,-1.486421,0.000000,1.475776,1.656687,17.222085,-14.570739,31.792824,2.651346,0.00097385,0.00000000,0.00097381,0.00000000,0.00000005,0.000000,0.000000,0.000000,0.000000,0.000000,0.000000,0.000000,0.000000,0.16109320,0.05837452,0.01688845,0.02088620,0.00658819,0.00000000,0.00000000,0.05835584,0.00486454,0.00844422,0.00835448,0.01317639,1.16711675,0.00000000,0.00000000
10.400,1,1,1,-531.434,191.339,49.452,32.060415,-1.551890,-1.551890,-33.612306,0.000000,0.650820,0.292017,-1.426883,-0.415394,1.261022,1.259199,-1.426697,1.059972,1.487701,1.654584,18.456444,-14.495231,32.951675,3.961213,0.00100920,0.00000000,0.00100915,0.00000000,0.00000005,0.000000,0.000000,0.000000,0.000000,0.000000,0.000000,0.000000,0.000000,0.16254515,0.05912015,0.01701268,0.02089937,0.00660534,0.00000000,0.00000000,0.05890762,0.00492668,0.00850634,0.00835975,0.01321068,1.17815231,0.00000000,0.00000000
10.500,1,1,1,-531.417,191.360,49.435,31.842317,-1.576482,-1.576482,-33.418800,0.000000,0.643673,0.281747,-1.470485,0.028648,1.341086,1.261418,-1.336247,0.888085,1.467864,1.651791,18.713591,-14.431607,33.145198,4.281983,0.00110755,0.00000000,0.00110751,0.00000000,0.00000005,0.000000,0.000000,0.000000,0.000000,0.000000,0.000000,0.000000,0.000000,0.16401321,0.05990966,0.01712134,0.02089943,0.00661734,0.00000000,0.00000000,0.05946544,0.00499247,0.00856067,0.00835977,0.01323467,1.18930886,0.00000000,0.00000000
10.600,1,1,1,-531.399,191.381,49.418,31.625360,-1.601117,-1.601117,-33.226476,0.000000,0.638549,0.275849,-1.495936,-0.143239,1.404149,1.263879,-1.218464,1.102944,1.417444,1.648170,18.858842,-14.350384,33.209226,4.508458,0.00119616,0.00000000,0.00119611,0.00000000,0.00000005,0.000000,0.000000,0.000000,0.000000,0.000000,0.000000,0.000000,0.000000,0.16550224,0.06072706,0.01721172,0.02090099,0.00663585,0.00000000,0.00000000,0.06002661,0.00506059,0.00860586,0.00836040,0.01327170,1.20053225,0.00000000,0.00000000
10.700,1,1,1,-531.381,191.402,49.401,31.409483,-1.625720,-1.625720,-33.035203,0.000000,0.635586,0.276850,-1.500556,-0.386747,1.449356,1.266341,-1.075816,1.518338,1.338203,1.643659,18.799776,-14.270182,33.069958,4.529594,0.00127290,0.00000000,0.00127285,0.00000000,0.00000005,0.000000,0.000000,0.000000,0.000000,0.000000,0.000000,0.000000,0.000000,0.16699943,0.06155016,0.01728224,0.02091238,0.00667096,0.00000000,0.00000000,0.06058369,0.00512918,0.00864112,0.00836495,0.01334193,1.21167385,0.00000000,0.00000000
10.800,1,1,1,-531.362,191.422,49.382,31.211814,-1.650245,-1.650245,-32.862060,0.000000,0.634902,0.277568,-1.486006,0.157563,1.474145,1.268592,-0.924261,0.916732,1.243945,1.638347,18.844722,-14.225255,33.069978,4.619467,0.00133403,0.00000000,0.00133398,0.00000000,0.00000005,0.000000,0.000000,0.000000,0.000000,0.000000,0.000000,0.000000,0.000000,0.16843147,0.06235770,0.01733430,0.02091427,0.00668377,0.00000000,0.00000000,0.06114142,0.00519648,0.00866715,0.00836571,0.01336754,1.22282840,0.00000000,0.00000000
10.900,1,1,1,-531.342,191.443,49.363,30.980891,-1.674695,-1.674695,-32.655585,0.000000,0.636555,0.329551,-1.448586,-0.071620,1.483819,1.270393,-0.723599,0.673225,1.102381,1.632172,16.869416,-14.140925,31.010341,2.728492,0.00138286,0.00000000,0.00138282,0.00000000,0.00000005,0.000000,0.000000,0.000000,0.000000,0.000000,0.000000,0.000000,0.000000,0.16972253,0.06312492,0.01736621,0.02091466,0.00669067,0.00000000,0.00000000,0.06162606,0.00526041,0.00868311,0.00836587,0.01338135,1.23252128,0.00000000,0.00000000
11.000,1,1,1,-531.321,191.463,49.343,30.785094,-1.699046,-1.699046,-32.484140,0.000000,0.640128,0.310136,-1.400495,0.630254,1.474585,1.271658,-0.534998,1.389423,0.967703,1.625417,17.969762,-14.103481,32.073243,3.866281,0.00141451,0.00000000,0.00141446,0.00000000,0.00000005,0.000000,0.000000,0.000000,0.000000,0.000000,0.000000,0.000000,0.000000,0.17103766,0.06384147,0.01738364,0.02094490,0.00672006,0.00000000,0.00000000,0.06214759,0.00532012,0.00869182,0.00837796,0.01344012,1.24295175,0.00000000,0.00000000
11.100,1,1,1,-531.300,191.483,49.323,30.573201,-1.723264,-1.723264,-32.296465,0.000000,0.646302,0.302619,-1.334662,0.315127,1.446700,1.272250,-0.314942,2.535338,0.802209,1.618226,18.641104,-14.026530,32.667634,4.614573,0.00142760,0.00000000,0.00142756,0.00000000,0.00000004,0.000000,0.000000,0.000000,0.000000,0.000000,0.000000,0.000000,0.000000,0.17234443,0.06449256,0.01738968,0.02095246,0.00681796,0.00000000,0.00000000,0.06269177,0.00537438,0.00869484,0.00838098,0.01363591,1.25383549,0.00000000,0.00000000
11.200,1,1,1,-531.279,191.503,49.302,30.345391,-1.747296,-1.747296,-32.092687,0.000000,0.655640,0.300578,-1.244963,1.231859,1.395966,1.272005,-0.066002,1.948057,0.608882,1.610873,19.192519,-13.982697,33.175216,5.209821,0.00141623,0.00000000,0.00141618,0.00000000,0.00000004,0.000000,0.000000,0.000000,0.000000,0.000000,0.000000,0.000000,0.000000,0.17364721,0.06505857,0.01738995,0.02106791,0.00687570,0.00000000,0.00000000,0.06325509,0.00542155,0.00869497,0.00842716,0.01375140,1.26510181,0.00000000,0.00000000
11.300,1,1,1,-531.257,191.523,49.280,30.135384,-1.771054,-1.771054,-31.906438,0.000000,0.666427,0.298970,-1.143069,1.174563,1.332474,1.270901,0.169538,2.635606,0.438901,1.603678,19.769321,-13.916093,33.685414,5.853229,0.00138883,0.00000000,0.00138878,0.00000000,0.00000004,0.000000,0.000000,0.000000,0.000000,0.000000,0.000000,0.000000,0.000000,0.17492237,0.06553636,0.01739170,0.02117301,0.00698154,0.00000000,0.00000000,0.06383978,0.00546136,0.00869585,0.00846920,0.01396307,1.27679554,0.00000000,0.00000000
11.400,1,1,1,-531.234,191.543,49.258,29.942947,-1.794524,-1.794524,-31.737471,0.000000,0.676790,0.297226,-1.035601,1.489690,1.261643,1.268993,0.386906,1.704549,0.325109,1.596918,20.320389,-13.869798,34.190188,6.450591,0.00135999,0.00000000,0.00135995,0.00000000,0.00000004,0.000000,0.000000,0.000000,0.000000,0.000000,0.000000,0.000000,0.000000,0.17614267,0.06592858,0.01740082,0.02134209,0.00702581,0.00000000,0.00000000,0.06444537,0.00549405,0.00870041,0.00853684,0.01405162,1.28890736,0.00000000,0.00000000
11.500,1,1,1,-531.211,191.562,49.236,29.734593,-1.817752,-1.817752,-31.552345,0.000000,0.679751,0.297320,-0.908246,0.802141,1.168741,1.266251,0.620958,1.518338,0.321032,1.590909,20.480466,-13.786157,34.266623,6.694309,0.00139333,0.00000000,0.00139329,0.00000000,0.00000004,0.000000,0.000000,0.000000,0.000000,0.000000,0.000000,0.000000,0.000000,0.17716134,0.06623012,0.01742431,0.02139109,0.00706092,0.00000000,0.00000000,0.06505488,0.00551918,0.00871216,0.00855644,0.01412185,1.30109765,0.00000000,0.00000000
11.600,1,1,1,-531.188,191.581,49.213,29.527071,-1.840765,-1.840765,-31.367836,0.000000,0.682801,0.345141,-0.772581,0.128916,1.061917,1.262758,0.850239,1.575634,0.453645,1.585914,18.681424,-13.705764,32.387188,4.975660,0.00142574,0.00000000,0.00142570,0.00000000,0.00000004,0.000000,0.000000,0.000000,0.000000,0.000000,0.000000,0.000000,0.000000,0.17799995,0.06644843,0.01746838,0.02139236,0.00709876,0.00000000,0.00000000,0.06559203,0.00553737,0.00873419,0.00855694,0.01419752,1.31184055,0.00000000,0.00000000
11.700,1,1,1,-531.164,191.600,49.191,29.320374,-1.863501,-1.863501,-31.183875,0.000000,0.685926,0.325796,-0.627803,1.761845,0.942971,1.258617,1.072939,0.716197,0.643451,1.582170,19.712419,-13.698225,33.410644,6.014194,0.00145715,0.00000000,0.00145711,0.00000000,0.00000004,0.000000,0.000000,0.000000,0.000000,0.000000,0.000000,0.000000,0.000000,0.17903482,0.06659254,0.01753853,0.02162880,0.00710657,0.00000000,0.00000000,0.06616838,0.00554938,0.00876927,0.00865152,0.01421314,1.32336758,0.00000000,0.00000000
