t,controller_id,state_code,wp_idx,x,y,dist,yaw_deg,yaw_to_wp_deg,yaw_ref_deg,yaw_err_deg,yaw_rate_deg_s,speed_ref,speed_meas,roll_deg,roll_rate_deg_s,roll_rms_window_deg,roll_rms_total_deg,pitch_deg,pitch_rate_deg_s,pitch_rms_window_deg,pitch_rms_total_deg,base_cmd,diff_cmd,T_left,T_right,J_inst,J_goal,J_wave_roll,J_progress,J_smooth,J_mpc_distance,J_mpc_final,J_mpc_heading,J_mpc_wrong_way,J_mpc_pitch,J_mpc_control,J_mpc_slew,J_mpc_turn,J_total,J_roll,J_pitch,J_roll_rate,J_pitch_rate,J_goal_heading,J_no_progress,J_control,I_roll,I_pitch,I_roll_rate,I_pitch_rate,I_control,I_no_progress,I_goal_heading
0.500,1,1,1,-531.984,190.005,49.984,57.363897,-0.006274,-0.006274,-57.370170,0.000000,0.319684,0.012040,-1.016674,2.563986,1.316355,0.000000,-0.713309,2.979381,0.982331,0.000000,0.000000,-5.000000,5.000000,-5.000000,0.00000002,0.00000000,0.00000002,0.00000000,0.00000000,0.000000,0.000000,0.000000,0.000000,0.000000,0.000000,0.000000,0.000000,0.00000000,0.00000000,0.00000000,0.00000000,0.00000000,0.00000000,0.00000000,0.00000000,0.00000000,0.00000000,0.00000000,0.00000000,0.00000000,0.00000000,0.00000000
0.614,1,1,1,-531.984,190.005,49.984,57.363897,-0.006274,-0.006274,-57.370170,0.000000,0.319684,0.012040,-1.016674,2.563986,1.316355,1.016674,-0.713309,2.979381,0.982331,0.713309,0.000000,-10.000000,10.000000,-10.000000,0.00000002,0.00000000,0.00000002,0.00000000,0.00000000,0.000000,0.000000,0.000000,0.000000,0.000000,0.000000,0.000000,0.000000,0.00130071,0.00042934,0.00003522,0.00056888,0.00015363,0.00000000,0.00000000,0.00011363,0.00003578,0.00001761,0.00022755,0.00030726,0.00227263,0.00000000,0.00000000
0.700,1,1,1,-531.971,190.007,49.971,57.349170,-0.008581,-0.008581,-57.357752,0.000000,0.339928,0.057768,-0.200306,4.383127,1.022320,0.777583,0.006832,4.454747,0.740059,0.537707,0.000000,-15.000000,15.000000,-15.000000,0.00000003,0.00000000,0.00000003,0.00000000,0.00000000,0.000000,0.000000,0.000000,0.000000,0.000000,0.000000,0.000000,0.000000,0.00303205,0.00044200,0.00003523,0.00183227,0.00041463,0.00000000,0.00000000,0.00030792,0.00003683,0.00001761,0.00073291,0.00082926,0.00615846,0.00000000,0.00000000
0.800,1,1,1,-531.964,190.009,49.964,57.318329,-0.010315,-0.010315,-57.328644,0.000000,0.350774,0.064631,0.236330,4.669606,0.868917,0.649412,0.404416,4.512043,0.631999,0.497269,2.046005,-17.953995,20.000000,-15.907989,0.00000003,0.00000000,0.00000003,0.00000000,0.00000000,0.000000,0.000000,0.000000,0.000000,0.000000,0.000000,0.000000,0.000000,0.00535885,0.00046241,0.00004519,0.00349229,0.00072461,0.00000000,0.00000000,0.00063435,0.00003853,0.00002259,0.00139692,0.00144922,0.01268700,0.00000000,0.00000000
0.900,1,1,1,-531.957,190.011,49.957,57.264967,-0.012462,-0.012462,-57.277429,0.000000,0.366368,0.068354,0.662721,3.294507,0.621475,0.652766,0.805750,3.939085,0.500942,0.589739,4.890894,-20.109106,25.000000,-15.218212,0.00000003,0.00000000,0.00000003,0.00000000,0.00000000,0.000000,0.000000,0.000000,0.000000,0.000000,0.000000,0.000000,0.000000,0.00705045,0.00062299,0.00008475,0.00431901,0.00096098,0.00000000,0.00000000,0.00106273,0.00005192,0.00004237,0.00172760,0.00192196,0.02125454,0.00000000,0.00000000
1.000,1,1,1,-531.950,190.013,49.950,57.187607,-0.015331,-0.015331,-57.202938,0.000000,0.366341,0.072396,1.084365,3.652606,0.575133,0.758975,1.224221,4.655282,0.610749,0.760240,7.378916,-22.621084,30.000000,-15.242169,0.00000005,0.00000000,0.00000005,0.00000000,0.00000000,0.000000,0.000000,0.000000,0.000000,0.000000,0.000000,0.000000,0.000000,0.00948348,0.00105274,0.00017604,0.00533488,0.00129101,0.00000000,0.00000000,0.00162881,0.00008773,0.00008802,0.00213395,0.00258202,0.03257614,0.00000000,0.00000000
1.100,1,1,1,-531.942,190.017,49.942,57.085560,-0.019232,-0.019232,-57.104791,0.000000,0.356360,0.078108,1.509310,3.280183,0.794863,0.927209,1.672306,5.371479,0.906725,0.973525,9.648193,-25.351807,35.000000,-15.703614,0.00000010,0.00000000,0.00000010,0.00000000,0.00000000,0.000000,0.000000,0.000000,0.000000,0.000000,0.000000,0.000000,0.000000,0.01248107,0.00188541,0.00034641,0.00615423,0.00173044,0.00000000,0.00000000,0.00236457,0.00015712,0.00017321,0.00246169,0.00346089,0.04729146,0.00000000,0.00000000
1.200,1,1,1,-531.934,190.021,49.934,56.957758,-0.024112,-0.024112,-56.981870,0.000000,0.333721,0.082183,1.925408,3.724226,1.137378,1.125440,2.129563,5.142296,1.281610,1.208457,9.158870,-25.774192,34.933062,-16.615322,0.00000022,0.00000000,0.00000022,0.00000000,0.00000000,0.000000,0.000000,0.000000,0.000000,0.000000,0.000000,0.000000,0.000000,0.01632066,0.00324089,0.00062277,0.00721075,0.00213330,0.00000000,0.00000000,0.00311296,0.00027007,0.00031139,0.00288430,0.00426660,0.06225912,0.00000000,0.00000000
1.300,1,1,1,-531.927,190.026,49.927,56.824185,-0.029479,-0.029479,-56.853663,0.000000,0.311634,0.084377,2.265163,2.664254,1.475986,1.322897,2.503290,3.752874,1.645115,1.435836,8.180001,-25.524472,33.704473,-17.344471,0.00000043,0.00000000,0.00000043,0.00000000,0.00000000,0.000000,0.000000,0.000000,0.000000,0.000000,0.000000,0.000000,0.000000,0.02005489,0.00511817,0.00100489,0.00775180,0.00234801,0.00000000,0.00000000,0.00383202,0.00042651,0.00050245,0.00310072,0.00469601,0.07664039,0.00000000,0.00000000
1.400,1,1,1,-531.921,190.030,49.921,56.650640,-0.034762,-0.034762,-56.685402,0.000000,0.287520,0.079024,2.607347,2.205888,1.852768,1.520171,2.864245,3.251535,2.050267,1.656515,7.463330,-25.300202,32.763531,-17.836872,0.00000075,0.00000000,0.00000074,0.00000000,0.00000000,0.000000,0.000000,0.000000,0.000000,0.000000,0.000000,0.000000,0.000000,0.02426708,0.00760318,0.00150470,0.00812236,0.00250903,0.00000000,0.00000000,0.00452781,0.00063360,0.00075235,0.00324894,0.00501806,0.09055625,0.00000000,0.00000000
1.500,1,1,1,-531.916,190.035,49.916,56.456879,-0.039807,-0.039807,-56.496685,0.000000,0.264927,0.071325,2.905189,1.733197,2.212687,1.709876,3.158056,3.194240,2.434466,1.861928,6.926245,-25.081717,32.007962,-18.155472,0.00000117,0.00000000,0.00000117,0.00000000,0.00000000,0.000000,0.000000,0.000000,0.000000,0.000000,0.000000,0.000000,0.000000,0.02902006,0.01068769,0.00211217,0.00835107,0.00266440,0.00000000,0.00000000,0.00520472,0.00089064,0.00105609,0.00334043,0.00532880,0.10409450,0.00000000,0.00000000
1.600,1,1,1,-531.913,190.039,49.913,56.245961,-0.044918,-0.044918,-56.290879,0.000000,0.244473,0.063339,3.165490,1.747521,2.545091,1.889022,3.412166,2.234535,2.783118,2.051724,6.499956,-24.884808,31.384764,-18.384852,0.00000171,0.00000000,0.00000171,0.00000000,0.00000000,0.000000,0.000000,0.000000,0.000000,0.000000,0.000000,0.000000,0.000000,0.03435873,0.01434806,0.00282102,0.00858348,0.00274040,0.00000000,0.00000000,0.00586578,0.00119567,0.00141051,0.00343339,0.00548080,0.11731562,0.00000000,0.00000000
1.700,1,1,1,-531.910,190.044,49.911,56.020546,-0.050475,-0.050475,-56.071020,0.000000,0.226514,0.059098,3.382797,1.747521,2.842629,2.055429,3.649215,2.091296,3.091323,2.229051,6.027543,-24.691793,30.719336,-18.664251,0.00000241,0.00000000,0.00000241,0.00000000,0.00000000,0.000000,0.000000,0.000000,0.000000,0.000000,0.000000,0.000000,0.000000,0.04029949,0.01853195,0.00363249,0.00881609,0.00280703,0.00000000,0.00000000,0.00651194,0.00154433,0.00181625,0.00352644,0.00561405,0.13023870,0.00000000,0.00000000
1.800,1,1,1,-531.910,190.049,49.910,55.782561,-0.056469,-0.056469,-55.839030,0.000000,0.211321,0.056021,3.541582,1.002676,3.099191,2.205566,3.862555,2.291831,3.361500,2.394570,5.626183,-24.478009,30.104192,-18.851826,0.00000329,0.00000000,0.00000328,0.00000000,0.00000000,0.000000,0.000000,0.000000,0.000000,0.000000,0.000000,0.000000,0.000000,0.04657948,0.02311594,0.00454125,0.00889264,0.00288701,0.00000000,0.00000000,0.00714264,0.00192633,0.00227062,0.00355705,0.00577402,0.14285273,0.00000000,0.00000000
1.900,1,1,1,-531.910,190.052,49.910,55.553726,-0.059619,-0.059619,-55.613345,0.000000,0.200302,0.054894,3.627712,1.174563,3.290357,2.336100,4.013450,1.532662,3.574835,2.544663,5.318247,-24.302273,29.620520,-18.984027,0.00000389,0.00000000,0.00000389,0.00000000,0.00000000,0.000000,0.000000,0.000000,0.000000,0.000000,0.000000,0.000000,0.000000,0.05313446,0.02792898,0.00552308,0.00899775,0.00292281,0.00000000,0.00000000,0.00776183,0.00232742,0.00276154,0.00359910,0.00584561,0.15523663,0.00000000,0.00000000
2.000,1,1,1,-531.913,190.057,49.913,55.326946,-0.065392,-0.065392,-55.392338,0.000000,0.200000,0.055023,3.659125,-0.315127,3.439547,2.446713,4.098197,0.358099,3.757893,2.676497,5.398197,-24.083404,29.481601,-18.685208,0.00000489,0.00000000,0.00000489,0.00000000,0.00000000,0.000000,0.000000,0.000000,0.000000,0.000000,0.000000,0.000000,0.000000,0.05967413,0.03282589,0.00654685,0.00900532,0.00292476,0.00000000,0.00000000,0.00837131,0.00273549,0.00327343,0.00360213,0.00584952,0.16742614,0.00000000,0.00000000
2.100,1,1,1,-531.918,190.061,49.918,55.028727,-0.070506,-0.070506,-55.099233,0.000000,0.200000,0.060998,3.636714,-0.501338,3.560591,2.537398,4.115188,-1.575634,3.931056,2.788135,5.236444,-23.878071,29.114515,-18.641628,0.00000588,0.00000000,0.00000588,0.00000000,0.00000000,0.000000,0.000000,0.000000,0.000000,0.000000,0.000000,0.000000,0.000000,0.06618804,0.03765532,0.00757749,0.00902444,0.00296253,0.00000000,0.00000000,0.00896826,0.00313794,0.00378875,0.00360978,0.00592506,0.17936519,0.00000000,0.00000000
2.200,1,1,1,-531.925,190.065,49.926,54.788039,-0.074997,-0.074997,-54.863036,0.000000,0.200000,0.070881,3.572216,-1.575634,3.607313,2.609685,4.065447,0.042972,4.020954,2.879040,4.909899,-23.679013,28.588913,-18.769114,0.00000674,0.00000000,0.00000674,0.00000000,0.00000000,0.000000,0.000000,0.000000,0.000000,0.000000,0.000000,0.000000,0.000000,0.07263635,0.04232200,0.00858488,0.00921359,0.00296256,0.00000000,0.00000000,0.00955333,0.00352683,0.00429244,0.00368543,0.00592512,0.19106652,0.00000000,0.00000000
2.300,1,1,1,-531.935,190.069,49.935,54.508753,-0.079130,-0.079130,-54.587883,0.000000,0.200000,0.084247,3.443631,-2.435071,3.604018,2.662900,3.952661,-1.618606,4.058384,2.948990,4.441175,-23.471471,27.912646,-19.030296,0.00000750,0.00000000,0.00000750,0.00000000,0.00000000,0.000000,0.000000,0.000000,0.000000,0.000000,0.000000,0.000000,0.000000,0.07898829,0.04665898,0.00953720,0.00966538,0.00300248,0.00000000,0.00000000,0.01012425,0.00388825,0.00476860,0.00386615,0.00600497,0.20248495,0.00000000,0.00000000
2.400,1,1,1,-531.946,190.072,49.946,54.224185,-0.083089,-0.083089,-54.307274,0.000000,0.200000,0.100342,3.252365,-1.804817,3.543604,2.697131,3.783403,-1.962380,4.028223,2.998690,3.864695,-23.309489,27.174184,-19.444794,0.00000813,0.00000000,0.00000813,0.00000000,0.00000000,0.000000,0.000000,0.000000,0.000000,0.000000,0.000000,0.000000,0.000000,0.08459085,0.05052484,0.01040909,0.00991339,0.00306112,0.00000000,0.00000000,0.01068240,0.00421040,0.00520454,0.00396536,0.00612225,0.21364806,0.00000000,0.00000000
2.500,1,1,1,-531.960,190.076,49.960,53.935162,-0.086842,-0.086842,-54.022003,0.000000,0.202408,0.093648,3.003164,-3.222888,3.427122,2.713254,3.556020,-2.707226,3.933633,3.028996,4.332990,-23.081299,27.414289,-18.748309,0.00000859,0.00000000,0.00000859,0.00000000,0.00000000,0.000000,0.000000,0.000000,0.000000,0.000000,0.000000,0.000000,0.000000,0.09011292,0.05382207,0.01117958,0.01070450,0.00317277,0.00000000,0.00000000,0.01123399,0.00448517,0.00558979,0.00428180,0.00634553,0.22467987,0.00000000,0.00000000
2.600,1,1,1,-531.975,190.079,49.975,53.642495,-0.090301,-0.090301,-53.732797,0.000000,0.216826,0.120819,2.705676,-3.853141,3.255638,2.712894,3.271697,-4.068000,3.779578,3.040991,3.875289,-22.880397,26.755686,-19.005109,0.00000882,0.00000000,0.00000882,0.00000000,0.00000000,0.000000,0.000000,0.000000,0.000000,0.000000,0.000000,0.000000,0.000000,0.09536192,0.05649790,0.01183166,0.01183507,0.00342480,0.00000000,0.00000000,0.01177249,0.00470816,0.00591583,0.00473403,0.00684960,0.23544976,0.00000000,0.00000000
2.700,1,1,1,-531.992,190.082,49.992,53.346967,-0.093521,-0.093521,-53.440488,0.000000,0.235517,0.139491,2.367806,-3.810169,3.031431,2.698164,2.937616,-2.764521,3.570365,3.036368,3.949887,-22.701382,26.651268,-18.751495,0.00000881,0.00000000,0.00000881,0.00000000,0.00000000,0.000000,0.000000,0.000000,0.000000,0.000000,0.000000,0.000000,0.000000,0.09969062,0.05854760,0.01235748,0.01294079,0.00354122,0.00000000,0.00000000,0.01230352,0.00487897,0.00617874,0.00517632,0.00708244,0.24607038,0.00000000,0.00000000
2.800,1,1,1,-532.010,190.084,50.010,53.049236,-0.096638,-0.096638,-53.145874,0.000000,0.258403,0.157300,1.991999,-4.454747,2.759076,2.671346,2.562282,-4.196916,3.309661,3.017305,4.221928,-22.500881,26.722809,-18.278954,0.00000856,0.00000000,0.00000856,0.00000000,0.00000000,0.000000,0.000000,0.000000,0.000000,0.000000,0.000000,0.000000,0.000000,0.10384487,0.05999814,0.01275748,0.01445210,0.00380951,0.00000000,0.00000000,0.01282765,0.00499984,0.00637874,0.00578084,0.00761901,0.25655297,0.00000000,0.00000000
2.900,1,1,1,-532.029,190.087,50.029,52.749892,-0.099765,-0.099765,-52.849658,0.000000,0.269426,0.171919,1.581031,-5.127972,2.445140,2.634946,2.149204,-4.411775,3.001694,2.986183,4.121798,-22.301199,26.422997,-18.179401,0.00000884,0.00000000,0.00000883,0.00000000,0.00000000,0.000000,0.000000,0.000000,0.000000,0.000000,0.000000,0.000000,0.000000,0.10785265,0.06091170,0.01303884,0.01645431,0.00410590,0.00000000,0.00000000,0.01334189,0.00507598,0.00651942,0.00658173,0.00821181,0.26683783,0.00000000,0.00000000
3.000,1,1,1,-532.049,190.090,50.049,52.449545,-0.102891,-0.102891,-52.552436,0.000000,0.275163,0.186875,1.142520,-4.512043,2.097313,2.591746,1.698745,-5.543367,2.651972,2.945457,3.788937,-22.143289,25.932226,-18.354352,0.00000927,0.00000000,0.00000927,0.00000000,0.00000000,0.000000,0.000000,0.000000,0.000000,0.000000,0.000000,0.000000,0.000000,0.11103301,0.06138951,0.01321488,0.01800680,0.00457457,0.00000000,0.00000000,0.01384726,0.00511579,0.00660744,0.00720272,0.00914913,0.27694510,0.00000000,0.00000000
3.100,1,1,1,-532.069,190.093,50.069,52.148769,-0.105966,-0.105966,-52.254736,0.000000,0.281527,0.166876,0.686564,-5.299860,1.724545,2.545060,1.215097,-5.285536,2.267481,2.898153,4.927724,-21.942104,26.869828,-17.014379,0.00000967,0.00000000,0.00000967,0.00000000,0.00000000,0.000000,0.000000,0.000000,0.000000,0.000000,0.000000,0.000000,0.000000,0.11435998,0.06156152,0.01330468,0.02014227,0.00499935,0.00000000,0.00000000,0.01435214,0.00513013,0.00665234,0.00805691,0.00999871,0.28704289,0.00000000,0.00000000
3.200,1,1,1,-532.090,190.095,50.090,51.848065,-0.109073,-0.109073,-51.957139,0.000000,0.288271,0.186519,0.221081,-4.999057,1.339502,2.497838,0.709722,-4.726902,1.857325,2.847246,4.410032,-21.778985,26.189017,-17.368953,0.00001006,0.00000000,0.00001006,0.00000000,0.00000000,0.000000,0.000000,0.000000,0.000000,0.000000,0.000000,0.000000,0.000000,0.11714632,0.06157939,0.01333538,0.02204580,0.00533974,0.00000000,0.00000000,0.01484602,0.00513162,0.00666769,0.00881832,0.01067947,0.29692034,0.00000000,0.00000000
3.300,1,1,1,-532.110,190.098,50.110,51.547864,-0.112435,-0.112435,-51.660299,0.000000,0.295162,0.195217,-0.246368,-4.712578,0.967500,2.453269,0.199157,-5.142296,1.435628,2.796192,4.366667,-21.617640,25.984307,-17.250973,0.00001049,0.00000000,0.00001049,0.00000000,0.00000000,0.000000,0.000000,0.000000,0.000000,0.000000,0.000000,0.000000,0.000000,0.11975145,0.06160158,0.01333779,0.02373714,0.00574251,0.00000000,0.00000000,0.01533243,0.00513347,0.00666890,0.00949485,0.01148501,0.30664856,0.00000000,0.00000000
3.400,1,1,1,-532.130,190.102,50.130,51.248483,-0.116218,-0.116218,-51.364700,0.000000,0.301936,0.198199,-0.709241,-5.199592,0.675765,2.414198,-0.301513,-5.414451,1.031144,2.748132,4.553962,-21.435733,25.989695,-16.881770,0.00001101,0.00000000,0.00001101,0.00000000,0.00000000,0.000000,0.000000,0.000000,0.000000,0.000000,0.000000,0.000000,0.000000,0.12292632,0.06178545,0.01334333,0.02579591,0.00618899,0.00000000,0.00000000,0.01581263,0.00514879,0.00667167,0.01031837,0.01237799,0.31625261,0.00000000,0.00000000
3.500,1,1,1,-532.150,190.105,50.150,50.950179,-0.120479,-0.120479,-51.070658,0.000000,0.308343,0.198203,-1.159569,-4.239888,0.621584,2.383048,-0.784274,-5.113648,0.719230,2.705740,4.842116,-21.303948,26.146064,-16.461832,0.00001165,0.00000000,0.00001164,0.00000000,0.00000000,0.000000,0.000000,0.000000,0.000000,0.000000,0.000000,0.000000,0.000000,0.12569949,0.06227688,0.01338080,0.02716472,0.00658722,0.00000000,0.00000000,0.01628987,0.00518974,0.00669040,0.01086589,0.01317443,0.32579736,0.00000000,0.00000000
3.600,1,1,1,-532.169,190.110,50.169,50.653161,-0.125169,-0.125169,-50.778331,0.000000,0.314162,0.195978,-1.588911,-5.127972,0.852182,2.361612,-1.246014,-3.838817,0.668841,2.671148,5.189463,-21.118223,26.307686,-15.928761,0.00001241,0.00000000,0.00001241,0.00000000,0.00000000,0.000000,0.000000,0.000000,0.000000,0.000000,0.000000,0.000000,0.000000,0.12941514,0.06319932,0.01347534,0.02916636,0.00681156,0.00000000,0.00000000,0.01676256,0.00526661,0.00673767,0.01166654,0.01362312,0.33525118,0.00000000,0.00000000
3.700,1,1,1,-532.187,190.114,50.187,50.357617,-0.130235,-0.130235,-50.487851,0.000000,0.319213,0.190382,-1.990338,-4.239888,1.204091,2.350896,-1.682784,-2.492366,0.915869,2.645851,5.635562,-20.995117,26.630679,-15.359554,0.00001331,0.00000000,0.00001331,0.00000000,0.00000000,0.000000,0.000000,0.000000,0.000000,0.000000,0.000000,0.000000,0.000000,0.13297259,0.06464767,0.01364790,0.03053563,0.00690619,0.00000000,0.00000000,0.01723521,0.00538731,0.00682395,0.01221425,0.01381239,0.34470412,0.00000000,0.00000000
3.800,1,1,1,-532.204,190.119,50.204,50.063697,-0.135700,-0.135700,-50.199398,0.000000,0.323376,0.165912,-2.358587,-2.406423,1.583227,2.351129,-2.086389,-3.323155,1.281785,2.630650,6.813248,-20.904270,27.717518,-14.091022,0.00001439,0.00000000,0.00001438,0.00000000,0.00000000,0.000000,0.000000,0.000000,0.000000,0.000000,0.000000,0.000000,0.000000,0.13636319,0.06668074,0.01391304,0.03097654,0.00707436,0.00000000,0.00000000,0.01771852,0.00555673,0.00695652,0.01239061,0.01414872,0.35437034,0.00000000,0.00000000
3.900,1,1,1,-532.220,190.124,50.220,49.771399,-0.141661,-0.141661,-49.913060,0.000000,0.326598,0.170386,-2.688807,-3.051000,1.955951,2.361751,-2.446138,-2.864789,1.668484,2.625407,6.730763,-20.739356,27.470119,-14.008593,0.00001568,0.00000000,0.00001568,0.00000000,0.00000000,0.000000,0.000000,0.000000,0.000000,0.000000,0.000000,0.000000,0.000000,0.14068024,0.06932376,0.01427762,0.03168550,0.00719937,0.00000000,0.00000000,0.01819399,0.00577698,0.00713881,0.01267420,0.01439874,0.36387981,0.00000000,0.00000000
4.000,1,1,1,-532.235,190.130,50.235,49.480645,-0.148201,-0.148201,-49.628846,0.000000,0.328895,0.165819,-2.974639,-3.810169,2.306512,2.381447,-2.752314,-2.664254,2.040371,2.629117,6.996676,-20.580272,27.576949,-13.583596,0.00001724,0.00000000,0.00001724,0.00000000,0.00000000,0.000000,0.000000,0.000000,0.000000,0.000000,0.000000,0.000000,0.000000,0.14606079,0.07255726,0.01473899,0.03279073,0.00730745,0.00000000,0.00000000,0.01866635,0.00604644,0.00736950,0.01311629,0.01461490,0.37332698,0.00000000,0.00000000
4.100,1,1,1,-532.249,190.136,50.249,49.191390,-0.155322,-0.155322,-49.346712,0.000000,0.311037,0.159165,-3.211395,-2.392099,2.625108,2.408377,-2.998362,-1.876437,2.379846,2.640076,6.519596,-20.496919,27.016515,-13.977323,0.00002105,0.00000000,0.00002104,0.00000000,0.00000000,0.000000,0.000000,0.000000,0.000000,0.000000,0.000000,0.000000,0.000000,0.15133256,0.07632867,0.01528693,0.03322668,0.00736110,0.00000000,0.00000000,0.01912917,0.00636072,0.00764347,0.01329067,0.01472220,0.38258340,0.00000000,0.00000000
4.200,1,1,1,-532.262,190.143,50.262,48.903522,-0.162997,-0.162997,-49.066519,0.000000,0.291148,0.152055,-3.395851,-2.549662,2.904731,2.440320,-3.180411,-1.117268,2.675290,2.656123,6.000660,-20.368341,26.369001,-14.367681,0.00002565,0.00000000,0.00002564,0.00000000,0.00000000,0.000000,0.000000,0.000000,0.000000,0.000000,0.000000,0.000000,0.000000,0.15712827,0.08054342,0.01590309,0.03372167,0.00738011,0.00000000,0.00000000,0.01957998,0.00671195,0.00795154,0.01348867,0.01476022,0.39159966,0.00000000,0.00000000
4.300,1,1,1,-532.273,190.150,50.273,48.616900,-0.171184,-0.171184,-48.788084,0.000000,0.273008,0.144287,-3.526731,-1.561310,3.140094,2.475017,-3.294987,-1.031324,2.918111,2.674885,5.600774,-20.282235,25.883008,-14.681461,0.00003058,0.00000000,0.00003058,0.00000000,0.00000001,0.000000,0.000000,0.000000,0.000000,0.000000,0.000000,0.000000,0.000000,0.16297907,0.08508859,0.01656433,0.03390725,0.00739631,0.00000000,0.00000000,0.02002259,0.00709072,0.00828217,0.01356290,0.01479261,0.40045176,0.00000000,0.00000000
4.400,1,1,1,-532.283,190.158,50.284,48.331351,-0.179858,-0.179858,-48.511209,0.000000,0.259018,0.136042,-3.603009,-1.145916,3.327253,2.510275,-3.338864,0.945380,3.101919,2.693953,5.404033,-20.182579,25.586612,-14.778547,0.00003577,0.00000000,0.00003576,0.00000000,0.00000001,0.000000,0.000000,0.000000,0.000000,0.000000,0.000000,0.000000,0.000000,0.16895280,0.08983318,0.01724340,0.03400724,0.00740992,0.00000000,0.00000000,0.02045906,0.00748610,0.00862170,0.01360290,0.01481984,0.40918120,0.00000000,0.00000000
4.500,1,1,1,-532.293,190.166,50.293,48.046655,-0.188983,-0.188983,-48.235638,0.000000,0.249421,0.152311,-3.623276,-0.802141,3.463464,2.544039,-3.310577,0.644578,3.222213,2.711077,4.382381,-20.086378,24.468759,-15.703996,0.00004111,0.00000000,0.00004110,0.00000000,0.00000001,0.000000,0.000000,0.000000,0.000000,0.000000,0.000000,0.000000,0.000000,0.17489682,0.09463160,0.01791106,0.03405623,0.00741625,0.00000000,0.00000000,0.02088169,0.00788597,0.00895553,0.01362249,0.01483249,0.41763376,0.00000000,0.00000000
4.600,1,1,1,-532.300,190.174,50.301,47.819377,-0.198486,-0.198486,-48.017863,0.000000,0.245031,0.132990,-3.598206,-0.630254,3.534427,2.574925,-3.236865,1.432394,3.270803,2.725124,5.068596,-20.016724,25.085319,-14.948128,0.00004628,0.00000000,0.00004627,0.00000000,0.00000001,0.000000,0.000000,0.000000,0.000000,0.000000,0.000000,0.000000,0.000000,0.18076239,0.09936971,0.01855010,0.03408652,0.00744753,0.00000000,0.00000000,0.02130854,0.00828081,0.00927505,0.01363461,0.01489506,0.42617073,0.00000000,0.00000000
4.700,1,1,1,-532.307,190.183,50.307,47.535794,-0.208287,-0.208287,-47.744080,0.000000,0.243824,0.121480,-3.517007,0.615930,3.574708,2.601322,-3.084480,3.280183,3.270956,2.734229,5.536035,-19.957552,25.493586,-14.421517,0.00005154,0.00000000,0.00005153,0.00000000,0.00000001,0.000000,0.000000,0.000000,0.000000,0.000000,0.000000,0.000000,0.000000,0.18648509,0.10389109,0.01912971,0.03411541,0.00761140,0.00000000,0.00000000,0.02173748,0.00865759,0.00956486,0.01364616,0.01522281,0.43474954,0.00000000,0.00000000
4.800,1,1,1,-532.313,190.192,50.313,47.252751,-0.218367,-0.218367,-47.471118,0.000000,0.247467,0.112867,-3.382610,1.475366,3.561001,2.622143,-2.870114,3.838817,3.204401,2.737467,6.067463,-19.888935,25.956398,-13.821472,0.00005643,0.00000000,0.00005642,0.00000000,0.00000001,0.000000,0.000000,0.000000,0.000000,0.000000,0.000000,0.000000,0.000000,0.19199391,0.10807501,0.01963174,0.03428123,0.00783593,0.00000000,0.00000000,0.02217000,0.00900625,0.00981587,0.01371249,0.01567186,0.44340006,0.00000000,0.00000000
4.900,1,1,1,-532.317,190.201,50.317,46.970211,-0.228737,-0.228737,-47.198949,0.000000,0.256048,0.105200,-3.197840,0.716197,3.493906,2.636614,-2.597187,3.022352,3.073419,2.734360,6.748308,-19.774243,26.522552,-13.025935,0.00006075,0.00000000,0.00006074,0.00000000,0.00000001,0.000000,0.000000,0.000000,0.000000,0.000000,0.000000,0.000000,0.000000,0.19675452,0.11181061,0.02004242,0.03432026,0.00797496,0.00000000,0.00000000,0.02260627,0.00931755,0.01002121,0.01372811,0.01594993,0.45212546,0.00000000,0.00000000
5.000,1,1,1,-532.320,190.210,50.320,46.688186,-0.239437,-0.239437,-46.927623,0.000000,0.269607,0.102450,-2.965661,2.048324,3.374998,2.644370,-2.267738,3.910437,2.881493,2.724861,7.415217,-19.730838,27.146055,-12.315620,0.00006430,0.00000000,0.00006429,0.00000000,0.00000001,0.000000,0.000000,0.000000,0.000000,0.000000,0.000000,0.000000,0.000000,0.20127891,0.11502515,0.02035568,0.03463974,0.00820784,0.00000000,0.00000000,0.02305050,0.00958543,0.01017784,0.01385589,0.01641567,0.46101007,0.00000000,0.00000000
5.100,1,1,1,-532.321,190.215,50.321,46.462952,-0.244701,-0.244701,-46.707653,0.000000,0.283768,0.096995,-2.748110,1.102944,3.244301,2.646669,-1.965439,4.139620,2.686947,2.710612,8.205812,-19.636030,27.841843,-11.430218,0.00006455,0.00000000,0.00006455,0.00000000,0.00000000,0.000000,0.000000,0.000000,0.000000,0.000000,0.000000,0.000000,0.000000,0.20508209,0.11778625,0.02059107,0.03473239,0.00846889,0.00000000,0.00000000,0.02350349,0.00981552,0.01029553,0.01389296,0.01693777,0.47006987,0.00000000,0.00000000
5.200,1,1,1,-532.321,190.225,50.322,46.181951,-0.255952,-0.255952,-46.437903,0.000000,0.303941,0.095190,-2.440396,3.194240,3.039214,2.642448,-1.544116,5.443099,2.396802,2.691065,9.080424,-19.622497,28.702921,-10.542074,0.00006617,0.00000000,0.00006616,0.00000000,0.00000001,0.000000,0.000000,0.000000,0.000000,0.000000,0.000000,0.000000,0.000000,0.20909969,0.11996302,0.02073631,0.03550933,0.00892009,0.00000000,0.00000000,0.02397094,0.00999692,0.01036816,0.01420373,0.01784018,0.47941885,0.00000000,0.00000000
5.300,1,1,1,-532.321,190.235,50.321,45.901625,-0.267580,-0.267580,-46.169206,0.000000,0.328176,0.098682,-2.098332,2.134268,2.791494,2.632265,-1.082872,4.741226,2.060599,2.667480,9.891406,-19.510248,29.401653,-9.618842,0.00006642,0.00000000,0.00006641,0.00000000,0.00000001,0.000000,0.000000,0.000000,0.000000,0.000000,0.000000,0.000000,0.000000,0.21194696,0.12157170,0.02080772,0.03585605,0.00926230,0.00000000,0.00000000,0.02444920,0.01013097,0.01040386,0.01434242,0.01852460,0.48898391,0.00000000,0.00000000
5.400,1,1,1,-532.319,190.246,50.319,45.622057,-0.279559,-0.279559,-45.901616,0.000000,0.345009,0.100971,-1.728099,4.254212,2.505961,2.616938,-0.592142,5.471747,1.688202,2.641477,10.439197,-19.501276,29.940473,-9.062079,0.00006837,0.00000000,0.00006836,0.00000000,0.00000001,0.000000,0.000000,0.000000,0.000000,0.000000,0.000000,0.000000,0.000000,0.21538322,0.12266323,0.02082908,0.03723420,0.00971827,0.00000000,0.00000000,0.02493843,0.01022194,0.01041454,0.01489368,0.01943655,0.49876864,0.00000000,0.00000000
5.500,1,1,1,-532.315,190.256,50.316,45.343297,-0.291842,-0.291842,-45.635139,0.000000,0.349309,0.104333,-1.335606,2.879113,2.188465,2.597506,-0.081967,4.870141,1.297185,2.614945,10.428390,-19.381926,29.810315,-8.953536,0.00007407,0.00000000,0.00007406,0.00000000,0.00000001,0.000000,0.000000,0.000000,0.000000,0.000000,0.000000,0.000000,0.000000,0.21751339,0.12331554,0.02082949,0.03786570,0.01007965,0.00000000,0.00000000,0.02542302,0.01027629,0.01041474,0.01514628,0.02015931,0.50846036,0.00000000,0.00000000
5.600,1,1,1,-532.311,190.267,50.311,45.065376,-0.304375,-0.304375,-45.369751,0.000000,0.353997,0.111257,-0.926862,3.924761,1.846204,2.575192,0.438693,6.703606,0.926542,2.589916,10.305352,-19.342416,29.647768,-9.037063,0.00007997,0.00000000,0.00007996,0.00000000,0.00000001,0.000000,0.000000,0.000000,0.000000,0.000000,0.000000,0.000000,0.000000,0.22017633,0.12362949,0.02084121,0.03903847,0.01076394,0.00000000,0.00000000,0.02590323,0.01030246,0.01042060,0.01561539,0.02152787,0.51806458,0.00000000,0.00000000
5.700,1,1,1,-532.305,190.278,50.306,44.788343,-0.317089,-0.317089,-45.105432,0.000000,0.358953,0.114645,-0.508739,3.423423,1.488513,2.551287,0.961171,4.970409,0.684148,2.568354,10.357699,-19.253518,29.611218,-8.895819,0.00008605,0.00000000,0.00008604,0.00000000,0.00000001,0.000000,0.000000,0.000000,0.000000,0.000000,0.000000,0.000000,0.000000,0.22207395,0.12372409,0.02089749,0.03993096,0.01114020,0.00000000,0.00000000,0.02638120,0.01031034,0.01044875,0.01597239,0.02228041,0.52762394,0.00000000,0.00000000
5.800,1,1,1,-532.298,190.290,50.299,44.512219,-0.329912,-0.329912,-44.842132,0.000000,0.364047,0.106377,-0.088477,4.555014,1.129429,2.527136,1.476178,5.042029,0.754826,2.552079,10.906230,-19.216157,30.122388,-8.309927,0.00009228,0.00000000,0.00009227,0.00000000,0.00000001,0.000000,0.000000,0.000000,0.000000,0.000000,0.000000,0.000000,0.000000,0.22466459,0.12372695,0.02103023,0.04151075,0.01152734,0.00000000,0.00000000,0.02686932,0.01031058,0.01051511,0.01660430,0.02305467,0.53738638,0.00000000,0.00000000
5.900,1,1,1,-532.291,190.301,50.292,44.291989,-0.342771,-0.342771,-44.634760,0.000000,0.368566,0.118618,0.244696,2.993704,0.858922,2.503829,1.876231,4.626634,1.010617,2.541188,10.580373,-19.109522,29.689896,-8.529149,0.00009867,0.00000000,0.00009866,0.00000000,0.00000001,0.000000,0.000000,0.000000,0.000000,0.000000,0.000000,0.000000,0.000000,0.22638809,0.12374886,0.02124488,0.04219386,0.01185365,0.00000000,0.00000000,0.02734685,0.01031240,0.01062244,0.01687754,0.02370729,0.54693698,0.00000000,0.00000000
6.000,1,1,1,-532.284,190.312,50.285,44.017558,-0.355584,-0.355584,-44.373142,0.000000,0.373553,0.120712,0.653088,4.383127,0.598207,2.482516,2.353859,5.127972,1.427835,2.537904,10.712864,-19.080457,29.793321,-8.367592,0.00010521,0.00000000,0.00010520,0.00000000,0.00000001,0.000000,0.000000,0.000000,0.000000,0.000000,0.000000,0.000000,0.000000,0.22922512,0.12390483,0.02158257,0.04365752,0.01225432,0.00000000,0.00000000,0.02782587,0.01032540,0.01079129,0.01746301,0.02450865,0.55651748,0.00000000,0.00000000
6.100,1,1,1,-532.276,190.323,50.278,43.744102,-0.368270,-0.368270,-44.112372,0.000000,0.378304,0.124569,1.046800,4.053676,0.558833,2.464229,2.799429,5.170944,1.875377,2.542809,10.766791,-18.993114,29.759905,-8.226323,0.00011189,0.00000000,0.00011188,0.00000000,0.00000001,0.000000,0.000000,0.000000,0.000000,0.000000,0.000000,0.000000,0.000000,0.23223772,0.12430530,0.02205990,0.04490861,0.01266148,0.00000000,0.00000000,0.02830242,0.01035877,0.01102995,0.01796344,0.02532296,0.56604848,0.00000000,0.00000000
6.200,1,1,1,-532.269,190.334,50.270,43.471605,-0.380778,-0.380778,-43.852383,0.000000,0.382708,0.127482,1.419841,4.282860,0.769061,2.449744,3.205854,3.609634,2.319621,2.555927,10.851034,-18.921813,29.772846,-8.070779,0.00011874,0.00000000,0.00011872,0.00000000,0.00000001,0.000000,0.000000,0.000000,0.000000,0.000000,0.000000,0.000000,0.000000,0.23567264,0.12504237,0.02268618,0.04630581,0.01285997,0.00000000,0.00000000,0.02877831,0.01042020,0.01134309,0.01852232,0.02571995,0.57556617,0.00000000,0.00000000
6.300,1,1,1,-532.262,190.345,50.264,43.200083,-0.393065,-0.393065,-43.593147,0.000000,0.384754,0.128153,1.766662,2.807493,1.079884,2.439591,3.566423,3.452071,2.743488,2.576701,10.934240,-18.795246,29.729487,-7.861006,0.00012578,0.00000000,0.00012577,0.00000000,0.00000001,0.000000,0.000000,0.000000,0.000000,0.000000,0.000000,0.000000,0.000000,0.23884182,0.12618283,0.02346080,0.04690583,0.01304141,0.00000000,0.00000000,0.02925095,0.01051524,0.01173040,0.01876233,0.02608282,0.58501899,0.00000000,0.00000000
6.400,1,1,1,-532.256,190.355,50.258,42.929572,-0.405083,-0.405083,-43.334655,0.000000,0.384368,0.151929,2.082714,3.122620,1.410853,2.433979,3.874783,3.265859,3.135645,2.604094,9.968562,-18.724423,28.692985,-8.755860,0.00013303,0.00000000,0.00013302,0.00000000,0.00000001,0.000000,0.000000,0.000000,0.000000,0.000000,0.000000,0.000000,0.000000,0.24269649,0.12776818,0.02437535,0.04764828,0.01320383,0.00000000,0.00000000,0.02970085,0.01064735,0.01218768,0.01905931,0.02640766,0.59401706,0.00000000,0.00000000
6.500,1,1,1,-532.251,190.366,50.253,42.660120,-0.416777,-0.416777,-43.076897,0.000000,0.383911,0.135972,2.364824,2.549662,1.733755,2.432843,4.125891,2.836141,3.487427,2.636665,10.670288,-18.621863,29.292151,-7.951575,0.00014050,0.00000000,0.00014049,0.00000000,0.00000001,0.000000,0.000000,0.000000,0.000000,0.000000,0.000000,0.000000,0.000000,0.24685614,0.12981247,0.02541248,0.04814335,0.01332635,0.00000000,0.00000000,0.03016149,0.01081771,0.01270624,0.01925734,0.02665270,0.60322984,0.00000000,0.00000000
6.600,1,1,1,-532.248,190.375,50.249,42.391726,-0.428119,-0.428119,-42.819844,0.000000,0.383476,0.123470,2.608556,1.446718,2.035756,2.435826,4.315827,1.045648,3.791870,2.672710,11.208600,-18.500781,29.709382,-7.292181,0.00014818,0.00000000,0.00014817,0.00000000,0.00000001,0.000000,0.000000,0.000000,0.000000,0.000000,0.000000,0.000000,0.000000,0.25112201,0.13229970,0.02654720,0.04830273,0.01334300,0.00000000,0.00000000,0.03062938,0.01102497,0.01327360,0.01932109,0.02668600,0.61258761,0.00000000,0.00000000
6.700,1,1,1,-532.246,190.385,50.247,42.124400,-0.439139,-0.439139,-42.563539,0.000000,0.383169,0.112882,2.811403,2.420747,2.309214,2.442342,4.441455,0.515662,4.043215,2.710415,11.660581,-18.441894,30.102475,-6.781314,0.00015609,0.00000000,0.00015609,0.00000000,0.00000001,0.000000,0.000000,0.000000,0.000000,0.000000,0.000000,0.000000,0.000000,0.25613989,0.13518919,0.02774912,0.04874904,0.01334705,0.00000000,0.00000000,0.03110550,0.01126577,0.01387456,0.01949962,0.02669410,0.62210992,0.00000000,0.00000000
6.800,1,1,1,-532.245,190.395,50.246,41.858122,-0.449880,-0.449880,-42.308001,0.000000,0.373148,0.105373,2.971654,0.830789,2.549044,2.451643,4.501258,0.272155,4.236933,2.747998,11.577910,-18.297579,29.875488,-6.719669,0.00017144,0.00000000,0.00017143,0.00000000,0.00000001,0.000000,0.000000,0.000000,0.000000,0.000000,0.000000,0.000000,0.000000,0.26112844,0.13841952,0.02898441,0.04880164,0.01334818,0.00000000,0.00000000,0.03157469,0.01153496,0.01449220,0.01952066,0.02669636,0.63149372,0.00000000,0.00000000
6.900,1,1,1,-532.246,190.404,50.248,41.592869,-0.460394,-0.460394,-42.053264,0.000000,0.355322,0.100617,3.087899,0.300803,2.751586,2.462837,4.495163,-0.100268,4.369845,2.783705,11.069713,-18.185892,29.255605,-7.116179,0.00019381,0.00000000,0.00019380,0.00000000,0.00000001,0.000000,0.000000,0.000000,0.000000,0.000000,0.000000,0.000000,0.000000,0.26629964,0.14190121,0.03021412,0.04880852,0.01334833,0.00000000,0.00000000,0.03202746,0.01182510,0.01510706,0.01952341,0.02669666,0.64054916,0.00000000,0.00000000
7.000,1,1,1,-532.249,190.413,50.250,41.328678,-0.470740,-0.470740,-41.799418,0.000000,0.341723,0.098937,3.158702,0.429718,2.914003,2.475025,4.424512,-0.959704,4.440094,2.816199,10.629436,-18.091150,28.720586,-7.461715,0.00021458,0.00000000,0.00021457,0.00000000,0.00000001,0.000000,0.000000,0.000000,0.000000,0.000000,0.000000,0.000000,0.000000,0.27160790,0.14554842,0.03140679,0.04882259,0.01336236,0.00000000,0.00000000,0.03246774,0.01212903,0.01570340,0.01952903,0.02672472,0.64935480,0.00000000,0.00000000
7.100,1,1,1,-532.253,190.422,50.255,41.065566,-0.480976,-0.480976,-41.546542,0.000000,0.332536,0.116535,3.183082,-0.773493,3.034259,2.487257,4.291712,-1.847789,4.447166,2.844270,9.590978,-17.950781,27.541759,-8.359804,0.00023325,0.00000000,0.00023324,0.00000000,0.00000001,0.000000,0.000000,0.000000,0.000000,0.000000,0.000000,0.000000,0.000000,0.27694505,0.14925178,0.03252884,0.04886814,0.01341436,0.00000000,0.00000000,0.03288192,0.01243765,0.01626442,0.01954726,0.02682872,0.65763849,0.00000000,0.00000000
7.200,1,1,1,-532.259,190.431,50.261,40.803608,-0.491146,-0.491146,-41.294754,0.000000,0.327910,0.114141,3.161816,-0.214859,3.111018,2.498665,4.099927,-1.948057,4.391852,2.867058,9.592948,-17.863350,27.456298,-8.270402,0.00024937,0.00000000,0.00024937,0.00000000,0.00000001,0.000000,0.000000,0.000000,0.000000,0.000000,0.000000,0.000000,0.000000,0.28209627,0.15290637,0.03355300,0.04887166,0.01347216,0.00000000,0.00000000,0.03329308,0.01274220,0.01677650,0.01954866,0.02694433,0.66586153,0.00000000,0.00000000
7.300,1,1,1,-532.267,190.440,50.269,40.542880,-0.501291,-0.501291,-41.044170,0.000000,0.327963,0.116367,3.095878,-1.461042,3.143614,2.508477,3.852432,-2.406423,4.276041,2.883988,9.589905,-17.715100,27.305005,-8.125195,0.00026250,0.00000000,0.00026249,0.00000000,0.00000001,0.000000,0.000000,0.000000,0.000000,0.000000,0.000000,0.000000,0.000000,0.28716027,0.15640971,0.03445713,0.04903421,0.01356036,0.00000000,0.00000000,0.03369885,0.01303414,0.01722857,0.01961369,0.02712072,0.67397694,0.00000000,0.00000000
7.400,1,1,1,-532.277,190.449,50.279,40.283434,-0.511466,-0.511466,-40.794900,0.000000,0.332778,0.122383,2.987641,-0.644578,3.132141,2.516073,3.552554,-2.678578,4.102399,2.894780,9.620783,-17.629843,27.250626,-8.009060,0.00027227,0.00000000,0.00027226,0.00000000,0.00000001,0.000000,0.000000,0.000000,0.000000,0.000000,0.000000,0.000000,0.000000,0.29173621,0.15967249,0.03522602,0.04906585,0.01366964,0.00000000,0.00000000,0.03410221,0.01330604,0.01761301,0.01962634,0.02733927,0.68204426,0.00000000,0.00000000
7.500,1,1,1,-532.287,190.458,50.289,40.025315,-0.521735,-0.521735,-40.547050,0.000000,0.342391,0.130013,2.839362,-2.134268,3.077545,2.520983,3.204721,-4.211240,3.874249,2.899440,9.776613,-17.468577,27.245190,-7.691964,0.00027837,0.00000000,0.00027837,0.00000000,0.00000001,0.000000,0.000000,0.000000,0.000000,0.000000,0.000000,0.000000,0.000000,0.29632575,0.16261891,0.03585160,0.04941268,0.01393970,0.00000000,0.00000000,0.03450287,0.01355158,0.01792580,0.01976507,0.02787939,0.69005740,0.00000000,0.00000000
7.600,1,1,1,-532.299,190.467,50.301,39.768558,-0.532190,-0.532190,-40.300747,0.000000,0.356792,0.138763,2.652911,-1.661578,2.981430,2.522889,2.814849,-3.523690,3.595641,2.898266,10.074829,-17.368697,27.443526,-7.293868,0.00028060,0.00000000,0.00028059,0.00000000,0.00000001,0.000000,0.000000,0.000000,0.000000,0.000000,0.000000,0.000000,0.000000,0.30018412,0.16519187,0.03633437,0.04962295,0.01412883,0.00000000,0.00000000,0.03490609,0.01376599,0.01816719,0.01984918,0.02825766,0.69812184,0.00000000,0.00000000
7.700,1,1,1,-532.312,190.477,50.314,39.513217,-0.542932,-0.542932,-40.056149,0.000000,0.375950,0.147612,2.430785,-2.449395,2.845796,2.521632,2.390301,-3.251535,3.271511,2.891821,10.553570,-17.226307,27.779877,-6.672737,0.00027875,0.00000000,0.00027874,0.00000000,0.00000001,0.000000,0.000000,0.000000,0.000000,0.000000,0.000000,0.000000,0.000000,0.30371875,0.16735212,0.03668252,0.05007992,0.01428989,0.00000000,0.00000000,0.03531429,0.01394601,0.01834126,0.02003197,0.02857978,0.70628573,0.00000000,0.00000000
7.800,1,1,1,-532.325,190.487,50.327,39.259331,-0.554059,-0.554059,-39.813390,0.000000,0.399779,0.175956,2.176736,-2.606958,2.673156,2.517226,1.939398,-3.924761,2.907977,2.880900,10.407163,-17.103420,27.510582,-6.696257,0.00027269,0.00000000,0.00027268,0.00000000,0.00000001,0.000000,0.000000,0.000000,0.000000,0.000000,0.000000,0.000000,0.000000,0.30683336,0.16908438,0.03691171,0.05059756,0.01452454,0.00000000,0.00000000,0.03571518,0.01409036,0.01845585,0.02023903,0.02904907,0.71430363,0.00000000,0.00000000
7.900,1,1,1,-532.339,190.497,50.341,39.027087,-0.565638,-0.565638,-39.592725,0.000000,0.418455,0.170822,1.919178,-3.208564,2.488562,2.510095,1.508918,-5.299860,2.553217,2.866741,11.434319,-16.978538,28.412857,-5.544219,0.00026763,0.00000000,0.00026762,0.00000000,0.00000001,0.000000,0.000000,0.000000,0.000000,0.000000,0.000000,0.000000,0.000000,0.30994900,0.17043063,0.03705041,0.05138149,0.01495231,0.00000000,0.00000000,0.03613416,0.01420255,0.01852520,0.02055260,0.02990462,0.72268317,0.00000000,0.00000000
8.000,1,1,1,-532.352,190.508,50.355,38.776115,-0.577737,-0.577737,-39.353852,0.000000,0.421833,0.168853,1.616783,-3.623958,2.254470,2.500288,1.031816,-4.526367,2.137295,2.850063,11.671962,-16.847031,28.518993,-5.175069,0.00027841,0.00000000,0.00027840,0.00000000,0.00000001,0.000000,0.000000,0.000000,0.000000,0.000000,0.000000,0.000000,0.000000,0.31270064,0.17138581,0.03711524,0.05238127,0.01526425,0.00000000,0.00000000,0.03655406,0.01428215,0.01855762,0.02095251,0.03052850,0.73108129,0.00000000,0.00000000
8.100,1,1,1,-532.365,190.519,50.368,38.526684,-0.590413,-0.590413,-39.117098,0.000000,0.425512,0.169386,1.295821,-4.368803,1.993941,2.488226,0.552653,-5.213916,1.709570,2.831956,11.818893,-16.705973,28.524866,-4.887080,0.00028962,0.00000000,0.00028961,0.00000000,0.00000001,0.000000,0.000000,0.000000,0.000000,0.000000,0.000000,0.000000,0.000000,0.31562000,0.17199974,0.03713386,0.05383509,0.01567838,0.00000000,0.00000000,0.03697293,0.01433331,0.01856693,0.02153404,0.03135677,0.73945856,0.00000000,0.00000000
8.200,1,1,1,-532.378,190.531,50.381,38.278828,-0.603693,-0.603693,-38.882521,0.000000,0.429437,0.170725,0.960690,-3.480719,1.712204,2.474443,0.079291,-4.440423,1.286699,2.813527,11.945680,-16.616502,28.562182,-4.670822,0.00030134,0.00000000,0.00030132,0.00000000,0.00000001,0.000000,0.000000,0.000000,0.000000,0.000000,0.000000,0.000000,0.000000,0.31759883,0.17233699,0.03713424,0.05475742,0.01597859,0.00000000,0.00000000,0.03739159,0.01436142,0.01856712,0.02190297,0.03195719,0.74783184,0.00000000,0.00000000
8.300,1,1,1,-532.391,190.543,50.394,38.032556,-0.617589,-0.617589,-38.650145,0.000000,0.433544,0.169375,0.615883,-4.053676,1.415562,2.459491,-0.380592,-4.913113,0.900535,2.795733,12.193895,-16.480160,28.674055,-4.286264,0.00031362,0.00000000,0.00031361,0.00000000,0.00000001,0.000000,0.000000,0.000000,0.000000,0.000000,0.000000,0.000000,0.000000,0.31978975,0.17247590,0.03714308,0.05601116,0.01634694,0.00000000,0.00000000,0.03781267,0.01437299,0.01857154,0.02240446,0.03269388,0.75625337,0.00000000,0.00000000
8.400,1,1,1,-532.402,190.556,50.405,37.817148,-0.632102,-0.632102,-38.449250,0.000000,0.437458,0.172272,0.308332,-3.867465,1.142778,2.444136,-0.768254,-4.855817,0.651328,2.779342,12.258200,-16.388837,28.647037,-4.130637,0.00032655,0.00000000,0.00032654,0.00000000,0.00000002,0.000000,0.000000,0.000000,0.000000,0.000000,0.000000,0.000000,0.000000,0.32177564,0.17251062,0.03717900,0.05714916,0.01670573,0.00000000,0.00000000,0.03823113,0.01437589,0.01858950,0.02285966,0.03341146,0.76462267,0.00000000,0.00000000
8.500,1,1,1,-532.413,190.569,50.416,37.573853,-0.647214,-0.647214,-38.221067,0.000000,0.441706,0.169979,-0.040860,-3.251535,0.845776,2.428818,-1.182979,-3.394775,0.629852,2.765082,12.555048,-16.291372,28.846420,-3.736324,0.00034022,0.00000000,0.00034020,0.00000000,0.00000002,0.000000,0.000000,0.000000,0.000000,0.000000,0.000000,0.000000,0.000000,0.32326511,0.17251123,0.03726426,0.05795424,0.01688124,0.00000000,0.00000000,0.03865414,0.01437594,0.01863213,0.02318169,0.03376249,0.77308280,0.00000000,0.00000000
8.600,1,1,1,-532.422,190.583,50.426,37.332115,-0.662908,-0.662908,-37.995023,0.000000,0.445924,0.171661,-0.385121,-3.939085,0.586055,2.414146,-1.563837,-3.208564,0.868934,2.753440,12.684175,-16.154511,28.838686,-3.470337,0.00035468,0.00000000,0.00035466,0.00000000,0.00000002,0.000000,0.000000,0.000000,0.000000,0.000000,0.000000,0.000000,0.000000,0.32523019,0.17256549,0.03741337,0.05913683,0.01703817,0.00000000,0.00000000,0.03907634,0.01438046,0.01870669,0.02365473,0.03407634,0.78152671,0.00000000,0.00000000
8.700,1,1,1,-532.427,190.591,50.430,37.139873,-0.671294,-0.671294,-37.811168,0.000000,0.449611,0.159592,-0.653946,-4.340155,0.460669,2.400471,-1.840062,-3.380451,1.130794,2.744136,13.360836,-16.058387,29.419222,-2.697551,0.00036150,0.00000000,0.00036149,0.00000000,0.00000001,0.000000,0.000000,0.000000,0.000000,0.000000,0.000000,0.000000,0.000000,0.32763698,0.17272176,0.03761958,0.06057089,0.01721217,0.00000000,0.00000000,0.03951258,0.01439348,0.01880979,0.02422835,0.03442433,0.79025161,0.00000000,0.00000000
8.800,1,1,1,-532.435,190.606,50.438,36.901039,-0.687851,-0.687851,-37.588890,0.000000,0.453588,0.162695,-0.978603,-4.182592,0.506771,2.388387,-2.145330,-2.664254,1.470842,2.737703,13.410931,-15.953803,29.364734,-2.542872,0.00037742,0.00000000,0.00037740,0.00000000,0.00000002,0.000000,0.000000,0.000000,0.000000,0.000000,0.000000,0.000000,0.000000,0.33014156,0.17307174,0.03789991,0.06190281,0.01732025,0.00000000,0.00000000,0.03994685,0.01442265,0.01894995,0.02476112,0.03464050,0.79893700,0.00000000,0.00000000
8.900,1,1,1,-532.441,190.621,50.445,36.663824,-0.704960,-0.704960,-37.368784,0.000000,0.457350,0.163496,-1.286213,-3.495043,0.723195,2.378270,-2.401867,-2.248859,1.794061,2.733946,13.554714,-15.867925,29.422639,-2.313211,0.00039443,0.00000000,0.00039441,0.00000000,0.00000002,0.000000,0.000000,0.000000,0.000000,0.000000,0.000000,0.000000,0.000000,0.33254108,0.17367660,0.03825145,0.06283326,0.01739730,0.00000000,0.00000000,0.04038247,0.01447305,0.01912573,0.02513330,0.03479459,0.80764933,0.00000000,0.00000000
9.000,1,1,1,-532.446,190.636,50.450,36.428209,-0.722591,-0.722591,-37.150800,0.000000,0.460852,0.163911,-1.572964,-1.632930,0.994276,2.370388,-2.605697,-1.862113,2.084861,2.732473,13.707442,-15.819391,29.526833,-2.111948,0.00041265,0.00000000,0.00041263,0.00000000,0.00000002,0.000000,0.000000,0.000000,0.000000,0.000000,0.000000,0.000000,0.000000,0.33455280,0.17458086,0.03866502,0.06303628,0.01745010,0.00000000,0.00000000,0.04082053,0.01454841,0.01933251,0.02521451,0.03490020,0.81641063,0.00000000,0.00000000
9.100,1,1,1,-532.450,190.652,50.454,36.194135,-0.740715,-0.740715,-36.934849,0.000000,0.464069,0.145301,-1.835517,-2.850465,1.273365,2.364864,-2.754054,-1.360775,2.334348,2.732725,14.635181,-15.675738,30.310919,-1.040557,0.00043217,0.00000000,0.00043215,0.00000000,0.00000003,0.000000,0.000000,0.000000,0.000000,0.000000,0.000000,0.000000,0.000000,0.33735343,0.17581246,0.03912713,0.06365507,0.01747830,0.00000000,0.00000000,0.04128047,0.01465104,0.01956357,0.02546203,0.03495661,0.82560932,0.00000000,0.00000000
9.200,1,1,1,-532.453,190.669,50.457,35.961582,-0.759313,-0.759313,-36.720895,0.000000,0.466988,0.155050,-2.071492,-2.750197,1.543414,2.361699,-2.845644,-1.733197,2.536748,2.734049,14.362228,-15.580322,29.942550,-1.218094,0.00045309,0.00000000,0.00045306,0.00000000,0.00000003,0.000000,0.000000,0.000000,0.000000,0.000000,0.000000,0.000000,0.000000,0.34048529,0.17738061,0.03962034,0.06423092,0.01752404,0.00000000,0.00000000,0.04172937,0.01478172,0.01981017,0.02569237,0.03504809,0.83458736,0.00000000,0.00000000
9.300,1,1,1,-532.454,190.685,50.458,35.730557,-0.778351,-0.778351,-36.508908,0.000000,0.469614,0.160273,-2.276406,-2.119944,1.795808,2.360747,-2.880084,-1.045648,2.688265,2.735752,14.282930,-15.505123,29.788053,-1.222193,0.00047546,0.00000000,0.00047543,0.00000000,0.00000003,0.000000,0.000000,0.000000,0.000000,0.000000,0.000000,0.000000,0.000000,0.34368878,0.17927520,0.04012579,0.06457323,0.01754070,0.00000000,0.00000000,0.04217386,0.01493960,0.02006289,0.02582929,0.03508140,0.84347719,0.00000000,0.00000000
9.400,1,1,1,-532.454,190.703,50.458,35.519320,-0.797774,-0.797774,-36.317094,0.000000,0.471223,0.155681,-2.435931,-2.764521,2.003292,2.361605,-2.861269,0.902409,2.779136,2.737194,14.576169,-15.403975,29.980144,-0.827807,0.00049928,0.00000000,0.00049925,0.00000000,0.00000003,0.000000,0.000000,0.000000,0.000000,0.000000,0.000000,0.000000,0.000000,0.34739771,0.18144245,0.04062415,0.06515477,0.01755309,0.00000000,0.00000000,0.04262324,0.01512020,0.02031208,0.02606191,0.03510619,0.85246477,0.00000000,0.00000000
9.500,1,1,1,-532.452,190.720,50.457,35.291119,-0.817562,-0.817562,-36.108682,0.000000,0.472750,0.162889,-2.577386,-0.830789,2.208270,2.364111,-2.787201,1.489690,2.828356,2.737754,14.377296,-15.376578,29.753874,-0.999281,0.00052455,0.00000000,0.00052452,0.00000000,0.00000003,0.000000,0.000000,0.000000,0.000000,0.000000,0.000000,0.000000,0.000000,0.35082983,0.18387147,0.04109758,0.06520735,0.01758690,0.00000000,0.00000000,0.04306652,0.01532262,0.02054879,0.02608294,0.03517381,0.86133044,0.00000000,0.00000000
9.600,1,1,1,-532.449,190.738,50.455,35.064298,-0.837670,-0.837670,-35.901968,0.000000,0.472540,0.169819,-2.683509,-2.105620,2.383664,2.367854,-2.659691,1.203211,2.823148,2.736909,14.130676,-15.250142,29.380818,-1.119467,0.00055581,0.00000000,0.00055578,0.00000000,0.00000003,0.000000,0.000000,0.000000,0.000000,0.000000,0.000000,0.000000,0.000000,0.35468435,0.18650332,0.04152847,0.06554493,0.01760895,0.00000000,0.00000000,0.04349868,0.01554194,0.02076424,0.02621797,0.03521790,0.86997367,0.00000000,0.00000000
9.700,1,1,1,-532.445,190.755,50.451,34.838811,-0.858025,-0.858025,-35.696836,0.000000,0.459116,0.175319,-2.753147,-0.945380,2.527026,2.372379,-2.481942,1.819141,2.764510,2.734265,13.409994,-15.206384,28.616379,-1.796390,0.00061822,0.00000000,0.00061819,0.00000000,0.00000003,0.000000,0.000000,0.000000,0.000000,0.000000,0.000000,0.000000,0.000000,0.35836007,0.18927418,0.04190378,0.06561299,0.01765935,0.00000000,0.00000000,0.04390976,0.01577285,0.02095189,0.02624520,0.03531871,0.87819530,0.00000000,0.00000000
9.800,1,1,1,-532.440,190.773,50.446,34.614518,-0.878548,-0.878548,-35.493066,0.000000,0.449020,0.210566,-2.784867,-0.329451,2.636618,2.377195,-2.257771,3.452071,2.654423,2.729584,11.623907,-15.146965,26.770872,-3.523058,0.00067626,0.00000000,0.00067622,0.00000000,0.00000003,0.000000,0.000000,0.000000,0.000000,0.000000,0.000000,0.000000,0.000000,0.36205971,0.19210898,0.04221432,0.06562126,0.01784085,0.00000000,0.00000000,0.04427429,0.01600908,0.02110716,0.02624850,0.03568170,0.88548585,0.00000000,0.00000000
9.900,1,1,1,-532.434,190.792,50.440,34.391330,-0.899153,-0.899153,-35.290483,0.000000,0.442523,0.202086,-2.778782,-0.114592,2.711167,2.381823,-1.991175,2.979381,2.495862,2.722783,11.836951,-15.078032,26.914983,-3.241081,0.00072837,0.00000000,0.00072834,0.00000000,0.00000003,0.000000,0.000000,0.000000,0.000000,0.000000,0.000000,0.000000,0.000000,0.36562718,0.19493131,0.04245585,0.06562226,0.01797604,0.00000000,0.00000000,0.04464172,0.01624428,0.02122793,0.02624890,0.03595207,0.89283442,0.00000000,0.00000000
10.000,1,1,1,-532.426,190.810,50.433,34.169320,-0.919757,-0.919757,-35.089077,0.000000,0.440092,0.196878,-2.738425,-0.071620,2.750043,2.385855,-1.687489,3.051000,2.292698,2.713942,12.063643,-15.007277,27.070920,-2.943634,0.00077307,0.00000000,0.00077303,0.00000000,0.00000003,0.000000,0.000000,0.000000,0.000000,0.000000,0.000000,0.000000,0.000000,0.36905527,0.19767290,0.04262936,0.06562265,0.01811784,0.00000000,0.00000000,0.04501253,0.01647274,0.02131468,0.02624906,0.03623567,0.90025050,0.00000000,0.00000000
10.100,1,1,1,-532.417,190.827,50.424,33.948236,-0.940297,-0.940297,-34.888533,0.000000,0.441780,0.196162,-2.662956,-0.286479,2.753321,2.388906,-1.353499,4.254212,2.049896,2.703305,12.258790,-14.932349,27.191139,-2.673559,0.00080894,0.00000000,0.00080891,0.00000000,0.00000003,0.000000,0.000000,0.000000,0.000000,0.000000,0.000000,0.000000,0.000000,0.37241320,0.20026429,0.04274094,0.06562890,0.01839341,0.00000000,0.00000000,0.04538567,0.01668869,0.02137047,0.02625156,0.03678681,0.90771333,0.00000000,0.00000000
10.200,1,1,1,-532.408,190.845,50.415,33.728462,-0.960683,-0.960683,-34.689145,0.000000,0.447609,0.198819,-2.551879,0.458366,2.721262,2.390643,-0.995830,3.552338,1.773666,2.691234,12.473198,-14.891140,27.364338,-2.417942,0.00083456,0.00000000,0.00083453,0.00000000,0.00000003,0.000000,0.000000,0.000000,0.000000,0.000000,0.000000,0.000000,0.000000,0.37543962,0.20264476,0.04280136,0.06564490,0.01858561,0.00000000,0.00000000,0.04576300,0.01688706,0.02140068,0.02625796,0.03717122,0.91525996,0.00000000,0.00000000
10.300,1,1,1,-532.397,190.863,50.405,33.509106,-0.980827,-0.980827,-34.489933,0.000000,0.457570,0.202320,-2.406900,1.747521,2.654483,2.390810,-0.620802,4.999057,1.471904,2.678194,12.812341,-14.867464,27.679805,-2.055123,0.00084858,0.00000000,0.00084855,0.00000000,0.00000003,0.000000,0.000000,0.000000,0.000000,0.000000,0.000000,0.000000,0.000000,0.37858111,0.20476373,0.04282485,0.06587761,0.01896648,0.00000000,0.00000000,0.04614844,0.01706364,0.02141243,0.02635104,0.03793296,0.92296878,0.00000000,0.00000000
10.400,1,1,1,-532.392,190.871,50.399,33.360664,-0.990408,-0.990408,-34.351071,0.000000,0.466995,0.183759,-2.290423,1.203211,2.587753,2.389816,-0.358943,4.440423,1.251393,2.664873,14.025904,-14.809203,28.835107,-0.783299,0.00084346,0.00000000,0.00084346,0.00000000,0.00000001,0.000000,0.000000,0.000000,0.000000,0.000000,0.000000,0.000000,0.000000,0.38133410,0.20668200,0.04283270,0.06598789,0.01926689,0.00000000,0.00000000,0.04656461,0.01722350,0.02141635,0.02639516,0.03853378,0.93129227,0.00000000,0.00000000
10.500,1,1,1,-532.380,190.888,50.388,33.143056,-1.010177,-1.010177,-34.153232,0.000000,0.483733,0.200568,-2.097647,1.375099,2.464956,2.387071,0.031276,4.311507,0.936206,2.651516,14.048146,-14.754522,28.802668,-0.706375,0.00083586,0.00000000,0.00083583,0.00000000,0.00000003,0.000000,0.000000,0.000000,0.000000,0.000000,0.000000,0.000000,0.000000,0.38378494,0.20829054,0.04283276,0.06613190,0.01955004,0.00000000,0.00000000,0.04697969,0.01735755,0.02141638,0.02645276,0.03910007,0.93959380,0.00000000,0.00000000
10.601,1,1,1,-532.367,190.905,50.375,32.926027,-1.029675,-1.029675,-33.955702,0.000000,0.495261,0.206287,-1.878512,2.563986,2.311647,2.382543,0.422113,4.970409,0.655027,2.638620,14.319065,-14.732808,29.051874,-0.413743,0.00084099,0.00000000,0.00084097,0.00000000,0.00000003,0.000000,0.000000,0.000000,0.000000,0.000000,0.000000,0.000000,0.000000,0.38639940,0.20958775,0.04284368,0.06663537,0.01992844,0.00000000,0.00000000,0.04740416,0.01746565,0.02142184,0.02665415,0.03985688,0.94808325,0.00000000,0.00000000
10.700,1,1,1,-532.353,190.922,50.362,32.709953,-1.048811,-1.048811,-33.758764,0.000000,0.498092,0.210241,-1.636008,1.504014,2.130403,2.376405,0.807723,4.512043,0.505939,2.626952,14.301933,-14.641414,28.943347,-0.339481,0.00087089,0.00000000,0.00087086,0.00000000,0.00000003,0.000000,0.000000,0.000000,0.000000,0.000000,0.000000,0.000000,0.000000,0.38830567,0.21055944,0.04288315,0.06680646,0.02023640,0.00000000,0.00000000,0.04782022,0.01754662,0.02144158,0.02672258,0.04047280,0.95640435,0.00000000,0.00000000
10.800,1,1,1,-532.339,190.938,50.347,32.494209,-1.067532,-1.067532,-33.561741,0.000000,0.501107,0.212458,-1.373703,1.246183,1.924431,2.368694,1.181973,4.555014,0.609465,2.616739,14.371572,-14.579421,28.950993,-0.207850,0.00089993,0.00000000,0.00089990,0.00000000,0.00000003,0.000000,0.000000,0.000000,0.000000,0.000000,0.000000,0.000000,0.000000,0.38993762,0.21125079,0.04296846,0.06692499,0.02055312,0.00000000,0.00000000,0.04824026,0.01760423,0.02148423,0.02677000,0.04110624,0.96480522,0.00000000,0.00000000
10.900,1,1,1,-532.324,190.954,50.333,32.279538,-1.085800,-1.085800,-33.365338,0.000000,0.504294,0.216561,-1.095763,2.105620,1.697283,2.359739,1.538693,3.380451,0.878211,2.608507,14.373564,-14.553337,28.926901,-0.179773,0.00092797,0.00000000,0.00092794,0.00000000,0.00000003,0.000000,0.000000,0.000000,0.000000,0.000000,0.000000,0.000000,0.000000,0.39144865,0.21168905,0.04311249,0.06726214,0.02072692,0.00000000,0.00000000,0.04865805,0.01764075,0.02155625,0.02690486,0.04145383,0.97316099,0.00000000,0.00000000
11.000,1,1,1,-532.308,190.969,50.318,32.065247,-1.103559,-1.103559,-33.168806,0.000000,0.507616,0.217049,-0.806445,2.034000,1.452768,2.349774,1.871895,2.936409,1.197026,2.602463,14.534931,-14.496695,29.031625,0.038236,0.00095495,0.00000000,0.00095492,0.00000000,0.00000002,0.000000,0.000000,0.000000,0.000000,0.000000,0.000000,0.000000,0.000000,0.39277038,0.21192727,0.04332640,0.06757785,0.02085852,0.00000000,0.00000000,0.04908033,0.01766061,0.02166320,0.02703114,0.04171703,0.98160669,0.00000000,0.00000000
11.100,1,1,1,-532.293,190.984,50.302,31.851562,-1.120792,-1.120792,-32.972355,0.000000,0.511041,0.192055,-0.510336,2.864789,1.196094,2.339216,2.176257,3.065324,1.522147,2.598778,15.749857,-14.468064,30.217921,1.281794,0.00098084,0.00000000,0.00098082,0.00000000,0.00000002,0.000000,0.000000,0.000000,0.000000,0.000000,0.000000,0.000000,0.000000,0.39437547,0.21202223,0.04361420,0.06820124,0.02100126,0.00000000,0.00000000,0.04953654,0.01766852,0.02180710,0.02728050,0.04200252,0.99073082,0.00000000,0.00000000
11.200,1,1,1,-532.277,190.998,50.287,31.638211,-1.137489,-1.137489,-32.775700,0.000000,0.514519,0.203306,-0.209417,3.251535,0.934766,2.328346,2.447053,3.337479,1.835686,2.597401,15.442025,-14.423535,29.865560,1.018491,0.00100574,0.00000000,0.00100572,0.00000000,0.00000002,0.000000,0.000000,0.000000,0.000000,0.000000,0.000000,0.000000,0.000000,0.39617788,0.21203826,0.04397907,0.06900650,0.02117094,0.00000000,0.00000000,0.04998310,0.01766986,0.02198953,0.02760260,0.04234188,0.99966204,0.00000000,0.00000000
11.300,1,1,1,-532.262,191.012,50.272,31.442669,-1.153608,-1.153608,-32.596276,0.000000,0.517826,0.200611,0.070879,0.945380,0.706274,2.317547,2.663815,2.148592,2.099792,2.598024,15.721374,-14.301503,30.022877,1.419871,0.00102964,0.00000000,0.00102962,0.00000000,0.00000002,0.000000,0.000000,0.000000,0.000000,0.000000,0.000000,0.000000,0.000000,0.39720255,0.21204010,0.04441157,0.06907459,0.02124128,0.00000000,0.00000000,0.05043500,0.01767001,0.02220579,0.02762984,0.04248256,1.00870002,0.00000000,0.00000000
11.400,1,1,1,-532.246,191.025,50.257,31.230439,-1.169189,-1.169189,-32.399627,0.000000,0.521297,0.198029,0.373145,2.979381,0.489018,2.307168,2.862682,2.349127,2.366887,2.600575,16.001560,-14.312552,30.314112,1.689008,0.00105273,0.00000000,0.00105271,0.00000000,0.00000002,0.000000,0.000000,0.000000,0.000000,0.000000,0.000000,0.000000,0.000000,0.39897373,0.21209100,0.04491086,0.06975062,0.02132534,0.00000000,0.00000000,0.05089592,0.01767425,0.02245543,0.02790025,0.04265067,1.01791836,0.00000000,0.00000000
11.500,1,1,1,-532.231,191.038,50.242,31.044167,-1.184338,-1.184338,-32.228504,0.000000,0.524419,0.195964,0.631390,2.205888,0.392555,2.297442,3.004942,0.916732,2.579900,2.604535,16.245390,-14.238393,30.483782,2.006997,0.00107535,0.00000000,0.00107533,0.00000000,0.00000002,0.000000,0.000000,0.000000,0.000000,0.000000,0.000000,0.000000,0.000000,0.40052016,0.21223678,0.04546118,0.07012132,0.02133814,0.00000000,0.00000000,0.05136274,0.01768640,0.02273059,0.02804853,0.04267628,1.02725476,0.00000000,0.00000000
11.600,1,1,1,-532.216,191.051,50.227,30.833028,-1.199143,-1.199143,-32.032171,0.000000,0.525209,0.192869,0.913075,1.704549,0.474320,2.288710,3.128421,1.117268,2.783348,2.609725,16.436300,-14.165562,30.601862,2.270737,0.00109776,0.00000000,0.00109774,0.00000000,0.00000002,0.000000,0.000000,0.000000,0.000000,0.000000,0.000000,0.000000,0.000000,0.40213241,0.21254156,0.04605749,0.07034261,0.02135715,0.00000000,0.00000000,0.05183359,0.01771180,0.02302875,0.02813704,0.04271431,1.03667187,0.00000000,0.00000000
11.700,1,1,1,-532.202,191.064,50.213,30.622394,-1.213621,-1.213621,-31.836015,0.000000,0.526088,0.190625,1.182137,0.687549,0.680084,2.281209,3.210517,1.174563,2.949505,2.615698,16.598051,-14.076667,30.674719,2.521384,0.00112015,0.00000000,0.00112013,0.00000000,0.00000002,0.000000,0.000000,0.000000,0.000000,0.000000,0.000000,0.000000,0.000000,0.40380130,0.21305221,0.04668525,0.07037860,0.02137816,0.00000000,0.00000000,0.05230708,0.01775435,0.02334262,0.02815144,0.04275632,1.04614167,0.00000000,0.00000000
11.800,1,1,1,-532.189,191.076,50.200,30.412457,-1.227795,-1.227795,-31.640252,0.000000,0.527343,0.219285,1.436716,2.277507,0.923053,2.275110,3.250845,-0.572958,3.076863,2.621993,15.504981,-14.068221,29.573202,1.436760,0.00114271,0.00000000,0.00114269,0.00000000,0.00000002,0.000000,0.000000,0.000000,0.000000,0.000000,0.000000,0.000000,0.000000,0.40603814,0.21380679,0.04732912,0.07077363,0.02138316,0.00000000,0.00000000,0.05274543,0.01781723,0.02366456,0.02830945,0.04276632,1.05490857,0.00000000,0.00000000
11.900,1,1,1,-532.176,191.088,50.187,30.203344,-1.241745,-1.241745,-31.445089,0.000000,0.528973,0.199833,1.673046,1.289155,1.171194,2.270524,3.250099,0.085944,3.164466,2.628155,16.448722,-13.974324,30.423046,2.474397,0.00116570,0.00000000,0.00116568,0.00000000,0.00000001,0.000000,0.000000,0.000000,0.000000,0.000000,0.000000,0.000000,0.000000,0.40829720,0.21482989,0.04797262,0.07090019,0.02138327,0.00000000,0.00000000,0.05321123,0.01790249,0.02398631,0.02836007,0.04276655,1.06422469,0.00000000,0.00000000
12.000,1,1,1,-532.164,191.100,50.176,29.994908,-1.255630,-1.255630,-31.250538,0.000000,0.530979,0.186149,1.883764,1.804817,1.411494,2.267446,3.209361,-0.658901,3.212002,2.633761,17.142301,-13.926657,31.068958,3.215644,0.00118951,0.00000000,0.00118949,0.00000000,0.00000001,0.000000,0.000000,0.000000,0.000000,0.000000,0.000000,0.000000,0.000000,0.41096369,0.21612672,0.04859998,0.07114819,0.02138988,0.00000000,0.00000000,0.05369893,0.01801056,0.02429999,0.02845928,0.04277977,1.07397851,0.00000000,0.00000000
