t,controller_id,state_code,wp_idx,x,y,dist,yaw_deg,yaw_to_wp_deg,yaw_ref_deg,yaw_err_deg,yaw_rate_deg_s,speed_ref,speed_meas,roll_deg,roll_rate_deg_s,roll_rms_window_deg,roll_rms_total_deg,pitch_deg,pitch_rate_deg_s,pitch_rms_window_deg,pitch_rms_total_deg,base_cmd,diff_cmd,T_left,T_right,J_inst,J_goal,J_wave_roll,J_progress,J_smooth,J_mpc_distance,J_mpc_final,J_mpc_heading,J_mpc_wrong_way,J_mpc_pitch,J_mpc_control,J_mpc_slew,J_mpc_turn,J_total,J_roll,J_pitch,J_roll_rate,J_pitch_rate,J_goal_heading,J_no_progress,J_control,I_roll,I_pitch,I_roll_rate,I_pitch_rate,I_control,I_no_progress,I_goal_heading
0.200,1,1,1,-531.997,189.993,49.997,56.139725,0.007704,0.007704,-56.132021,0.000000,0.344995,0.000000,-0.864454,3.122620,1.203252,0.000000,-0.608374,3.967733,0.922065,0.000000,0.000000,-5.000000,5.000000,-5.000000,0.00000003,0.00000000,0.00000002,0.00000000,0.00000000,0.000000,0.000000,0.000000,0.000000,0.000000,0.000000,0.000000,0.000000,0.00000000,0.00000000,0.00000000,0.00000000,0.00000000,0.00000000,0.00000000,0.00000000,0.00000000,0.00000000,0.00000000,0.00000000,0.00000000,0.00000000,0.00000000
0.300,1,1,1,-531.994,189.989,49.994,56.087949,0.012929,0.012929,-56.075020,0.000000,0.356739,0.005406,-0.466690,4.139620,1.052812,0.466690,-0.244147,4.884465,0.791254,0.244147,0.000000,-10.000000,10.000000,-10.000000,0.00000006,0.00000000,0.00000006,0.00000000,0.00000000,0.000000,0.000000,0.000000,0.000000,0.000000,0.000000,0.000000,0.000000,0.00185240,0.00007965,0.00000363,0.00130555,0.00036353,0.00000000,0.00000000,0.00010004,0.00000664,0.00000182,0.00052222,0.00072705,0.00200082,0.00000000,0.00000000
0.400,1,1,1,-531.989,189.984,49.989,56.025191,0.017839,0.017839,-56.007352,0.000000,0.367299,0.020930,-0.038950,3.867465,0.920922,0.331217,0.156811,4.798522,0.687741,0.205198,1.017045,-13.982955,15.000000,-12.965910,0.00000010,0.00000000,0.00000010,0.00000000,0.00000000,0.000000,0.000000,0.000000,0.000000,0.000000,0.000000,0.000000,0.000000,0.00354001,0.00008020,0.00000513,0.00244410,0.00071407,0.00000000,0.00000000,0.00029651,0.00000668,0.00000257,0.00097764,0.00142814,0.00593018,0.00000000,0.00000000
0.500,1,1,1,-531.984,189.980,49.984,55.945687,0.022472,0.022472,-55.923215,0.000000,0.382088,0.039788,0.388806,5.228240,0.733622,0.351466,0.567995,4.913113,0.560195,0.368270,3.461516,-16.538484,20.000000,-13.076968,0.00000012,0.00000000,0.00000012,0.00000000,0.00000000,0.000000,0.000000,0.000000,0.000000,0.000000,0.000000,0.000000,0.000000,0.00635022,0.00013547,0.00002479,0.00452611,0.00108179,0.00000000,0.00000000,0.00058206,0.00001129,0.00001239,0.00181044,0.00216358,0.01164127,0.00000000,0.00000000
0.600,1,1,1,-531.980,189.977,49.980,55.845828,0.026768,0.026768,-55.819060,0.000000,0.395808,0.049199,0.805278,3.423423,0.556240,0.504696,0.984220,4.540691,0.524151,0.586358,6.147732,-18.852268,25.000000,-12.704536,0.00000013,0.00000000,0.00000013,0.00000000,0.00000000,0.000000,0.000000,0.000000,0.000000,0.000000,0.000000,0.000000,0.000000,0.00824522,0.00037241,0.00008378,0.00541824,0.00139568,0.00000000,0.00000000,0.00097510,0.00003103,0.00004189,0.00216730,0.00279137,0.01950196,0.00000000,0.00000000
0.700,1,1,1,-531.974,189.973,49.974,55.724144,0.030419,0.030419,-55.693725,0.000000,0.391166,0.053913,1.219046,4.583662,0.626095,0.707821,1.422397,4.211240,0.731046,0.824454,8.513608,-21.486392,30.000000,-12.972784,0.00000019,0.00000000,0.00000019,0.00000000,0.00000000,0.000000,0.000000,0.000000,0.000000,0.000000,0.000000,0.000000,0.000000,0.01131606,0.00091565,0.00020704,0.00701829,0.00166580,0.00000000,0.00000000,0.00150926,0.00007630,0.00010352,0.00280732,0.00333161,0.03018525,0.00000000,0.00000000
0.800,1,1,1,-531.969,189.971,49.969,55.579559,0.033121,0.033121,-55.546438,0.000000,0.371816,0.056923,1.633219,4.454747,0.903793,0.928491,1.887687,5.729578,1.073862,1.077198,10.648093,-24.351907,35.000000,-13.703813,0.00000033,0.00000000,0.00000033,0.00000000,0.00000000,0.000000,0.000000,0.000000,0.000000,0.000000,0.000000,0.000000,0.000000,0.01522591,0.00189071,0.00042414,0.00852958,0.00216581,0.00000000,0.00000000,0.00221567,0.00015756,0.00021207,0.00341183,0.00433162,0.04431339,0.00000000,0.00000000
0.900,1,1,1,-531.963,189.970,49.963,55.424981,0.034925,0.034925,-55.390056,0.000000,0.349870,0.057381,2.000065,3.724226,1.221729,1.144757,2.313653,4.540691,1.432752,1.326419,10.666392,-25.047141,35.713533,-14.380748,0.00000050,0.00000000,0.00000050,0.00000000,0.00000000,0.000000,0.000000,0.000000,0.000000,0.000000,0.000000,0.000000,0.000000,0.01912618,0.00335315,0.00075030,0.00958596,0.00247988,0.00000000,0.00000000,0.00295689,0.00027943,0.00037515,0.00383438,0.00495976,0.05913783,0.00000000,0.00000000
1.000,1,1,1,-531.958,189.968,49.958,55.232945,0.036274,0.036274,-55.196671,0.000000,0.324528,0.050938,2.362338,3.237212,1.592546,1.358015,2.730211,3.767198,1.850299,1.571997,9.908918,-24.794539,34.703457,-14.885620,0.00000070,0.00000000,0.00000070,0.00000000,0.00000000,0.000000,0.000000,0.000000,0.000000,0.000000,0.000000,0.000000,0.000000,0.02334704,0.00539291,0.00120439,0.01038395,0.00269601,0.00000000,0.00000000,0.00366978,0.00044941,0.00060219,0.00415358,0.00539202,0.07339563,0.00000000,0.00000000
1.100,1,1,1,-531.954,189.967,49.954,55.018046,0.037689,0.037689,-54.980357,0.000000,0.300086,0.044764,2.677780,3.251535,1.956129,1.560703,3.073356,3.366127,2.260764,1.801613,9.207528,-24.564142,33.771669,-15.356614,0.00000092,0.00000000,0.00000092,0.00000000,0.00000000,0.000000,0.000000,0.000000,0.000000,0.000000,0.000000,0.000000,0.000000,0.02820732,0.00801285,0.00177958,0.01118873,0.00286851,0.00000000,0.00000000,0.00435765,0.00066774,0.00088979,0.00447549,0.00573702,0.08715297,0.00000000,0.00000000
1.200,1,1,1,-531.952,189.966,49.952,54.812504,0.039309,0.039309,-54.773195,0.000000,0.279634,0.036799,2.920704,2.406423,2.265086,1.745149,3.322929,2.707226,2.606542,2.006433,8.767119,-24.323307,33.090426,-15.556188,0.00000116,0.00000000,0.00000116,0.00000000,0.00000000,0.000000,0.000000,0.000000,0.000000,0.000000,0.000000,0.000000,0.000000,0.03322159,0.01113246,0.00245259,0.01162992,0.00298019,0.00000000,0.00000000,0.00502643,0.00092771,0.00122629,0.00465197,0.00596038,0.10052853,0.00000000,0.00000000
1.300,1,1,1,-531.950,189.964,49.950,54.563043,0.040820,0.040820,-54.522223,0.000000,0.259237,0.028231,3.160956,3.394775,2.579916,1.917625,3.574514,2.306155,2.953370,2.195838,8.364144,-24.137589,32.501733,-15.773446,0.00000143,0.00000000,0.00000143,0.00000000,0.00000000,0.000000,0.000000,0.000000,0.000000,0.000000,0.000000,0.000000,0.000000,0.03926637,0.01478649,0.00323137,0.01250796,0.00306123,0.00000000,0.00000000,0.00567931,0.00123221,0.00161569,0.00500319,0.00612246,0.11358616,0.00000000,0.00000000
1.400,1,1,1,-531.950,189.964,49.950,54.299143,0.041841,0.041841,-54.257303,0.000000,0.241574,0.019897,3.354898,2.807493,2.858101,2.075734,3.808598,2.836141,3.257838,2.372452,8.071135,-23.904914,31.976049,-15.833779,0.00000166,0.00000000,0.00000166,0.00000000,0.00000000,0.000000,0.000000,0.000000,0.000000,0.000000,0.000000,0.000000,0.000000,0.04562256,0.01890002,0.00411493,0.01310810,0.00318372,0.00000000,0.00000000,0.00631578,0.00157500,0.00205747,0.00524324,0.00636744,0.12631558,0.00000000,0.00000000
1.500,1,1,1,-531.952,189.963,49.952,54.022648,0.042375,0.042375,-53.980273,0.000000,0.226926,0.018278,3.488151,1.274831,3.093888,2.216579,4.012235,2.750197,3.523129,2.536521,7.627879,-23.646967,31.274846,-16.019088,0.00000185,0.00000000,0.00000185,0.00000000,0.00000000,0.000000,0.000000,0.000000,0.000000,0.000000,0.000000,0.000000,0.000000,0.05190781,0.02334803,0.00509577,0.01323188,0.00329893,0.00000000,0.00000000,0.00693320,0.00194567,0.00254788,0.00529275,0.00659786,0.13866396,0.00000000,0.00000000
1.600,1,1,1,-531.955,189.963,49.955,53.735033,0.042861,0.042861,-53.692172,0.000000,0.215595,0.033122,3.555311,0.186211,3.281909,2.337764,4.155331,0.558634,3.751509,2.684715,6.648792,-23.406986,30.055778,-16.758194,0.00000200,0.00000000,0.00000200,0.00000000,0.00000000,0.000000,0.000000,0.000000,0.000000,0.000000,0.000000,0.000000,0.000000,0.05817971,0.02796851,0.00614771,0.01323452,0.00330368,0.00000000,0.00000000,0.00752529,0.00233071,0.00307385,0.00529381,0.00660737,0.15050571,0.00000000,0.00000000
1.700,1,1,1,-531.961,189.962,49.961,53.437793,0.043814,0.043814,-53.393979,0.000000,0.207918,0.044757,3.562807,-0.945380,3.417405,2.438647,4.217126,-0.100268,3.938495,2.812959,5.972388,-23.168416,29.140804,-17.196028,0.00000218,0.00000000,0.00000218,0.00000000,0.00000000,0.000000,0.000000,0.000000,0.000000,0.000000,0.000000,0.000000,0.000000,0.06454341,0.03260820,0.00723110,0.01330258,0.00330384,0.00000000,0.00000000,0.00809769,0.00271735,0.00361555,0.00532103,0.00660767,0.16195378,0.00000000,0.00000000
1.800,1,1,1,-531.969,189.960,49.969,53.132454,0.045444,0.045444,-53.087010,0.000000,0.204204,0.061541,3.517393,-0.472690,3.497027,2.519617,4.197796,0.343775,4.073405,2.918799,5.253650,-22.981763,28.235413,-17.728114,0.00000240,0.00000000,0.00000240,0.00000000,0.00000000,0.000000,0.000000,0.000000,0.000000,0.000000,0.000000,0.000000,0.000000,0.07071247,0.03712954,0.00830439,0.01331959,0.00330564,0.00000000,0.00000000,0.00865331,0.00309413,0.00415220,0.00532784,0.00661127,0.17306621,0.00000000,0.00000000
1.900,1,1,1,-531.980,189.958,49.980,52.820344,0.047598,0.047598,-52.772747,0.000000,0.204656,0.079888,3.417994,-1.546986,3.519539,2.581136,4.109618,-0.157563,4.145095,3.001957,4.648194,-22.745866,27.394061,-18.097672,0.00000265,0.00000000,0.00000265,0.00000000,0.00000000,0.000000,0.000000,0.000000,0.000000,0.000000,0.000000,0.000000,0.000000,0.07673381,0.04140025,0.00933338,0.01350185,0.00330601,0.00000000,0.00000000,0.00919232,0.00345002,0.00466669,0.00540074,0.00661203,0.18384635,0.00000000,0.00000000
2.000,1,1,1,-531.992,189.956,49.992,52.502545,0.050048,0.050048,-52.452497,0.000000,0.209370,0.099466,3.259447,-1.389423,3.485585,2.623425,3.961707,-1.976704,4.147538,3.063175,4.168462,-22.549341,26.717803,-18.380878,0.00000290,0.00000000,0.00000290,0.00000000,0.00000000,0.000000,0.000000,0.000000,0.000000,0.000000,0.000000,0.000000,0.000000,0.08230578,0.04528368,0.01028956,0.01364886,0.00336553,0.00000000,0.00000000,0.00971815,0.00377364,0.00514478,0.00545954,0.00673105,0.19436309,0.00000000,0.00000000
2.100,1,1,1,-532.007,189.954,50.007,52.179984,0.052743,0.052743,-52.127241,0.000000,0.218408,0.121682,3.042030,-3.065324,3.396488,2.647121,3.754505,-2.177240,4.081158,3.103426,3.754508,-22.294801,26.049308,-18.540293,0.00000314,0.00000000,0.00000314,0.00000000,0.00000000,0.000000,0.000000,0.000000,0.000000,0.000000,0.000000,0.000000,0.000000,0.08784951,0.04866840,0.01114887,0.01436485,0.00343777,0.00000000,0.00000000,0.01022962,0.00405570,0.00557443,0.00574594,0.00687554,0.20459231,0.00000000,0.00000000
2.200,1,1,1,-532.023,189.951,50.023,51.853552,0.055772,0.055772,-51.797780,0.000000,0.231856,0.164952,2.773589,-1.876437,3.253488,2.653583,3.486734,-2.936409,3.950287,3.123693,2.648995,-22.131482,24.780478,-19.482487,0.00000336,0.00000000,0.00000336,0.00000000,0.00000000,0.000000,0.000000,0.000000,0.000000,0.000000,0.000000,0.000000,0.000000,0.09229502,0.05147823,0.01188896,0.01463278,0.00356899,0.00000000,0.00000000,0.01072605,0.00428985,0.00594448,0.00585311,0.00713799,0.21452095,0.00000000,0.00000000
2.300,1,1,1,-532.041,189.948,50.041,51.524079,0.059185,0.059185,-51.464894,0.000000,0.249795,0.172308,2.463193,-2.850465,3.058360,2.644828,3.163120,-1.948057,3.759895,3.125582,3.223400,-21.898540,25.121940,-18.675140,0.00000356,0.00000000,0.00000356,0.00000000,0.00000000,0.000000,0.000000,0.000000,0.000000,0.000000,0.000000,0.000000,0.000000,0.09628884,0.05369604,0.01249850,0.01525154,0.00362679,0.00000000,0.00000000,0.01121597,0.00447467,0.00624925,0.00610061,0.00725359,0.22431945,0.00000000,0.00000000
2.400,1,1,1,-532.061,189.945,50.061,51.192268,0.062880,0.062880,-51.129387,0.000000,0.272226,0.185037,2.114578,-4.010705,2.814434,2.623045,2.792757,-3.409099,3.514206,3.111221,3.723736,-21.663112,25.386848,-17.939376,0.00000370,0.00000000,0.00000370,0.00000000,0.00000000,0.000000,0.000000,0.000000,0.000000,0.000000,0.000000,0.000000,0.000000,0.10028498,0.05533106,0.01297383,0.01647694,0.00380386,0.00000000,0.00000000,0.01169929,0.00461092,0.00648691,0.00659077,0.00760773,0.23398573,0.00000000,0.00000000
2.500,1,1,1,-532.081,189.942,50.081,50.858789,0.066688,0.066688,-50.792100,0.000000,0.291873,0.197021,1.730733,-3.237212,2.527142,2.590660,2.382211,-4.726902,3.217262,3.083122,4.111464,-21.490123,25.601587,-17.378658,0.00000388,0.00000000,0.00000388,0.00000000,0.00000000,0.000000,0.000000,0.000000,0.000000,0.000000,0.000000,0.000000,0.000000,0.10334153,0.05642557,0.01331943,0.01727467,0.00414404,0.00000000,0.00000000,0.01217782,0.00470213,0.00665971,0.00690987,0.00828807,0.24355643,0.00000000,0.00000000
2.600,1,1,1,-532.103,189.938,50.103,50.524243,0.070559,0.070559,-50.453684,0.000000,0.298773,0.207832,1.317686,-3.939085,2.203570,2.550345,1.933429,-4.354479,2.874206,3.043908,4.002215,-21.270483,25.272697,-17.268268,0.00000429,0.00000000,0.00000429,0.00000000,0.00000000,0.000000,0.000000,0.000000,0.000000,0.000000,0.000000,0.000000,0.000000,0.10614222,0.05706012,0.01354711,0.01845605,0.00443277,0.00000000,0.00000000,0.01264617,0.00475501,0.00677356,0.00738242,0.00886554,0.25292335,0.00000000,0.00000000
2.700,1,1,1,-532.125,189.935,50.125,50.189188,0.074528,0.074528,-50.114659,0.000000,0.305603,0.217107,0.884487,-4.440423,1.851781,2.505062,1.448197,-4.970409,2.491796,2.996431,3.951503,-21.060724,25.012228,-17.109221,0.00000471,0.00000000,0.00000471,0.00000000,0.00000000,0.000000,0.000000,0.000000,0.000000,0.000000,0.000000,0.000000,0.000000,0.10889344,0.05734614,0.01367491,0.01995787,0.00480911,0.00000000,0.00000000,0.01310541,0.00477884,0.00683745,0.00798315,0.00961823,0.26210829,0.00000000,0.00000000
2.800,1,1,1,-532.148,189.931,50.148,49.854168,0.078576,0.078576,-49.775592,0.000000,0.312972,0.222586,0.439363,-4.426099,1.481762,2.457928,0.934481,-5.328507,2.078577,2.943954,4.075928,-20.870364,24.946292,-16.794436,0.00000514,0.00000000,0.00000514,0.00000000,0.00000000,0.000000,0.000000,0.000000,0.000000,0.000000,0.000000,0.000000,0.000000,0.11139358,0.05741670,0.01372811,0.02144966,0.00524154,0.00000000,0.00000000,0.01355757,0.00478472,0.00686405,0.00857987,0.01048307,0.27115142,0.00000000,0.00000000
2.900,1,1,1,-532.171,189.928,50.171,49.519647,0.082544,0.082544,-49.437103,0.000000,0.320619,0.255265,-0.011332,-2.836141,1.110374,2.411980,0.407352,-4.426099,1.646660,2.889982,3.083146,-20.730848,23.813994,-17.647703,0.00000557,0.00000000,0.00000556,0.00000000,0.00000000,0.000000,0.000000,0.000000,0.000000,0.000000,0.000000,0.000000,0.000000,0.11275401,0.05741674,0.01373822,0.02206225,0.00553993,0.00000000,0.00000000,0.01399686,0.00478473,0.00686911,0.00882490,0.01107986,0.27993730,0.00000000,0.00000000
3.000,1,1,1,-532.193,189.924,50.193,49.185956,0.086248,0.086248,-49.099708,0.000000,0.328276,0.243416,-0.460541,-4.082324,0.776295,2.370122,-0.115881,-5.085000,1.218044,2.837999,3.951300,-20.504025,24.455325,-16.552725,0.00000596,0.00000000,0.00000596,0.00000000,0.00000000,0.000000,0.000000,0.000000,0.000000,0.000000,0.000000,0.000000,0.000000,0.11493096,0.05749426,0.01373904,0.02333117,0.00593369,0.00000000,0.00000000,0.01443281,0.00479119,0.00686952,0.00933247,0.01186737,0.28865628,0.00000000,0.00000000
3.100,1,1,1,-532.215,189.921,50.215,48.853366,0.089595,0.089595,-48.763771,0.000000,0.335672,0.235282,-0.901016,-3.437747,0.586255,2.334909,-0.623233,-5.242564,0.845344,2.791048,4.621888,-20.343198,24.965087,-15.721310,0.00000632,0.00000000,0.00000632,0.00000000,0.00000000,0.000000,0.000000,0.000000,0.000000,0.000000,0.000000,0.000000,0.000000,0.11700474,0.05779095,0.01376269,0.02423096,0.00635220,0.00000000,0.00000000,0.01486792,0.00481591,0.00688135,0.00969239,0.01270441,0.29735847,0.00000000,0.00000000
3.200,1,1,1,-532.237,189.919,50.237,48.522103,0.092582,0.092582,-48.429521,0.000000,0.342554,0.226365,-1.323521,-3.323155,0.684401,2.308328,-1.109972,-3.781521,0.668662,2.751582,5.282136,-20.169518,25.451653,-14.887382,0.00000665,0.00000000,0.00000665,0.00000000,0.00000000,0.000000,0.000000,0.000000,0.000000,0.000000,0.000000,0.000000,0.000000,0.11921515,0.05843171,0.01383781,0.02507254,0.00657015,0.00000000,0.00000000,0.01530293,0.00486931,0.00691890,0.01002902,0.01314031,0.30605867,0.00000000,0.00000000
3.300,1,1,1,-532.257,189.916,50.257,48.192342,0.095252,0.095252,-48.097090,0.000000,0.348713,0.218701,-1.720751,-4.025029,0.981048,2.291735,-1.573161,-3.151268,0.826352,2.721561,5.844273,-19.976331,25.820604,-14.132058,0.00000696,0.00000000,0.00000696,0.00000000,0.00000000,0.000000,0.000000,0.000000,0.000000,0.000000,0.000000,0.000000,0.000000,0.12226474,0.05951344,0.01398849,0.02630559,0.00672132,0.00000000,0.00000000,0.01573589,0.00495945,0.00699425,0.01052224,0.01344263,0.31471782,0.00000000,0.00000000
3.400,1,1,1,-532.277,189.914,50.277,47.864285,0.097582,0.097582,-47.766703,0.000000,0.353988,0.210124,-2.088094,-3.824493,1.337070,2.285646,-2.006421,-3.767198,1.176717,2.702079,6.397068,-19.818589,26.215656,-13.421521,0.00000725,0.00000000,0.00000725,0.00000000,0.00000000,0.000000,0.000000,0.000000,0.000000,0.000000,0.000000,0.000000,0.000000,0.12586756,0.06110726,0.01423376,0.02741949,0.00693747,0.00000000,0.00000000,0.01616959,0.00509227,0.00711688,0.01096780,0.01387494,0.32339184,0.00000000,0.00000000
3.500,1,1,1,-532.296,189.913,50.296,47.538062,0.099476,0.099476,-47.438586,0.000000,0.358289,0.200965,-2.421552,-2.692902,1.698935,2.289882,-2.398925,-3.795845,1.575727,2.693395,6.925941,-19.694482,26.620423,-12.768540,0.00000752,0.00000000,0.00000752,0.00000000,0.00000000,0.000000,0.000000,0.000000,0.000000,0.000000,0.000000,0.000000,0.000000,0.12956828,0.06325022,0.01458427,0.02797160,0.00715687,0.00000000,0.00000000,0.01660532,0.00527085,0.00729214,0.01118864,0.01431374,0.33210647,0.00000000,0.00000000
3.600,1,1,1,-532.314,189.911,50.314,47.213631,0.100838,0.100838,-47.112793,0.000000,0.361598,0.205284,-2.715667,-2.549662,2.045546,2.303531,-2.738982,-3.208564,1.970099,2.694747,6.853352,-19.543380,26.396732,-12.690028,0.00000774,0.00000000,0.00000774,0.00000000,0.00000000,0.000000,0.000000,0.000000,0.000000,0.000000,0.000000,0.000000,0.000000,0.13380239,0.06594633,0.01504137,0.02846672,0.00731369,0.00000000,0.00000000,0.01703428,0.00549553,0.00752069,0.01138669,0.01462737,0.34068567,0.00000000,0.00000000
3.700,1,1,1,-532.330,189.911,50.330,46.890864,0.101638,0.101638,-46.789226,0.000000,0.358667,0.187388,-2.964137,-1.776169,2.365405,2.325011,-3.017919,-0.544310,2.336762,2.704517,7.452577,-19.418201,26.870778,-11.965623,0.00000812,0.00000000,0.00000812,0.00000000,0.00000000,0.000000,0.000000,0.000000,0.000000,0.000000,0.000000,0.000000,0.000000,0.13824620,0.06915792,0.01559624,0.02870696,0.00731820,0.00000000,0.00000000,0.01746688,0.00576316,0.00779812,0.01148278,0.01463640,0.34933758,0.00000000,0.00000000
3.800,1,1,1,-532.346,189.910,50.346,46.569662,0.101897,0.101897,-46.467766,0.000000,0.337348,0.171644,-3.163247,-1.317803,2.650718,2.352338,-3.231377,-1.718873,2.661691,2.720533,7.197384,-19.288389,26.485773,-12.091006,0.00000915,0.00000000,0.00000915,0.00000000,0.00000000,0.000000,0.000000,0.000000,0.000000,0.000000,0.000000,0.000000,0.000000,0.14314197,0.07281622,0.01623250,0.02883923,0.00736321,0.00000000,0.00000000,0.01789080,0.00606802,0.00811625,0.01153569,0.01472641,0.35781597,0.00000000,0.00000000
3.900,1,1,1,-532.360,189.911,50.360,46.249954,0.101631,0.101631,-46.148323,0.000000,0.317192,0.157493,-3.311091,-1.589958,2.895657,2.383319,-3.376978,-0.744845,2.934940,2.740338,6.943083,-19.142178,26.085261,-12.199094,0.00000994,0.00000000,0.00000994,0.00000000,0.00000000,0.000000,0.000000,0.000000,0.000000,0.000000,0.000000,0.000000,0.000000,0.14845836,0.07682262,0.01692708,0.02903169,0.00737165,0.00000000,0.00000000,0.01830531,0.00640189,0.00846354,0.01161268,0.01474331,0.36610620,0.00000000,0.00000000
4.000,1,1,1,-532.372,189.911,50.372,45.931675,0.100856,0.100856,-45.830820,0.000000,0.300873,0.144267,-3.407563,-0.759169,3.095853,2.415849,-3.451812,-0.186211,3.149295,2.761415,6.823979,-19.037239,25.861217,-12.213260,0.00001046,0.00000000,0.00001046,0.00000000,0.00000000,0.000000,0.000000,0.000000,0.000000,0.000000,0.000000,0.000000,0.000000,0.15388313,0.08106787,0.01765311,0.02907559,0.00737218,0.00000000,0.00000000,0.01871437,0.00675566,0.00882656,0.01163024,0.01474436,0.37428735,0.00000000,0.00000000
4.100,1,1,1,-532.384,189.912,50.384,45.614682,0.099575,0.099575,-45.515107,0.000000,0.289060,0.131492,-3.452079,-0.458366,3.248330,2.447908,-3.453160,1.346451,3.299709,2.781304,6.880355,-18.920201,25.800556,-12.039846,0.00001070,0.00000000,0.00001070,0.00000000,0.00000000,0.000000,0.000000,0.000000,0.000000,0.000000,0.000000,0.000000,0.000000,0.15941508,0.08542433,0.01837964,0.02909159,0.00739980,0.00000000,0.00000000,0.01911971,0.00711869,0.00918982,0.01163664,0.01479959,0.38239430,0.00000000,0.00000000
4.200,1,1,1,-532.394,189.914,50.394,45.324028,0.097819,0.097819,-45.226209,0.000000,0.282497,0.115442,-3.445990,0.859437,3.343251,2.477758,-3.389064,1.289155,3.377696,2.798104,7.289770,-18.851792,26.141563,-11.562022,0.00001063,0.00000000,0.00001063,0.00000000,0.00000000,0.000000,0.000000,0.000000,0.000000,0.000000,0.000000,0.000000,0.000000,0.16494432,0.08976402,0.01907923,0.02914783,0.00742510,0.00000000,0.00000000,0.01952815,0.00748033,0.00953961,0.01165913,0.01485021,0.39056292,0.00000000,0.00000000
4.300,1,1,1,-532.403,189.916,50.403,45.046784,0.095639,0.095639,-44.951144,0.000000,0.279779,0.100925,-3.397629,1.059972,3.397097,2.504238,-3.271291,2.635606,3.399878,2.810603,7.785548,-18.756466,26.542014,-10.970918,0.00001033,0.00000000,0.00001033,0.00000000,0.00000000,0.000000,0.000000,0.000000,0.000000,0.000000,0.000000,0.000000,0.000000,0.17042402,0.09398700,0.01973169,0.02923346,0.00753098,0.00000000,0.00000000,0.01994088,0.00783225,0.00986584,0.01169338,0.01506197,0.39881763,0.00000000,0.00000000
4.400,1,1,1,-532.411,189.918,50.411,44.732592,0.093072,0.093072,-44.639520,0.000000,0.281568,0.089366,-3.293586,0.959704,3.408399,2.525903,-3.074711,2.191564,3.358903,2.817180,8.335792,-18.639589,26.975382,-10.303797,0.00000981,0.00000000,0.00000981,0.00000000,0.00000000,0.000000,0.000000,0.000000,0.000000,0.000000,0.000000,0.000000,0.000000,0.17552617,0.09795283,0.02030773,0.02930361,0.00760415,0.00000000,0.00000000,0.02035786,0.00816274,0.01015386,0.01172144,0.01520829,0.40715716,0.00000000,0.00000000
4.500,1,1,1,-532.417,189.921,50.417,44.419341,0.090117,0.090117,-44.329224,0.000000,0.288475,0.078711,-3.140741,0.859437,3.368775,2.541889,-2.815664,3.108296,3.250155,2.817144,9.050743,-18.528693,27.579437,-9.477950,0.00000909,0.00000000,0.00000909,0.00000000,0.00000000,0.000000,0.000000,0.000000,0.000000,0.000000,0.000000,0.000000,0.000000,0.18024288,0.10155807,0.02079065,0.02935985,0.00775128,0.00000000,0.00000000,0.02078302,0.00846317,0.01039533,0.01174394,0.01550256,0.41566045,0.00000000,0.00000000
4.600,1,1,1,-532.422,189.924,50.422,44.107072,0.086744,0.086744,-44.020328,0.000000,0.300564,0.068526,-2.942939,2.191564,3.279371,2.551701,-2.497327,4.325831,3.076533,2.810282,9.948248,-18.466721,28.414969,-8.518473,0.00000820,0.00000000,0.00000820,0.00000000,0.00000000,0.000000,0.000000,0.000000,0.000000,0.000000,0.000000,0.000000,0.000000,0.18487780,0.10472281,0.02117047,0.02972548,0.00803619,0.00000000,0.00000000,0.02122285,0.00872690,0.01058524,0.01189019,0.01607237,0.42445694,0.00000000,0.00000000
4.700,1,1,1,-532.425,189.927,50.425,43.795758,0.082928,0.082928,-43.712830,0.000000,0.317838,0.058859,-2.703201,3.580986,3.142360,2.555165,-2.122877,4.741226,2.842171,2.796842,11.023611,-18.407276,29.430886,-7.383665,0.00000718,0.00000000,0.00000718,0.00000000,0.00000000,0.000000,0.000000,0.000000,0.000000,0.000000,0.000000,0.000000,0.000000,0.18960293,0.10739402,0.02144504,0.03070208,0.00837858,0.00000000,0.00000000,0.02168321,0.00894950,0.01072252,0.01228083,0.01675715,0.43366423,0.00000000,0.00000000
4.800,1,1,1,-532.427,189.931,50.427,43.485355,0.078668,0.078668,-43.406687,0.000000,0.338018,0.051034,-2.424647,3.351803,2.960789,2.552399,-1.697767,4.999057,2.552222,2.777579,12.126722,-18.299183,30.425905,-6.172461,0.00000609,0.00000000,0.00000609,0.00000000,0.00000000,0.000000,0.000000,0.000000,0.000000,0.000000,0.000000,0.000000,0.000000,0.19364519,0.10954278,0.02162063,0.03155755,0.00875916,0.00000000,0.00000000,0.02216508,0.00912856,0.01081031,0.01262302,0.01751833,0.44330156,0.00000000,0.00000000
4.900,1,1,1,-532.427,189.935,50.427,43.175910,0.073983,0.073983,-43.101927,0.000000,0.362153,0.046609,-2.111847,3.466395,2.738367,2.543815,-1.230575,5.113648,2.213286,2.753715,13.239509,-18.206588,31.446097,-4.967080,0.00000498,0.00000000,0.00000498,0.00000000,0.00000000,0.000000,0.000000,0.000000,0.000000,0.000000,0.000000,0.000000,0.000000,0.19718972,0.11117392,0.02171293,0.03247310,0.00915765,0.00000000,0.00000000,0.02267211,0.00926449,0.01085647,0.01298924,0.01831531,0.45344226,0.00000000,0.00000000
5.000,1,1,1,-532.426,189.939,50.426,42.867515,0.068902,0.068902,-42.798613,0.000000,0.384021,0.047002,-1.770994,4.096648,2.479379,2.530133,-0.731773,5.672282,1.834846,2.726944,14.050550,-18.132713,32.183263,-4.082163,0.00000401,0.00000000,0.00000401,0.00000000,0.00000000,0.000000,0.000000,0.000000,0.000000,0.000000,0.000000,0.000000,0.000000,0.20066072,0.11231961,0.02174553,0.03375027,0.00964736,0.00000000,0.00000000,0.02319796,0.00935997,0.01087277,0.01350011,0.01929472,0.46395914,0.00000000,0.00000000
5.100,1,1,1,-532.423,189.944,50.423,42.560196,0.063459,0.063459,-42.496737,0.000000,0.388738,0.050438,-1.408448,5.285536,2.188856,2.512253,-0.211681,6.374155,1.432648,2.699145,14.031121,-18.076666,32.107788,-4.045545,0.00000339,0.00000000,0.00000339,0.00000000,0.00000000,0.000000,0.000000,0.000000,0.000000,0.000000,0.000000,0.000000,0.000000,0.20465843,0.11304472,0.02174826,0.03587771,0.01026617,0.00000000,0.00000000,0.02372158,0.00942039,0.01087413,0.01435108,0.02053233,0.47443154,0.00000000,0.00000000
5.200,1,1,1,-532.419,189.949,50.419,42.253904,0.057718,0.057718,-42.196186,0.000000,0.393890,0.056829,-1.029716,4.068000,1.872927,2.491261,0.320687,6.159296,1.038938,2.672399,13.934208,-17.945976,31.880184,-4.011768,0.00000278,0.00000000,0.00000278,0.00000000,0.00000000,0.000000,0.000000,0.000000,0.000000,0.000000,0.000000,0.000000,0.000000,0.20740685,0.11343234,0.02175453,0.03713809,0.01084404,0.00000000,0.00000000,0.02423785,0.00945270,0.01087727,0.01485524,0.02168808,0.48475701,0.00000000,0.00000000
5.300,1,1,1,-532.414,189.954,50.414,41.948631,0.051758,0.051758,-41.896873,0.000000,0.399359,0.064478,-0.640805,3.867465,1.539439,2.468344,0.856809,6.345508,0.739905,2.648784,13.822774,-17.851296,31.674070,-4.028521,0.00000222,0.00000000,0.00000222,0.00000000,0.00000000,0.000000,0.000000,0.000000,0.000000,0.000000,0.000000,0.000000,0.000000,0.20986407,0.11358247,0.02179926,0.03827730,0.01145740,0.00000000,0.00000000,0.02474765,0.00946521,0.01089963,0.01531092,0.02291479,0.49495307,0.00000000,0.00000000
5.400,1,1,1,-532.408,189.960,50.408,41.644410,0.045669,0.045669,-41.598741,0.000000,0.405013,0.071712,-0.247864,4.540691,1.199325,2.444745,1.387354,6.546043,0.724172,2.630244,13.756390,-17.784069,31.540459,-4.027679,0.00000171,0.00000000,0.00000171,0.00000000,0.00000000,0.000000,0.000000,0.000000,0.000000,0.000000,0.000000,0.000000,0.000000,0.21273098,0.11360491,0.02191648,0.03984682,0.01210979,0.00000000,0.00000000,0.02525297,0.00946708,0.01095824,0.01593873,0.02421959,0.50505935,0.00000000,0.00000000
5.500,1,1,1,-532.401,189.965,50.401,41.341210,0.039548,0.039548,-41.301662,0.000000,0.410710,0.078736,0.142947,4.168268,0.871361,2.421647,1.902257,6.230916,1.020123,2.618380,13.716074,-17.682569,31.398643,-3.966495,0.00000127,0.00000000,0.00000127,0.00000000,0.00000000,0.000000,0.000000,0.000000,0.000000,0.000000,0.000000,0.000000,0.000000,0.21537461,0.11361238,0.02213697,0.04117018,0.01270122,0.00000000,0.00000000,0.02575385,0.00946770,0.01106849,0.01646807,0.02540244,0.51507706,0.00000000,0.00000000
5.600,1,1,1,-532.394,189.971,50.394,41.039010,0.033491,0.033491,-41.005519,0.000000,0.416315,0.083084,0.525794,4.855817,0.601086,2.400185,2.391766,4.798522,1.444852,2.614362,13.794199,-17.613602,31.407801,-3.819403,0.00000091,0.00000000,0.00000090,0.00000000,0.00000000,0.000000,0.000000,0.000000,0.000000,0.000000,0.000000,0.000000,0.000000,0.21847113,0.11371344,0.02248550,0.04296587,0.01305193,0.00000000,0.00000000,0.02625439,0.00947612,0.01124275,0.01718635,0.02610386,0.52508773,0.00000000,0.00000000
5.700,1,1,1,-532.387,189.976,50.387,40.737789,0.027571,0.027571,-40.710218,0.000000,0.421694,0.085595,0.895248,5.099324,0.505716,2.381329,2.847331,4.469071,1.902329,2.618782,13.945247,-17.527678,31.472925,-3.582431,0.00000061,0.00000000,0.00000061,0.00000000,0.00000000,0.000000,0.000000,0.000000,0.000000,0.000000,0.000000,0.000000,0.000000,0.22204377,0.11400638,0.02297937,0.04494590,0.01335610,0.00000000,0.00000000,0.02675602,0.00950053,0.01148968,0.01797836,0.02671220,0.53512041,0.00000000,0.00000000
5.800,1,1,1,-532.380,189.981,50.380,40.437523,0.021842,0.021842,-40.415681,0.000000,0.426736,0.086506,1.246253,3.853141,0.660462,2.365839,3.261683,4.096648,2.356563,2.631641,14.151638,-17.393928,31.545566,-3.242290,0.00000038,0.00000000,0.00000038,0.00000000,0.00000000,0.000000,0.000000,0.000000,0.000000,0.000000,0.000000,0.000000,0.000000,0.22514882,0.11457414,0.02362753,0.04607658,0.01361172,0.00000000,0.00000000,0.02725885,0.00954785,0.01181376,0.01843063,0.02722344,0.54517710,0.00000000,0.00000000
5.900,1,1,1,-532.373,189.986,50.373,40.138245,0.016340,0.016340,-40.121905,0.000000,0.429536,0.084512,1.574037,3.065324,0.937930,2.354235,3.628396,3.065324,2.789523,2.652374,14.386604,-17.275446,31.662050,-2.888843,0.00000021,0.00000000,0.00000021,0.00000000,0.00000000,0.000000,0.000000,0.000000,0.000000,0.000000,0.000000,0.000000,0.000000,0.22822299,0.11548049,0.02443021,0.04679269,0.01375494,0.00000000,0.00000000,0.02776466,0.00962337,0.01221511,0.01871708,0.02750988,0.55529310,0.00000000,0.00000000
6.000,1,1,1,-532.367,189.990,50.367,39.840000,0.011087,0.011087,-39.828913,0.000000,0.429243,0.080414,1.874284,3.308831,1.244502,2.346795,3.941626,2.592634,3.189473,2.679850,14.581160,-17.187470,31.768630,-2.606310,0.00000010,0.00000000,0.00000010,0.00000000,0.00000000,0.000000,0.000000,0.000000,0.000000,0.000000,0.000000,0.000000,0.000000,0.23189615,0.11676404,0.02537632,0.04762608,0.01385727,0.00000000,0.00000000,0.02827245,0.00973034,0.01268816,0.01905043,0.02771455,0.56544891,0.00000000,0.00000000
6.100,1,1,1,-532.365,189.993,50.365,39.566532,0.008457,0.008457,-39.558075,0.000000,0.429097,0.075880,2.123021,3.051000,1.517834,2.343181,4.178248,2.435071,3.514052,2.712150,14.801411,-17.087833,31.889244,-2.286423,0.00000006,0.00000000,0.00000006,0.00000000,0.00000000,0.000000,0.000000,0.000000,0.000000,0.000000,0.000000,0.000000,0.000000,0.23591725,0.11841147,0.02643981,0.04833491,0.01394758,0.00000000,0.00000000,0.02878348,0.00986762,0.01321991,0.01933396,0.02789516,0.57566956,0.00000000,0.00000000
6.200,1,1,1,-532.360,189.997,50.360,39.270264,0.003599,0.003599,-39.266665,0.000000,0.428842,0.068808,2.360579,2.091296,1.805436,2.343472,4.375865,2.764521,3.828642,2.748151,15.122574,-16.956409,32.078983,-1.833835,0.00000001,0.00000000,0.00000001,0.00000000,0.00000000,0.000000,0.000000,0.000000,0.000000,0.000000,0.000000,0.000000,0.000000,0.24008710,0.12044872,0.02760658,0.04866803,0.01406400,0.00000000,0.00000000,0.02929977,0.01003739,0.01380329,0.01946721,0.02812800,0.58599548,0.00000000,0.00000000
6.300,1,1,1,-532.357,190.001,50.357,38.975041,-0.001019,-0.001019,-38.976060,0.000000,0.428766,0.060175,2.561380,2.392099,2.068618,2.347208,4.508947,1.217535,4.089512,2.786013,15.513264,-16.862285,32.375549,-1.349021,0.00000000,0.00000000,0.00000000,0.00000000,0.00000000,0.000000,0.000000,0.000000,0.000000,0.000000,0.000000,0.000000,0.000000,0.24470845,0.12284754,0.02884551,0.04910391,0.01408658,0.00000000,0.00000000,0.02982491,0.01023729,0.01442276,0.01964156,0.02817317,0.59649820,0.00000000,0.00000000
6.400,1,1,1,-532.356,190.005,50.356,38.680867,-0.005436,-0.005436,-38.686303,0.000000,0.428982,0.052266,2.723428,1.546986,2.302150,2.353751,4.575988,0.558634,4.292294,2.823888,15.882706,-16.728216,32.610922,-0.845510,0.00000002,0.00000000,0.00000002,0.00000000,0.00000000,0.000000,0.000000,0.000000,0.000000,0.000000,0.000000,0.000000,0.000000,0.24941289,0.12555785,0.03012079,0.04928609,0.01409134,0.00000000,0.00000000,0.03035682,0.01046315,0.01506040,0.01971444,0.02818267,0.60713642,0.00000000,0.00000000
6.500,1,1,1,-532.356,190.009,50.356,38.387740,-0.009706,-0.009706,-38.397446,0.000000,0.414389,0.045725,2.845241,1.203211,2.502303,2.362350,4.576360,-0.458366,4.433822,2.860096,15.583646,-16.607890,32.191536,-1.024243,0.00000008,0.00000000,0.00000008,0.00000000,0.00000000,0.000000,0.000000,0.000000,0.000000,0.000000,0.000000,0.000000,0.000000,0.25427901,0.12851636,0.03139642,0.04939632,0.01409453,0.00000000,0.00000000,0.03087537,0.01070970,0.01569821,0.01975853,0.02818907,0.61750745,0.00000000,0.00000000
6.600,1,1,1,-532.357,190.012,50.357,38.095676,-0.013880,-0.013880,-38.109557,0.000000,0.399450,0.043573,2.926530,1.790493,2.666435,2.372200,4.510742,-0.358099,4.512124,2.893149,15.107767,-16.512942,31.620709,-1.405176,0.00000017,0.00000000,0.00000017,0.00000000,0.00000000,0.000000,0.000000,0.000000,0.000000,0.000000,0.000000,0.000000,0.000000,0.25939773,0.13164792,0.03263636,0.04964053,0.01409649,0.00000000,0.00000000,0.03137643,0.01097066,0.01631818,0.01985621,0.02819298,0.62752864,0.00000000,0.00000000
6.700,1,1,1,-532.360,190.016,50.360,37.804676,-0.018015,-0.018015,-37.822691,0.000000,0.388950,0.038836,2.966193,-0.214859,2.792661,2.382459,4.381418,-1.819141,4.526477,2.921789,14.941159,-16.333311,31.274471,-1.392152,0.00000030,0.00000000,0.00000030,0.00000000,0.00000000,0.000000,0.000000,0.000000,0.000000,0.000000,0.000000,0.000000,0.000000,0.26432678,0.13486370,0.03380577,0.04964404,0.01414689,0.00000000,0.00000000,0.03186639,0.01123864,0.01690288,0.01985762,0.02829377,0.63732783,0.00000000,0.00000000
6.800,1,1,1,-532.365,190.020,50.365,37.514808,-0.022188,-0.022188,-37.536996,0.000000,0.383054,0.047640,2.963290,1.546986,2.879539,2.392310,4.191629,-1.919409,4.477387,2.945114,14.413247,-16.270602,30.683850,-1.857355,0.00000047,0.00000000,0.00000047,0.00000000,0.00000000,0.000000,0.000000,0.000000,0.000000,0.000000,0.000000,0.000000,0.000000,0.26931704,0.13807301,0.03487600,0.04982626,0.01420299,0.00000000,0.00000000,0.03233879,0.01150608,0.01743800,0.01993050,0.02840598,0.64677573,0.00000000,0.00000000
6.900,1,1,1,-532.371,190.023,50.371,37.226148,-0.026463,-0.026463,-37.252611,0.000000,0.381891,0.057579,2.919533,0.429718,2.926273,2.401031,3.945304,-2.821817,4.366505,2.962527,14.049784,-16.111356,30.161140,-2.061572,0.00000068,0.00000000,0.00000068,0.00000000,0.00000000,0.000000,0.000000,0.000000,0.000000,0.000000,0.000000,0.000000,0.000000,0.27397382,0.14118904,0.03582438,0.04984033,0.01432428,0.00000000,0.00000000,0.03279580,0.01176575,0.01791219,0.01993613,0.02864856,0.65591600,0.00000000,0.00000000
7.000,1,1,1,-532.379,190.027,50.379,36.938766,-0.030881,-0.030881,-36.969647,0.000000,0.385545,0.069935,2.836783,0.687549,2.932855,2.408012,3.646886,-2.965057,4.196589,2.973734,13.793115,-15.994581,29.787696,-2.201466,0.00000093,0.00000000,0.00000093,0.00000000,0.00000000,0.000000,0.000000,0.000000,0.000000,0.000000,0.000000,0.000000,0.000000,0.27834237,0.14413112,0.03663478,0.04987633,0.01445820,0.00000000,0.00000000,0.03324195,0.01201093,0.01831739,0.01995053,0.02891640,0.66483890,0.00000000,0.00000000
7.100,1,1,1,-532.387,190.031,50.387,36.652750,-0.035492,-0.035492,-36.688242,0.000000,0.394068,0.081444,2.716964,-1.088620,2.899830,2.412770,3.301150,-3.423423,3.971321,2.978735,13.774979,-15.812308,29.587287,-2.037329,0.00000122,0.00000000,0.00000121,0.00000000,0.00000000,0.000000,0.000000,0.000000,0.000000,0.000000,0.000000,0.000000,0.000000,0.28241170,0.14682850,0.03729845,0.04996655,0.01463664,0.00000000,0.00000000,0.03368156,0.01223571,0.01864922,0.01998662,0.02927328,0.67363122,0.00000000,0.00000000
7.200,1,1,1,-532.397,190.035,50.397,36.368182,-0.040359,-0.040359,-36.408540,0.000000,0.407473,0.092417,2.561580,-2.435071,2.828365,2.414961,2.913536,-3.466395,3.695110,2.977813,13.975274,-15.645691,29.620965,-1.670417,0.00000153,0.00000000,0.00000153,0.00000000,0.00000000,0.000000,0.000000,0.000000,0.000000,0.000000,0.000000,0.000000,0.000000,0.28640209,0.14922707,0.03781561,0.05041811,0.01481965,0.00000000,0.00000000,0.03412166,0.01243559,0.01890780,0.02016724,0.02963930,0.68243313,0.00000000,0.00000000
7.300,1,1,1,-532.408,190.040,50.408,36.085159,-0.045556,-0.045556,-36.130715,0.000000,0.425723,0.102277,2.372766,-0.873761,2.720225,2.414372,2.490513,-3.881789,3.373108,2.971505,14.410655,-15.568757,29.979413,-1.158102,0.00000188,0.00000000,0.00000188,0.00000000,0.00000000,0.000000,0.000000,0.000000,0.000000,0.000000,0.000000,0.000000,0.000000,0.28957577,0.15128513,0.03819351,0.05047625,0.01504916,0.00000000,0.00000000,0.03457172,0.01260709,0.01909675,0.02019050,0.03009832,0.69143447,0.00000000,0.00000000
7.400,1,1,1,-532.419,190.045,50.419,35.803689,-0.051159,-0.051159,-35.854848,0.000000,0.448751,0.090450,2.153727,-1.589958,2.577488,2.410945,2.039678,-4.827169,3.011348,2.960573,15.920972,-15.415458,31.336431,0.505514,0.00000224,0.00000000,0.00000224,0.00000000,0.00000000,0.000000,0.000000,0.000000,0.000000,0.000000,0.000000,0.000000,0.000000,0.29256302,0.15298053,0.03844694,0.05066875,0.01540403,0.00000000,0.00000000,0.03506278,0.01274838,0.01922347,0.02026750,0.03080805,0.70125569,0.00000000,0.00000000
7.500,1,1,1,-532.430,190.050,50.430,35.523772,-0.057276,-0.057276,-35.581048,0.000000,0.471118,0.109079,1.905901,-2.134268,2.402362,2.404743,1.569067,-4.082324,2.616965,2.945954,16.105475,-15.267907,31.373382,0.837568,0.00000263,0.00000000,0.00000263,0.00000000,0.00000000,0.000000,0.000000,0.000000,0.000000,0.000000,0.000000,0.000000,0.000000,0.29513404,0.15430834,0.03859693,0.05101564,0.01565785,0.00000000,0.00000000,0.03555528,0.01285903,0.01929847,0.02040626,0.03131571,0.71110561,0.00000000,0.00000000
7.600,1,1,1,-532.442,190.056,50.442,35.278739,-0.063939,-0.063939,-35.342679,0.000000,0.474542,0.115781,1.672274,-2.692902,2.219744,2.396334,1.145577,-4.741226,2.241394,2.929002,16.004806,-15.141117,31.145923,0.863689,0.00000327,0.00000000,0.00000327,0.00000000,0.00000000,0.000000,0.000000,0.000000,0.000000,0.000000,0.000000,0.000000,0.000000,0.29761739,0.15533104,0.03867692,0.05156814,0.01600039,0.00000000,0.00000000,0.03604091,0.01294425,0.01933846,0.02062725,0.03200077,0.72081815,0.00000000,0.00000000
7.700,1,1,1,-532.453,190.063,50.453,35.001756,-0.071167,-0.071167,-35.072924,0.000000,0.478596,0.121239,1.391443,-1.518338,1.992709,2.385722,0.662277,-4.497719,1.810814,2.910416,15.992778,-15.047594,31.040372,0.945183,0.00000404,0.00000000,0.00000403,0.00000000,0.00000000,0.000000,0.000000,0.000000,0.000000,0.000000,0.000000,0.000000,0.000000,0.29931760,0.15603872,0.03870364,0.05174369,0.01630848,0.00000000,0.00000000,0.03652307,0.01300323,0.01935182,0.02069748,0.03261696,0.73046148,0.00000000,0.00000000
7.800,1,1,1,-532.464,190.070,50.464,34.726312,-0.079047,-0.079047,-34.805359,0.000000,0.482918,0.123302,1.093600,-2.463719,1.744461,2.373288,0.185208,-4.053676,1.381277,2.891278,16.138563,-14.885592,31.024155,1.252971,0.00000496,0.00000000,0.00000495,0.00000000,0.00000000,0.000000,0.000000,0.000000,0.000000,0.000000,0.000000,0.000000,0.000000,0.30095185,0.15647601,0.03870573,0.05220606,0.01655882,0.00000000,0.00000000,0.03700523,0.01303967,0.01935287,0.02088242,0.03311765,0.74010469,0.00000000,0.00000000
7.900,1,1,1,-532.473,190.077,50.474,34.452434,-0.087632,-0.087632,-34.540066,0.000000,0.487455,0.123122,0.780906,-3.824493,1.479548,2.359513,-0.278073,-3.781521,0.979866,2.872626,16.386588,-14.713661,31.100250,1.672927,0.00000606,0.00000000,0.00000606,0.00000000,0.00000001,0.000000,0.000000,0.000000,0.000000,0.000000,0.000000,0.000000,0.000000,0.30299515,0.15669881,0.03871044,0.05331939,0.01677651,0.00000000,0.00000000,0.03749000,0.01305823,0.01935522,0.02132776,0.03355303,0.74980006,0.00000000,0.00000000
8.000,1,1,1,-532.483,190.085,50.483,34.180189,-0.096877,-0.096877,-34.277066,0.000000,0.492139,0.150812,0.460588,-1.862113,1.204376,2.344920,-0.721015,-4.039352,0.674164,2.855322,15.490473,-14.647468,30.137941,0.843005,0.00000736,0.00000000,0.00000736,0.00000000,0.00000001,0.000000,0.000000,0.000000,0.000000,0.000000,0.000000,0.000000,0.000000,0.30407132,0.15677634,0.03874211,0.05358342,0.01702500,0.00000000,0.00000000,0.03794445,0.01306470,0.01937105,0.02143337,0.03404999,0.75888900,0.00000000,0.00000000
8.100,1,1,1,-532.491,190.094,50.491,33.909536,-0.106665,-0.106665,-34.016200,0.000000,0.496902,0.136518,0.141713,-3.108296,0.927248,2.330085,-1.137080,-3.853141,0.616096,2.840074,16.359147,-14.479057,30.838205,1.880090,0.00000887,0.00000000,0.00000887,0.00000000,0.00000001,0.000000,0.000000,0.000000,0.000000,0.000000,0.000000,0.000000,0.000000,0.30559667,0.15678368,0.03882088,0.05431923,0.01725114,0.00000000,0.00000000,0.03842174,0.01306531,0.01941044,0.02172769,0.03450227,0.76843482,0.00000000,0.00000000
8.200,1,1,1,-532.498,190.103,50.498,33.640481,-0.116959,-0.116959,-33.757441,0.000000,0.501667,0.127950,-0.174408,-2.349127,0.664228,2.315544,-1.520370,-3.681254,0.834545,2.827370,16.966100,-14.377288,31.343388,2.588812,0.00001060,0.00000000,0.00001059,0.00000000,0.00000001,0.000000,0.000000,0.000000,0.000000,0.000000,0.000000,0.000000,0.000000,0.30687112,0.15679481,0.03896185,0.05473990,0.01745775,0.00000000,0.00000000,0.03891680,0.01306623,0.01948093,0.02189596,0.03491550,0.77833597,0.00000000,0.00000000
8.300,1,1,1,-532.504,190.113,50.504,33.394422,-0.127790,-0.127790,-33.522212,0.000000,0.506130,0.121747,-0.460704,-2.463719,0.475153,2.301777,-1.839556,-3.738550,1.125563,2.817288,17.450073,-14.261769,31.711843,3.188304,0.00001257,0.00000000,0.00001256,0.00000000,0.00000001,0.000000,0.000000,0.000000,0.000000,0.000000,0.000000,0.000000,0.000000,0.30833775,0.15687239,0.03916799,0.05520211,0.01767061,0.00000000,0.00000000,0.03942465,0.01307270,0.01958400,0.02208084,0.03534121,0.78849303,0.00000000,0.00000000
8.400,1,1,1,-532.508,190.123,50.508,33.128580,-0.139167,-0.139167,-33.267746,0.000000,0.510694,0.117146,-0.764089,-2.291831,0.415600,2.289255,-2.145060,-3.051000,1.464998,2.810059,17.865448,-14.143653,32.009101,3.721795,0.00001482,0.00000000,0.00001481,0.00000000,0.00000001,0.000000,0.000000,0.000000,0.000000,0.000000,0.000000,0.000000,0.000000,0.30989234,0.15708579,0.03944829,0.05560207,0.01781237,0.00000000,0.00000000,0.03994382,0.01309048,0.01972415,0.02224083,0.03562474,0.79887641,0.00000000,0.00000000
8.500,1,1,1,-532.512,190.133,50.512,32.864431,-0.151069,-0.151069,-33.015500,0.000000,0.515065,0.114179,-1.054820,-3.265859,0.558251,2.278368,-2.402320,-2.377775,1.788241,2.805500,18.202339,-13.992781,32.195119,4.209558,0.00001737,0.00000000,0.00001736,0.00000000,0.00000001,0.000000,0.000000,0.000000,0.000000,0.000000,0.000000,0.000000,0.000000,0.31207582,0.15749244,0.03979984,0.05641420,0.01789847,0.00000000,0.00000000,0.04047086,0.01312437,0.01989992,0.02256568,0.03579694,0.80941729,0.00000000,0.00000000
8.600,1,1,1,-532.513,190.144,50.514,32.601999,-0.163455,-0.163455,-32.765454,0.000000,0.519193,0.135151,-1.327868,-2.306155,0.792454,2.269393,-2.606940,-1.317803,2.079714,2.803218,17.543064,-13.906749,31.449813,3.636315,0.00002024,0.00000000,0.00002023,0.00000000,0.00000001,0.000000,0.000000,0.000000,0.000000,0.000000,0.000000,0.000000,0.000000,0.31406745,0.15813712,0.04021397,0.05681930,0.01792493,0.00000000,0.00000000,0.04097213,0.01317809,0.02010699,0.02272772,0.03584985,0.81944261,0.00000000,0.00000000
8.700,1,1,1,-532.514,190.155,50.514,32.341278,-0.176273,-0.176273,-32.517551,0.000000,0.523047,0.125805,-1.579157,-1.690225,1.048211,2.262497,-2.755540,-1.446718,2.330382,2.802662,18.150842,-13.810658,31.961500,4.340184,0.00002344,0.00000000,0.00002343,0.00000000,0.00000001,0.000000,0.000000,0.000000,0.000000,0.000000,0.000000,0.000000,0.000000,0.31621124,0.15904868,0.04067657,0.05703687,0.01795680,0.00000000,0.00000000,0.04149232,0.01325406,0.02033828,0.02281475,0.03591361,0.82984639,0.00000000,0.00000000
8.800,1,1,1,-532.513,190.167,50.513,32.082268,-0.189505,-0.189505,-32.271773,0.000000,0.526610,0.121711,-1.808255,-2.263183,1.301608,2.257742,-2.846749,0.959704,2.534107,2.803179,18.516925,-13.680019,32.196944,4.836906,0.00002701,0.00000000,0.00002700,0.00000000,0.00000001,0.000000,0.000000,0.000000,0.000000,0.000000,0.000000,0.000000,0.000000,0.31883319,0.16024341,0.04117008,0.05742676,0.01797083,0.00000000,0.00000000,0.04202211,0.01335362,0.02058504,0.02297070,0.03594165,0.84044223,0.00000000,0.00000000
8.900,1,1,1,-532.511,190.179,50.511,31.824995,-0.203133,-0.203133,-32.028128,0.000000,0.529878,0.121701,-2.013094,-1.589958,1.542650,2.255082,-2.881293,0.401070,2.686890,2.804089,18.699228,-13.592734,32.291962,5.106495,0.00003097,0.00000000,0.00003096,0.00000000,0.00000001,0.000000,0.000000,0.000000,0.000000,0.000000,0.000000,0.000000,0.000000,0.32154896,0.16172436,0.04167571,0.05761922,0.01797328,0.00000000,0.00000000,0.04255638,0.01347703,0.02083786,0.02304769,0.03594655,0.85112767,0.00000000,0.00000000
9.000,1,1,1,-532.507,190.191,50.508,31.569425,-0.217101,-0.217101,-31.786526,0.000000,0.532864,0.122633,-2.190392,-1.403747,1.765559,2.254357,-2.860644,0.974028,2.786525,2.804738,18.833901,-13.492418,32.326319,5.341483,0.00003533,0.00000000,0.00003532,0.00000000,0.00000001,0.000000,0.000000,0.000000,0.000000,0.000000,0.000000,0.000000,0.000000,0.32450338,0.16347863,0.04217440,0.05776933,0.01798773,0.00000000,0.00000000,0.04309329,0.01362322,0.02108720,0.02310773,0.03597546,0.86186579,0.00000000,0.00000000
9.100,1,1,1,-532.502,190.204,50.503,31.315488,-0.231341,-0.231341,-31.546828,0.000000,0.535198,0.127597,-2.337166,-0.916732,1.966274,2.255304,-2.786714,0.902409,2.832317,2.804536,18.779431,-13.404868,32.184299,5.374562,0.00004011,0.00000000,0.00004009,0.00000000,0.00000002,0.000000,0.000000,0.000000,0.000000,0.000000,0.000000,0.000000,0.000000,0.32758190,0.16547530,0.04264751,0.05783332,0.01800013,0.00000000,0.00000000,0.04362564,0.01378961,0.02132375,0.02313333,0.03600026,0.87251271,0.00000000,0.00000000
9.200,1,1,1,-532.496,190.217,50.497,31.063134,-0.245802,-0.245802,-31.308935,0.000000,0.537814,0.133330,-2.451853,-1.360775,2.141728,2.257582,-2.661750,2.019676,2.824875,2.802990,18.713692,-13.291680,32.005372,5.422013,0.00004529,0.00000000,0.00004528,0.00000000,0.00000002,0.000000,0.000000,0.000000,0.000000,0.000000,0.000000,0.000000,0.000000,0.33094036,0.16767234,0.04307906,0.05797431,0.01806225,0.00000000,0.00000000,0.04415240,0.01397269,0.02153953,0.02318972,0.03612450,0.88304801,0.00000000,0.00000000
9.300,1,1,1,-532.488,190.230,50.489,30.812346,-0.260449,-0.260449,-31.072795,0.000000,0.536447,0.151967,-2.534388,-0.744845,2.289387,2.260808,-2.488411,3.222888,2.765755,2.799724,17.959762,-13.216133,31.175895,4.743629,0.00005162,0.00000000,0.00005160,0.00000000,0.00000002,0.000000,0.000000,0.000000,0.000000,0.000000,0.000000,0.000000,0.000000,0.33436376,0.17002064,0.04345637,0.05801657,0.01822048,0.00000000,0.00000000,0.04464970,0.01416839,0.02172819,0.02320663,0.03644095,0.89299403,0.00000000,0.00000000
9.400,1,1,1,-532.480,190.242,50.480,30.563076,-0.275233,-0.275233,-30.838308,0.000000,0.524136,0.153994,-2.584358,-0.730521,2.407325,2.264573,-2.269804,2.463719,2.657144,2.794505,17.465330,-13.124226,30.589555,4.341104,0.00006061,0.00000000,0.00006060,0.00000000,0.00000002,0.000000,0.000000,0.000000,0.000000,0.000000,0.000000,0.000000,0.000000,0.33772881,0.17246161,0.04377019,0.05805720,0.01831291,0.00000000,0.00000000,0.04512690,0.01437180,0.02188510,0.02322288,0.03662582,0.90253795,0.00000000,0.00000000
9.500,1,1,1,-532.470,190.256,50.470,30.315236,-0.290079,-0.290079,-30.605315,0.000000,0.515633,0.157891,-2.601487,1.174563,2.494284,2.268462,-2.009894,3.251535,2.501816,2.787244,17.064136,-13.093807,30.157944,3.970329,0.00006976,0.00000000,0.00006974,0.00000000,0.00000002,0.000000,0.000000,0.000000,0.000000,0.000000,0.000000,0.000000,0.000000,0.34117758,0.17493553,0.04401631,0.05816227,0.01847394,0.00000000,0.00000000,0.04558954,0.01457796,0.02200815,0.02326491,0.03694788,0.91179074,0.00000000,0.00000000
9.600,1,1,1,-532.458,190.269,50.459,30.068707,-0.304896,-0.304896,-30.373603,0.000000,0.511090,0.166451,-2.585028,0.544310,2.549536,2.272062,-1.713923,2.864789,2.303309,2.778009,16.641712,-12.984551,29.626263,3.657160,0.00007877,0.00000000,0.00007875,0.00000000,0.00000002,0.000000,0.000000,0.000000,0.000000,0.000000,0.000000,0.000000,0.000000,0.34439211,0.17737804,0.04419526,0.05818483,0.01859893,0.00000000,0.00000000,0.04603505,0.01478150,0.02209763,0.02327393,0.03719786,0.92070102,0.00000000,0.00000000
9.700,1,1,1,-532.446,190.281,50.447,29.823397,-0.319588,-0.319588,-30.142984,0.000000,0.510627,0.170067,-2.534896,0.787817,2.572623,2.274986,-1.388006,4.340155,2.066140,2.767017,16.597599,-12.907989,29.505588,3.689609,0.00008733,0.00000000,0.00008731,0.00000000,0.00000002,0.000000,0.000000,0.000000,0.000000,0.000000,0.000000,0.000000,0.000000,0.34763437,0.17972672,0.04431262,0.05823209,0.01888581,0.00000000,0.00000000,0.04647712,0.01497723,0.02215631,0.02329284,0.03777163,0.92954231,0.00000000,0.00000000
9.800,1,1,1,-532.433,190.294,50.433,29.579279,-0.334076,-0.334076,-29.913355,0.000000,0.514326,0.176191,-2.452588,1.217535,2.563359,2.276907,-1.038811,3.896113,1.796047,2.754611,16.615489,-12.839950,29.455439,3.775540,0.00009508,0.00000000,0.00009506,0.00000000,0.00000002,0.000000,0.000000,0.000000,0.000000,0.000000,0.000000,0.000000,0.000000,0.35068344,0.18192516,0.04437836,0.05834496,0.01911698,0.00000000,0.00000000,0.04691798,0.01516043,0.02218918,0.02333798,0.03823395,0.93835964,0.00000000,0.00000000
9.900,1,1,1,-532.418,190.306,50.419,29.336289,-0.348296,-0.348296,-29.684585,0.000000,0.522206,0.181284,-2.339927,1.546986,2.522039,2.277566,-0.673119,4.812845,1.500473,2.741223,16.841161,-12.770869,29.612030,4.070292,0.00010168,0.00000000,0.00010166,0.00000000,0.00000002,0.000000,0.000000,0.000000,0.000000,0.000000,0.000000,0.000000,0.000000,0.35369500,0.18392709,0.04440597,0.05852726,0.01946987,0.00000000,0.00000000,0.04736481,0.01532726,0.02220298,0.02341090,0.03893973,0.94729628,0.00000000,0.00000000
10.000,1,1,1,-532.403,190.319,50.404,29.142655,-0.362183,-0.362183,-29.504838,0.000000,0.531504,0.180587,-2.229101,1.604282,2.466404,2.277076,-0.373049,4.726902,1.252428,2.727453,17.351786,-12.715320,30.067105,4.636466,0.00010752,0.00000000,0.00010751,0.00000000,0.00000001,0.000000,0.000000,0.000000,0.000000,0.000000,0.000000,0.000000,0.000000,0.35652081,0.18574467,0.04441445,0.05872339,0.01981041,0.00000000,0.00000000,0.04782789,0.01547872,0.02220723,0.02348936,0.03962082,0.95655787,0.00000000,0.00000000
10.100,1,1,1,-532.387,190.330,50.388,28.901495,-0.375679,-0.375679,-29.277174,0.000000,0.546754,0.190710,-2.065885,3.122620,2.369677,2.275040,0.006204,3.967733,0.941155,2.713637,17.643736,-12.686415,30.330151,4.957321,0.00011114,0.00000000,0.00011113,0.00000000,0.00000001,0.000000,0.000000,0.000000,0.000000,0.000000,0.000000,0.000000,0.000000,0.35953674,0.18730540,0.04441446,0.05946626,0.02005029,0.00000000,0.00000000,0.04830034,0.01560878,0.02220723,0.02378650,0.04010058,0.96600674,0.00000000,0.00000000
10.200,1,1,1,-532.370,190.342,50.371,28.661209,-0.388722,-0.388722,-29.049931,0.000000,0.561850,0.194206,-1.876559,1.890761,2.244253,2.271400,0.384736,4.440423,0.659476,2.700302,18.194123,-12.572020,30.766142,5.622103,0.00011424,0.00000000,0.00011423,0.00000000,0.00000001,0.000000,0.000000,0.000000,0.000000,0.000000,0.000000,0.000000,0.000000,0.36189579,0.18859327,0.04442348,0.05973864,0.02035075,0.00000000,0.00000000,0.04878966,0.01571611,0.02221174,0.02389546,0.04070149,0.97579312,0.00000000,0.00000000
10.300,1,1,1,-532.352,190.353,50.353,28.421738,-0.401282,-0.401282,-28.823019,0.000000,0.565035,0.199763,-1.664101,3.280183,2.092016,2.266192,0.757035,4.870141,0.495036,2.687973,18.154579,-12.543664,30.698243,5.610915,0.00012155,0.00000000,0.00012154,0.00000000,0.00000001,0.000000,0.000000,0.000000,0.000000,0.000000,0.000000,0.000000,0.000000,0.36460707,0.18960424,0.04445835,0.06055698,0.02071153,0.00000000,0.00000000,0.04927596,0.01580035,0.02222917,0.02422279,0.04142307,0.98551928,0.00000000,0.00000000
10.400,1,1,1,-532.334,190.363,50.335,28.183025,-0.413323,-0.413323,-28.596348,0.000000,0.568416,0.204201,-1.431678,2.535338,1.915194,2.259506,1.117741,4.368803,0.572476,2.677052,18.175206,-12.447936,30.623143,5.727270,0.00012865,0.00000000,0.00012864,0.00000000,0.00000001,0.000000,0.000000,0.000000,0.000000,0.000000,0.000000,0.000000,0.000000,0.36669812,0.19035355,0.04453447,0.06104654,0.02100226,0.00000000,0.00000000,0.04976129,0.01586280,0.02226723,0.02441862,0.04200452,0.99522589,0.00000000,0.00000000
10.500,1,1,1,-532.325,190.368,50.326,27.992550,-0.418910,-0.418910,-28.411460,0.000000,0.571518,0.206914,-1.233856,2.936409,1.757820,2.251789,1.394430,3.351803,0.766089,2.667558,18.258527,-12.404879,30.663407,5.853648,0.00013176,0.00000000,0.00013175,0.00000000,0.00000000,0.000000,0.000000,0.000000,0.000000,0.000000,0.000000,0.000000,0.000000,0.36868967,0.19091049,0.04465302,0.06170370,0.02117351,0.00000000,0.00000000,0.05024894,0.01590921,0.02232651,0.02468148,0.04234702,1.00497873,0.00000000,0.00000000
10.600,1,1,1,-532.306,190.378,50.308,27.802508,-0.430124,-0.430124,-28.232632,0.000000,0.574676,0.230165,-1.027202,1.675902,1.588078,2.243200,1.657584,3.495043,1.003445,2.659673,17.498649,-12.313392,29.812041,5.185257,0.00013844,0.00000000,0.00013843,0.00000000,0.00000001,0.000000,0.000000,0.000000,0.000000,0.000000,0.000000,0.000000,0.000000,0.37010051,0.19129619,0.04482042,0.06191759,0.02135956,0.00000000,0.00000000,0.05070675,0.01594135,0.02241021,0.02476704,0.04271912,1.01413508,0.00000000,0.00000000
10.700,1,1,1,-532.287,190.387,50.289,27.565546,-0.440718,-0.440718,-28.006263,0.000000,0.578465,0.217702,-0.758101,3.093972,1.361536,2.233730,1.963770,2.778845,1.316268,2.653914,18.261280,-12.291070,30.552349,5.970210,0.00014479,0.00000000,0.00014478,0.00000000,0.00000001,0.000000,0.000000,0.000000,0.000000,0.000000,0.000000,0.000000,0.000000,0.37187429,0.19150599,0.04505504,0.06264561,0.02147701,0.00000000,0.00000000,0.05119064,0.01595883,0.02252752,0.02505824,0.04295402,1.02381286,0.00000000,0.00000000
10.800,1,1,1,-532.277,190.391,50.279,27.376432,-0.445975,-0.445975,-27.822407,0.000000,0.581877,0.206023,-0.536957,3.222888,1.171761,2.223771,2.187536,3.838817,1.564060,2.649894,18.951654,-12.239077,31.190732,6.712577,0.00014763,0.00000000,0.00014763,0.00000000,0.00000000,0.000000,0.000000,0.000000,0.000000,0.000000,0.000000,0.000000,0.000000,0.37379741,0.19161148,0.04534685,0.06343735,0.02170167,0.00000000,0.00000000,0.05170007,0.01596762,0.02267342,0.02537494,0.04340333,1.03400143,0.00000000,0.00000000
10.900,1,1,1,-532.258,190.400,50.260,27.140569,-0.455613,-0.455613,-27.596181,0.000000,0.585812,0.207343,-0.255656,3.881789,0.929207,2.213487,2.436958,3.008028,1.860002,2.647982,19.110646,-12.189504,31.300151,6.921142,0.00015340,0.00000000,0.00015339,0.00000000,0.00000001,0.000000,0.000000,0.000000,0.000000,0.000000,0.000000,0.000000,0.000000,0.37598366,0.19163538,0.04570889,0.06458561,0.02183957,0.00000000,0.00000000,0.05221421,0.01596962,0.02285445,0.02583424,0.04367914,1.04428411,0.00000000,0.00000000
11.000,1,1,1,-532.239,190.407,50.241,26.905268,-0.464646,-0.464646,-27.369914,0.000000,0.589770,0.203592,0.028250,3.466395,0.690588,2.203225,2.650108,1.088620,2.133144,2.648002,19.481201,-12.105287,31.586488,7.375915,0.00015880,0.00000000,0.00015879,0.00000000,0.00000001,0.000000,0.000000,0.000000,0.000000,0.000000,0.000000,0.000000,0.000000,0.37786959,0.19163568,0.04613645,0.06549999,0.02185761,0.00000000,0.00000000,0.05273987,0.01596964,0.02306822,0.02620000,0.04371521,1.05479740,0.00000000,0.00000000
11.100,1,1,1,-532.220,190.415,50.222,26.698673,-0.473123,-0.473123,-27.171796,0.000000,0.593392,0.198696,0.276911,3.423423,0.498681,2.193254,2.806552,1.847789,2.354750,2.649500,19.880311,-12.042911,31.923222,7.837400,0.00016388,0.00000000,0.00016388,0.00000000,0.00000001,0.000000,0.000000,0.000000,0.000000,0.000000,0.000000,0.000000,0.000000,0.37986252,0.19166371,0.04661638,0.06639262,0.02190962,0.00000000,0.00000000,0.05328020,0.01597198,0.02330819,0.02655705,0.04381923,1.06560392,0.00000000,0.00000000
11.200,1,1,1,-532.201,190.422,50.203,26.464463,-0.481123,-0.481123,-26.945586,0.000000,0.597276,0.193737,0.554530,2.678578,0.371176,2.183900,2.948378,0.873761,2.570666,2.652369,20.288463,-11.949022,32.237485,8.339440,0.00016870,0.00000000,0.00016870,0.00000000,0.00000000,0.000000,0.000000,0.000000,0.000000,0.000000,0.000000,0.000000,0.000000,0.38161729,0.19177614,0.04714609,0.06693912,0.02192125,0.00000000,0.00000000,0.05383470,0.01598134,0.02357305,0.02677565,0.04384249,1.07669409,0.00000000,0.00000000
11.300,1,1,1,-532.183,190.428,50.185,26.230894,-0.488728,-0.488728,-26.719622,0.000000,0.599464,0.227316,0.823699,3.036676,0.424675,2.175449,3.051749,0.587282,2.751957,2.656234,19.035274,-11.889674,30.924948,7.145601,0.00017334,0.00000000,0.00017333,0.00000000,0.00000000,0.000000,0.000000,0.000000,0.000000,0.000000,0.000000,0.000000,0.000000,0.38364320,0.19202406,0.04771328,0.06764112,0.02192650,0.00000000,0.00000000,0.05433823,0.01600201,0.02385664,0.02705645,0.04385299,1.08676469,0.00000000,0.00000000
11.400,1,1,1,-532.166,190.434,50.168,25.998019,-0.495996,-0.495996,-26.494015,0.000000,0.600825,0.210323,1.082387,3.666930,0.610325,2.168132,3.117327,0.773493,2.897106,2.660703,19.877439,-11.836145,31.713584,8.041294,0.00017784,0.00000000,0.00017784,0.00000000,0.00000000,0.000000,0.000000,0.000000,0.000000,0.000000,0.000000,0.000000,0.000000,0.38623063,0.19245212,0.04830505,0.06866465,0.02193561,0.00000000,0.00000000,0.05487320,0.01603768,0.02415253,0.02746586,0.04387121,1.09746397,0.00000000,0.00000000
11.500,1,1,1,-532.149,190.440,50.151,25.765851,-0.503007,-0.503007,-26.268857,0.000000,0.602602,0.198329,1.325840,3.036676,0.838346,2.162119,3.145260,-0.229183,3.005504,2.665376,20.506489,-11.740754,32.247244,8.765735,0.00018229,0.00000000,0.00018228,0.00000000,0.00000000,0.000000,0.000000,0.000000,0.000000,0.000000,0.000000,0.000000,0.000000,0.38873685,0.19309457,0.04890764,0.06936678,0.02193641,0.00000000,0.00000000,0.05543146,0.01609121,0.02445382,0.02774671,0.04387281,1.10862917,0.00000000,0.00000000
11.600,1,1,1,-532.132,190.446,50.134,25.534420,-0.509867,-0.509867,-26.044287,0.000000,0.604786,0.188120,1.551563,2.864789,1.073678,2.157514,3.135125,0.401070,3.076854,2.669857,21.065481,-11.659570,32.725051,9.405911,0.00018677,0.00000000,0.00018677,0.00000000,0.00000000,0.000000,0.000000,0.000000,0.000000,0.000000,0.000000,0.000000,0.000000,0.39142318,0.19397468,0.04950654,0.06999187,0.02193886,0.00000000,0.00000000,0.05601124,0.01616456,0.02475327,0.02799675,0.04387771,1.12022481,0.00000000,0.00000000
11.700,1,1,1,-532.116,190.452,50.118,25.303778,-0.516670,-0.516670,-25.820449,0.000000,0.607370,0.179499,1.757441,3.452071,1.303264,2.154355,3.087670,-0.171887,3.111124,2.673771,21.567180,-11.600148,33.167328,9.967032,0.00019138,0.00000000,0.00019138,0.00000000,0.00000000,0.000000,0.000000,0.000000,0.000000,0.000000,0.000000,0.000000,0.000000,0.39464046,0.19510361,0.05008733,0.07089932,0.02193931,0.00000000,0.00000000,0.05661091,0.01625863,0.02504366,0.02835973,0.04387861,1.13221810,0.00000000,0.00000000
