t,controller_id,state_code,wp_idx,x,y,dist,yaw_deg,yaw_to_wp_deg,yaw_ref_deg,yaw_err_deg,yaw_rate_deg_s,speed_ref,speed_meas,roll_deg,roll_rate_deg_s,roll_rms_window_deg,roll_rms_total_deg,pitch_deg,pitch_rate_deg_s,pitch_rms_window_deg,pitch_rms_total_deg,base_cmd,diff_cmd,T_left,T_right,J_inst,J_goal,J_wave_roll,J_progress,J_smooth,J_mpc_distance,J_mpc_final,J_mpc_heading,J_mpc_wrong_way,J_mpc_pitch,J_mpc_control,J_mpc_slew,J_mpc_turn,J_total,J_roll,J_pitch,J_roll_rate,J_pitch_rate,J_goal_heading,J_no_progress,J_control,I_roll,I_pitch,I_roll_rate,I_pitch_rate,I_control,I_no_progress,I_goal_heading
0.500,1,1,1,-532.027,189.989,50.027,57.144386,0.012437,0.012437,-57.131949,0.000000,0.244251,0.000000,-2.601805,-0.630254,2.507080,0.000000,-1.758965,0.701873,1.809104,0.000000,0.000000,-5.000000,5.000000,-5.000000,0.00000014,0.00000000,0.00000013,0.00000000,0.00000001,0.000000,0.000000,0.000000,0.000000,0.000000,0.000000,0.000000,0.000000,0.00000000,0.00000000,0.00000000,0.00000000,0.00000000,0.00000000,0.00000000,0.00000000,0.00000000,0.00000000,0.00000000,0.00000000,0.00000000,0.00000000,0.00000000
0.600,1,1,1,-532.030,189.988,50.030,57.132314,0.013798,0.013798,-57.118516,0.000000,0.242319,0.003341,-2.607212,0.286479,2.543284,2.607212,-1.775177,-1.475366,1.791181,1.775177,0.000000,-10.000000,10.000000,-10.000000,0.00000016,0.00000000,0.00000016,0.00000000,0.00000000,0.000000,0.000000,0.000000,0.000000,0.000000,0.000000,0.000000,0.000000,0.00281455,0.00248335,0.00019187,0.00000625,0.00003313,0.00000000,0.00000000,0.00009994,0.00020695,0.00009594,0.00000250,0.00006627,0.00199885,0.00000000,0.00000000
0.700,1,1,1,-532.034,189.984,50.034,57.109372,0.018065,0.018065,-57.091307,0.000000,0.238642,0.028663,-2.566152,1.074296,2.554539,2.586758,-1.927192,-1.575634,1.805986,1.852764,0.000000,-15.000000,15.000000,-15.000000,0.00000028,0.00000000,0.00000028,0.00000000,0.00000000,0.000000,0.000000,0.000000,0.000000,0.000000,0.000000,0.000000,0.000000,0.00579849,0.00489035,0.00041814,0.00009413,0.00007094,0.00000000,0.00000000,0.00032493,0.00040753,0.00020907,0.00003765,0.00014189,0.00649859,0.00000000,0.00000000
0.800,1,1,1,-532.038,189.979,50.038,57.069012,0.023744,0.023744,-57.045268,0.000000,0.240037,0.046228,-2.512522,0.587282,2.564581,2.562241,-2.127472,-1.561310,1.857862,1.948681,0.518688,-19.481312,20.000000,-18.962623,0.00000049,0.00000000,0.00000048,0.00000000,0.00000000,0.000000,0.000000,0.000000,0.000000,0.000000,0.000000,0.000000,0.000000,0.00882597,0.00719867,0.00069397,0.00012041,0.00010808,0.00000000,0.00000000,0.00070484,0.00059989,0.00034699,0.00004816,0.00021617,0.01409684,0.00000000,0.00000000
0.900,1,1,1,-532.043,189.975,50.043,57.004006,0.028178,0.028178,-56.975829,0.000000,0.241678,0.050544,-2.430314,1.074296,2.556695,2.529906,-2.212589,0.845113,1.944694,2.017893,3.076010,-21.923990,25.000000,-18.847979,0.00000068,0.00000000,0.00000068,0.00000000,0.00000000,0.000000,0.000000,0.000000,0.000000,0.000000,0.000000,0.000000,0.000000,0.01187167,0.00935736,0.00099218,0.00020828,0.00011896,0.00000000,0.00000000,0.00119489,0.00077978,0.00049609,0.00008331,0.00023792,0.02389772,0.00000000,0.00000000
1.000,1,1,1,-532.044,189.974,50.044,56.910059,0.029700,0.029700,-56.880359,0.000000,0.244110,0.037682,-2.276808,1.747521,2.503456,2.481348,-2.087739,2.606958,2.032757,2.032056,5.998992,-24.001008,30.000000,-18.002017,0.00000074,0.00000000,0.00000074,0.00000000,0.00000000,0.000000,0.000000,0.000000,0.000000,0.000000,0.000000,0.000000,0.000000,0.01498025,0.01125228,0.00125772,0.00044085,0.00022247,0.00000000,0.00000000,0.00180693,0.00093769,0.00062886,0.00017634,0.00044495,0.03613850,0.00000000,0.00000000
1.100,1,1,1,-532.043,189.975,50.043,56.786853,0.028708,0.028708,-56.758145,0.000000,0.248156,0.027182,-2.040498,3.810169,2.406928,2.413492,-1.801887,3.709902,2.064863,1.995550,8.284745,-25.540611,33.825356,-17.255866,0.00000068,0.00000000,0.00000068,0.00000000,0.00000000,0.000000,0.000000,0.000000,0.000000,0.000000,0.000000,0.000000,0.000000,0.01873446,0.01277356,0.00145544,0.00154590,0.00043201,0.00000000,0.00000000,0.00252755,0.00106446,0.00072772,0.00061836,0.00086401,0.05055108,0.00000000,0.00000000
1.200,1,1,1,-532.041,189.977,50.041,56.636209,0.026630,0.026630,-56.609579,0.000000,0.254316,0.029033,-1.753511,3.008028,2.264118,2.330647,-1.470997,4.311507,2.004039,1.929339,8.412340,-25.270249,33.682590,-16.857909,0.00000057,0.00000000,0.00000057,0.00000000,0.00000000,0.000000,0.000000,0.000000,0.000000,0.000000,0.000000,0.000000,0.000000,0.02167266,0.01389786,0.00158731,0.00223517,0.00071522,0.00000000,0.00000000,0.00323712,0.00115815,0.00079365,0.00089407,0.00143044,0.06474234,0.00000000,0.00000000
1.300,1,1,1,-532.038,189.979,50.038,56.497989,0.024434,0.024434,-56.473555,0.000000,0.261432,0.030550,-1.509972,3.867465,2.113946,2.244505,-1.223907,2.449395,1.880997,1.855859,8.606763,-25.078149,33.684912,-16.471385,0.00000046,0.00000000,0.00000046,0.00000000,0.00000000,0.000000,0.000000,0.000000,0.000000,0.000000,0.000000,0.000000,0.000000,0.02453156,0.01473152,0.00167859,0.00337454,0.00080662,0.00000000,0.00000000,0.00394030,0.00122763,0.00083930,0.00134981,0.00161324,0.07880593,0.00000000,0.00000000
1.400,1,1,1,-532.035,189.981,50.035,56.305684,0.022146,0.022146,-56.283538,0.000000,0.269444,0.032155,-1.190615,3.136944,1.881813,2.153053,-0.933140,2.578310,1.647295,1.777170,8.844001,-24.840009,33.684010,-15.996008,0.00000037,0.00000000,0.00000037,0.00000000,0.00000000,0.000000,0.000000,0.000000,0.000000,0.000000,0.000000,0.000000,0.000000,0.02664809,0.01524955,0.00173163,0.00412372,0.00090784,0.00000000,0.00000000,0.00463535,0.00127080,0.00086581,0.00164949,0.00181568,0.09270692,0.00000000,0.00000000
1.500,1,1,1,-532.031,189.983,50.031,56.093793,0.019241,0.019241,-56.074552,0.000000,0.278165,0.038680,-0.835032,4.426099,1.608371,2.059554,-0.617837,3.308831,1.361057,1.697245,8.914680,-24.680020,33.594700,-15.765339,0.00000027,0.00000000,0.00000026,0.00000000,0.00000000,0.000000,0.000000,0.000000,0.000000,0.000000,0.000000,0.000000,0.000000,0.02927356,0.01550445,0.00175488,0.00561568,0.00107460,0.00000000,0.00000000,0.00532395,0.00129204,0.00087744,0.00224627,0.00214921,0.10647904,0.00000000,0.00000000
1.600,1,1,1,-532.026,189.987,50.026,55.864755,0.015378,0.015378,-55.849377,0.000000,0.287354,0.049375,-0.433825,4.225564,1.308665,1.968062,-0.249803,4.755550,1.063744,1.620014,8.843623,-24.485385,33.329008,-15.641762,0.00000016,0.00000000,0.00000016,0.00000000,0.00000000,0.000000,0.000000,0.000000,0.000000,0.000000,0.000000,0.000000,0.000000,0.03172788,0.01557324,0.00175868,0.00697531,0.00141902,0.00000000,0.00000000,0.00600163,0.00129777,0.00087934,0.00279013,0.00283804,0.12003261,0.00000000,0.00000000
1.700,1,1,1,-532.020,189.991,50.020,55.621235,0.010631,0.010631,-55.610604,0.000000,0.296706,0.061270,-0.007890,5.801198,1.001673,1.884278,0.154917,3.108296,0.785311,1.551691,8.743007,-24.356958,33.099964,-15.613951,0.00000008,0.00000000,0.00000007,0.00000000,0.00000000,0.000000,0.000000,0.000000,0.000000,0.000000,0.000000,0.000000,0.000000,0.03510885,0.01557326,0.00176015,0.00953800,0.00156616,0.00000000,0.00000000,0.00667128,0.00129777,0.00088007,0.00381520,0.00313232,0.13342559,0.00000000,0.00000000
1.800,1,1,1,-532.013,189.995,50.013,55.365511,0.005165,0.005165,-55.360346,0.000000,0.305776,0.071283,0.413951,4.039352,0.719549,1.813986,0.569658,3.838817,0.568477,1.499160,8.720092,-24.129452,32.849545,-15.409360,0.00000002,0.00000000,0.00000002,0.00000000,0.00000000,0.000000,0.000000,0.000000,0.000000,0.000000,0.000000,0.000000,0.000000,0.03731663,0.01563590,0.00177992,0.01078062,0.00179062,0.00000000,0.00000000,0.00732958,0.00130299,0.00088996,0.00431225,0.00358124,0.14659153,0.00000000,0.00000000
1.900,1,1,1,-532.006,190.001,50.006,55.099387,-0.001072,-0.001072,-55.100459,0.000000,0.314085,0.079384,0.822590,4.139620,0.548971,1.761750,0.993294,5.042029,0.527156,1.468803,8.751975,-23.969711,32.721686,-15.217736,0.00000000,0.00000000,0.00000000,0.00000000,0.00000000,0.000000,0.000000,0.000000,0.000000,0.000000,0.000000,0.000000,0.000000,0.03996847,0.01588334,0.00184005,0.01208614,0.00217797,0.00000000,0.00000000,0.00798097,0.00132361,0.00092002,0.00483446,0.00435594,0.15961948,0.00000000,0.00000000
2.000,1,1,1,-531.998,190.007,49.998,54.824593,-0.008266,-0.008266,-54.832859,0.000000,0.321216,0.088421,1.226451,5.142296,0.627536,1.731235,1.444611,5.027705,0.733158,1.467204,8.701174,-23.843316,32.544490,-15.142142,0.00000004,0.00000000,0.00000004,0.00000000,0.00000000,0.000000,0.000000,0.000000,0.000000,0.000000,0.000000,0.000000,0.000000,0.04368641,0.01643288,0.00196712,0.01409881,0.00256276,0.00000000,0.00000000,0.00862484,0.00136941,0.00098356,0.00563952,0.00512553,0.17249675,0.00000000,0.00000000
2.100,1,1,1,-531.989,190.014,49.989,54.542790,-0.016379,-0.016379,-54.559169,0.000000,0.326793,0.097568,1.627569,4.068000,0.904611,1.724937,1.925323,4.297183,1.082270,1.499949,8.587953,-23.656929,32.244882,-15.068976,0.00000016,0.00000000,0.00000015,0.00000000,0.00000001,0.000000,0.000000,0.000000,0.000000,0.000000,0.000000,0.000000,0.000000,0.04705619,0.01740140,0.00219301,0.01535933,0.00284408,0.00000000,0.00000000,0.00925838,0.00145012,0.00109650,0.00614373,0.00568815,0.18516754,0.00000000,0.00000000
2.200,1,1,1,-531.985,190.018,49.985,54.290063,-0.020474,-0.020474,-54.310537,0.000000,0.330138,0.100904,1.965536,3.967733,1.215823,1.740011,2.345035,5.099324,1.449427,1.562367,8.629056,-23.516465,32.145522,-14.887409,0.00000024,0.00000000,0.00000024,0.00000000,0.00000000,0.000000,0.000000,0.000000,0.000000,0.000000,0.000000,0.000000,0.000000,0.05102575,0.01881357,0.00252803,0.01655819,0.00324012,0.00000000,0.00000000,0.00988585,0.00156780,0.00126401,0.00662328,0.00648023,0.19771693,0.00000000,0.00000000
2.300,1,1,1,-531.977,190.025,49.977,53.998173,-0.029023,-0.029023,-54.027195,0.000000,0.329479,0.100083,2.313790,4.139620,1.576235,1.776755,2.773918,3.953409,1.877941,1.653134,8.677411,-23.376693,32.054104,-14.699282,0.00000049,0.00000000,0.00000049,0.00000000,0.00000001,0.000000,0.000000,0.000000,0.000000,0.000000,0.000000,0.000000,0.000000,0.05561608,0.02077043,0.00299678,0.01786313,0.00347815,0.00000000,0.00000000,0.01050758,0.00173087,0.00149839,0.00714525,0.00695630,0.21015158,0.00000000,0.00000000
2.400,1,1,1,-531.971,190.032,49.971,53.701797,-0.037174,-0.037174,-53.738971,0.000000,0.316596,0.097971,2.617041,3.580986,1.927756,1.830634,3.127469,3.351803,2.299544,1.761788,8.276059,-23.213197,31.489256,-14.937138,0.00000089,0.00000000,0.00000089,0.00000000,0.00000001,0.000000,0.000000,0.000000,0.000000,0.000000,0.000000,0.000000,0.000000,0.06047154,0.02327450,0.00359280,0.01883990,0.00364930,0.00000000,0.00000000,0.01111505,0.00193954,0.00179640,0.00753596,0.00729860,0.22230098,0.00000000,0.00000000
2.500,1,1,1,-531.966,190.039,49.966,53.425884,-0.044834,-0.044834,-53.470717,0.000000,0.296387,0.089492,2.861109,2.879113,2.225764,1.895545,3.396810,1.962380,2.655173,1.877724,7.848821,-23.055952,30.904773,-15.207132,0.00000149,0.00000000,0.00000149,0.00000000,0.00000000,0.000000,0.000000,0.000000,0.000000,0.000000,0.000000,0.000000,0.000000,0.06545261,0.02626843,0.00429614,0.01947151,0.00370798,0.00000000,0.00000000,0.01170855,0.00218904,0.00214807,0.00778860,0.00741597,0.23417106,0.00000000,0.00000000
2.600,1,1,1,-531.962,190.046,49.962,53.123398,-0.052355,-0.052355,-53.175753,0.000000,0.276034,0.079217,3.090895,2.664254,2.528549,1.968972,3.658118,2.435071,3.012045,1.998763,7.501146,-22.906679,30.407826,-15.405533,0.00000231,0.00000000,0.00000230,0.00000000,0.00000000,0.000000,0.000000,0.000000,0.000000,0.000000,0.000000,0.000000,0.000000,0.07097042,0.02975969,0.00511118,0.02001192,0.00379827,0.00000000,0.00000000,0.01228937,0.00247997,0.00255559,0.00800477,0.00759654,0.24578745,0.00000000,0.00000000
2.700,1,1,1,-531.959,190.052,49.959,52.818925,-0.060160,-0.060160,-52.879085,0.000000,0.258343,0.076974,3.274376,1.418071,2.795532,2.046469,3.902004,2.836141,3.326155,2.122650,6.939190,-22.725210,29.664400,-15.786021,0.00000337,0.00000000,0.00000336,0.00000000,0.00000000,0.000000,0.000000,0.000000,0.000000,0.000000,0.000000,0.000000,0.000000,0.07665860,0.03367966,0.00603897,0.02016509,0.00392081,0.00000000,0.00000000,0.01285408,0.00280664,0.00301948,0.00806604,0.00784162,0.25708154,0.00000000,0.00000000
2.800,1,1,1,-531.957,190.060,49.957,52.512733,-0.068276,-0.068276,-52.581008,0.000000,0.243640,0.074469,3.398521,2.134268,3.021239,2.123222,4.113535,1.876437,3.600843,2.246189,6.522555,-22.603940,29.126495,-16.081385,0.00000468,0.00000000,0.00000468,0.00000000,0.00000001,0.000000,0.000000,0.000000,0.000000,0.000000,0.000000,0.000000,0.000000,0.08286446,0.03790094,0.00706970,0.02051192,0.00397443,0.00000000,0.00000000,0.01340747,0.00315841,0.00353485,0.00820477,0.00794886,0.26814937,0.00000000,0.00000000
2.900,1,1,1,-531.958,190.067,49.958,52.204866,-0.076275,-0.076275,-52.281141,0.000000,0.232255,0.072239,3.459860,0.974028,3.200631,2.195231,4.262530,1.432394,3.838345,2.364792,6.236040,-22.419215,28.655255,-16.183175,0.00000619,0.00000000,0.00000619,0.00000000,0.00000000,0.000000,0.000000,0.000000,0.000000,0.000000,0.000000,0.000000,0.000000,0.08899270,0.04227709,0.00817672,0.02058418,0.00400568,0.00000000,0.00000000,0.01394903,0.00352309,0.00408836,0.00823367,0.00801136,0.27898052,0.00000000,0.00000000
3.000,1,1,1,-531.961,190.073,49.961,51.895541,-0.083656,-0.083656,-51.979198,0.000000,0.224543,0.071580,3.465191,0.830789,3.329295,2.259736,4.329143,0.085944,4.033919,2.473437,6.035727,-22.265477,28.301204,-16.229749,0.00000775,0.00000000,0.00000774,0.00000000,0.00000000,0.000000,0.000000,0.000000,0.000000,0.000000,0.000000,0.000000,0.000000,0.09510466,0.04666351,0.00931779,0.02063671,0.00400579,0.00000000,0.00000000,0.01448086,0.00388863,0.00465889,0.00825468,0.00801159,0.28961730,0.00000000,0.00000000
3.100,1,1,1,-531.966,190.079,49.966,51.585160,-0.090224,-0.090224,-51.675384,0.000000,0.220814,0.073455,3.420394,0.501338,3.404278,2.315176,4.313785,-0.100268,4.176503,2.568743,5.891931,-22.103488,27.995419,-16.211556,0.00000921,0.00000000,0.00000921,0.00000000,0.00000000,0.000000,0.000000,0.000000,0.000000,0.000000,0.000000,0.000000,0.000000,0.10105893,0.05094108,0.01045178,0.02065585,0.00400595,0.00000000,0.00000000,0.01500427,0.00424509,0.00522589,0.00826234,0.00801190,0.30008549,0.00000000,0.00000000
3.200,1,1,1,-531.973,190.084,49.973,51.274052,-0.096140,-0.096140,-51.370192,0.000000,0.221264,0.080521,3.323197,-0.931056,3.424669,2.360201,4.227718,-0.802141,4.254638,2.648784,5.701841,-21.905542,27.607382,-16.203701,0.00001052,0.00000000,0.00001052,0.00000000,0.00000000,0.000000,0.000000,0.000000,0.000000,0.000000,0.000000,0.000000,0.000000,0.10677307,0.05497808,0.01154073,0.02072187,0.00401575,0.00000000,0.00000000,0.01551665,0.00458151,0.00577036,0.00828875,0.00803150,0.31033301,0.00000000,0.00000000
3.300,1,1,1,-531.982,190.089,49.983,50.962465,-0.101657,-0.101657,-51.064122,0.000000,0.225985,0.120939,3.168487,-1.074296,3.391119,2.393767,4.078761,-1.933733,4.261979,2.712853,4.310944,-21.747006,26.057950,-17.436062,0.00001165,0.00000000,0.00001164,0.00000000,0.00000000,0.000000,0.000000,0.000000,0.000000,0.000000,0.000000,0.000000,0.000000,0.11209162,0.05864708,0.01255405,0.02080974,0.00407269,0.00000000,0.00000000,0.01600806,0.00488726,0.00627703,0.00832390,0.00814538,0.32016126,0.00000000,0.00000000
3.400,1,1,1,-531.994,190.093,49.994,50.650649,-0.106847,-0.106847,-50.757496,0.000000,0.235040,0.122987,2.957774,-2.349127,3.304776,2.415408,3.868000,-1.876437,4.198618,2.760741,4.711999,-21.550212,26.262211,-16.838212,0.00001254,0.00000000,0.00001254,0.00000000,0.00000000,0.000000,0.000000,0.000000,0.000000,0.000000,0.000000,0.000000,0.000000,0.11716111,0.06184473,0.01346548,0.02122996,0.00412631,0.00000000,0.00000000,0.01649464,0.00515373,0.00673274,0.00849198,0.00825263,0.32989275,0.00000000,0.00000000
3.500,1,1,1,-532.007,190.097,50.007,50.338889,-0.111632,-0.111632,-50.450521,0.000000,0.248521,0.130953,2.697924,-1.432394,3.166612,2.425361,3.595812,-3.136944,4.068762,2.792620,5.024898,-21.420642,26.445540,-16.395744,0.00001311,0.00000000,0.00001311,0.00000000,0.00000000,0.000000,0.000000,0.000000,0.000000,0.000000,0.000000,0.000000,0.000000,0.12140203,0.06450685,0.01425363,0.02138629,0.00427627,0.00000000,0.00000000,0.01697899,0.00537557,0.00712682,0.00855452,0.00855254,0.33957980,0.00000000,0.00000000
3.600,1,1,1,-532.022,190.101,50.022,50.027441,-0.116030,-0.116030,-50.143471,0.000000,0.266509,0.139938,2.397458,-2.521014,2.978100,2.424466,3.267477,-3.308831,3.877440,2.809182,5.462270,-21.224843,26.687113,-15.762572,0.00001332,0.00000000,0.00001332,0.00000000,0.00000000,0.000000,0.000000,0.000000,0.000000,0.000000,0.000000,0.000000,0.000000,0.12528251,0.06660676,0.01490372,0.02187003,0.00444293,0.00000000,0.00000000,0.01745906,0.00555056,0.00745186,0.00874801,0.00888587,0.34918119,0.00000000,0.00000000
3.700,1,1,1,-532.039,190.105,50.039,49.716532,-0.120179,-0.120179,-49.836711,0.000000,0.288981,0.153551,2.060752,-4.354479,2.742529,2.413927,2.891999,-3.151268,3.629158,2.811808,5.874272,-21.007912,26.882184,-15.133640,0.00001316,0.00000000,0.00001316,0.00000000,0.00000000,0.000000,0.000000,0.000000,0.000000,0.000000,0.000000,0.000000,0.000000,0.12941658,0.06815952,0.01541340,0.02331441,0.00459422,0.00000000,0.00000000,0.01793502,0.00567996,0.00770670,0.00932576,0.00918845,0.35870050,0.00000000,0.00000000
3.800,1,1,1,-532.056,190.109,50.056,49.406446,-0.124246,-0.124246,-49.530692,0.000000,0.315763,0.165985,1.690172,-2.635606,2.465262,2.395214,2.475528,-4.970409,3.328485,2.802213,6.497449,-20.902787,27.400235,-14.405338,0.00001265,0.00000000,0.00001265,0.00000000,0.00000000,0.000000,0.000000,0.000000,0.000000,0.000000,0.000000,0.000000,0.000000,0.13221793,0.06920350,0.01578667,0.02384328,0.00497041,0.00000000,0.00000000,0.01841406,0.00576696,0.00789333,0.00953731,0.00994083,0.36828111,0.00000000,0.00000000
3.900,1,1,1,-532.074,190.112,50.075,49.097410,-0.128295,-0.128295,-49.225705,0.000000,0.327462,0.177555,1.290605,-3.065324,2.152886,2.370078,2.019209,-5.199592,2.980831,2.782325,6.516584,-20.725845,27.242429,-14.209261,0.00001310,0.00000000,0.00001310,0.00000000,0.00000000,0.000000,0.000000,0.000000,0.000000,0.000000,0.000000,0.000000,0.000000,0.13467517,0.06981252,0.01603513,0.02455903,0.00538229,0.00000000,0.00000000,0.01888620,0.00581771,0.00801756,0.00982361,0.01076459,0.37772400,0.00000000,0.00000000
4.000,1,1,1,-532.093,190.116,50.094,48.789651,-0.132305,-0.132305,-48.921955,0.000000,0.334474,0.162818,0.870688,-4.698254,1.812961,2.340605,1.524698,-5.285536,2.592767,2.754372,7.429590,-20.513717,27.943307,-13.084128,0.00001379,0.00000000,0.00001379,0.00000000,0.00000000,0.000000,0.000000,0.000000,0.000000,0.000000,0.000000,0.000000,0.000000,0.13767652,0.07008965,0.01617676,0.02624008,0.00580781,0.00000000,0.00000000,0.01936223,0.00584080,0.00808838,0.01049603,0.01161562,0.38724451,0.00000000,0.00000000
4.100,1,1,1,-532.113,190.119,50.113,48.483498,-0.136306,-0.136306,-48.619804,0.000000,0.340363,0.179099,0.438434,-3.795845,1.454907,2.309032,1.000307,-5.314184,2.172468,2.720968,6.994807,-20.384475,27.379282,-13.389668,0.00001445,0.00000000,0.00001445,0.00000000,0.00000000,0.000000,0.000000,0.000000,0.000000,0.000000,0.000000,0.000000,0.000000,0.13979904,0.07015990,0.01623771,0.02733705,0.00623782,0.00000000,0.00000000,0.01982656,0.00584666,0.00811885,0.01093482,0.01247565,0.39653115,0.00000000,0.00000000
4.200,1,1,1,-532.132,190.123,50.132,48.179182,-0.140468,-0.140468,-48.319651,0.000000,0.346507,0.187298,0.001325,-3.136944,1.094373,2.277616,0.462017,-4.913113,1.731486,2.685022,6.924212,-20.246670,27.170882,-13.322458,0.00001514,0.00000000,0.00001514,0.00000000,0.00000000,0.000000,0.000000,0.000000,0.000000,0.000000,0.000000,0.000000,0.000000,0.14138686,0.07015990,0.01625071,0.02808640,0.00660545,0.00000000,0.00000000,0.02028440,0.00584666,0.00812535,0.01123456,0.01321091,0.40568802,0.00000000,0.00000000
4.300,1,1,1,-532.151,190.127,50.151,47.876826,-0.144984,-0.144984,-48.021809,0.000000,0.352695,0.190552,-0.434938,-4.282860,0.767037,2.248554,-0.072555,-5.801198,1.290579,2.649483,7.065292,-20.054482,27.119775,-12.989190,0.00001591,0.00000000,0.00001591,0.00000000,0.00000000,0.000000,0.000000,0.000000,0.000000,0.000000,0.000000,0.000000,0.000000,0.14381790,0.07022905,0.01625103,0.02948329,0.00711803,0.00000000,0.00000000,0.02073650,0.00585242,0.00812552,0.01179331,0.01423607,0.41473003,0.00000000,0.00000000
4.400,1,1,1,-532.170,190.131,50.170,47.576543,-0.149974,-0.149974,-47.726516,0.000000,0.358715,0.190196,-0.863243,-3.552338,0.572104,2.223818,-0.591662,-5.170944,0.898198,2.616982,7.346947,-19.926200,27.273147,-12.579253,0.00001681,0.00000000,0.00001681,0.00000000,0.00000000,0.000000,0.000000,0.000000,0.000000,0.000000,0.000000,0.000000,0.000000,0.14593273,0.07050168,0.01627238,0.03044512,0.00752564,0.00000000,0.00000000,0.02118792,0.00587514,0.00813619,0.01217805,0.01505128,0.42375845,0.00000000,0.00000000
4.500,1,1,1,-532.187,190.136,50.187,47.314066,-0.155427,-0.155427,-47.469493,0.000000,0.363968,0.188100,-1.227048,-4.096648,0.633936,2.204393,-1.031692,-4.683930,0.692657,2.589198,7.663735,-19.783933,27.447668,-12.120198,0.00001785,0.00000000,0.00001785,0.00000000,0.00000000,0.000000,0.000000,0.000000,0.000000,0.000000,0.000000,0.000000,0.000000,0.14861110,0.07105222,0.01633724,0.03172356,0.00785989,0.00000000,0.00000000,0.02163819,0.00592102,0.00816862,0.01268942,0.01571978,0.43276386,0.00000000,0.00000000
4.600,1,1,1,-532.204,190.141,50.204,47.017832,-0.161277,-0.161277,-47.179109,0.000000,0.369139,0.168871,-1.619040,-4.268536,0.905299,2.191985,-1.510050,-4.583662,0.786494,2.568291,8.678321,-19.634518,28.312839,-10.956198,0.00001905,0.00000000,0.00001905,0.00000000,0.00000000,0.000000,0.000000,0.000000,0.000000,0.000000,0.000000,0.000000,0.000000,0.15187456,0.07200981,0.01647608,0.03311026,0.00817969,0.00000000,0.00000000,0.02209873,0.00600082,0.00823804,0.01324410,0.01635938,0.44197466,0.00000000,0.00000000
4.700,1,1,1,-532.220,190.147,50.220,46.723822,-0.167518,-0.167518,-46.891340,0.000000,0.373648,0.168871,-1.983549,-3.466395,1.248551,2.187252,-1.959873,-4.268536,1.120032,2.555488,8.849114,-19.520050,28.369164,-10.670935,0.00002044,0.00000000,0.00002044,0.00000000,0.00000000,0.000000,0.000000,0.000000,0.000000,0.000000,0.000000,0.000000,0.000000,0.15519892,0.07344811,0.01671010,0.03402538,0.00845722,0.00000000,0.00000000,0.02255810,0.00612068,0.00835505,0.01361015,0.01691444,0.45116206,0.00000000,0.00000000
4.800,1,1,1,-532.235,190.153,50.235,46.432032,-0.174227,-0.174227,-46.606258,0.000000,0.377403,0.166114,-2.315634,-1.790493,1.602805,2.190323,-2.371089,-3.552338,1.523642,2.551352,9.108073,-19.435112,28.543185,-10.327038,0.00002207,0.00000000,0.00002206,0.00000000,0.00000000,0.000000,0.000000,0.000000,0.000000,0.000000,0.000000,0.000000,0.000000,0.15839785,0.07540778,0.01705255,0.03426947,0.00864938,0.00000000,0.00000000,0.02301868,0.00628398,0.00852627,0.01370779,0.01729876,0.46037367,0.00000000,0.00000000
4.900,1,1,1,-532.249,190.159,50.249,46.142319,-0.181476,-0.181476,-46.323796,0.000000,0.380369,0.159839,-2.610356,-2.735873,1.944887,2.200758,-2.731902,-2.764521,1.930238,2.555596,9.481670,-19.271379,28.753049,-9.789709,0.00002397,0.00000000,0.00002397,0.00000000,0.00000000,0.000000,0.000000,0.000000,0.000000,0.000000,0.000000,0.000000,0.000000,0.16249045,0.07789821,0.01750717,0.03483940,0.00876577,0.00000000,0.00000000,0.02347991,0.00649152,0.00875359,0.01393576,0.01753153,0.46959812,0.00000000,0.00000000
5.000,1,1,1,-532.262,190.166,50.262,45.854520,-0.189304,-0.189304,-46.043823,0.000000,0.377108,0.152428,-2.862604,-1.876437,2.262826,2.217611,-3.033399,-2.134268,2.312946,2.567179,9.644332,-19.171982,28.816314,-9.527650,0.00002695,0.00000000,0.00002695,0.00000000,0.00000000,0.000000,0.000000,0.000000,0.000000,0.000000,0.000000,0.000000,0.000000,0.16684408,0.08089330,0.01806770,0.03510751,0.00883514,0.00000000,0.00000000,0.02394043,0.00674111,0.00903385,0.01404301,0.01767027,0.47880865,0.00000000,0.00000000
5.100,1,1,1,-532.273,190.173,50.273,45.568495,-0.197694,-0.197694,-45.766189,0.000000,0.353872,0.144474,-3.068098,-1.461042,2.548722,2.239546,-3.270529,-0.945380,2.656564,2.584513,9.011965,-19.062948,28.074913,-10.050983,0.00003310,0.00000000,0.00003310,0.00000000,0.00000001,0.000000,0.000000,0.000000,0.000000,0.000000,0.000000,0.000000,0.000000,0.17155943,0.08433567,0.01871963,0.03527014,0.00884876,0.00000000,0.00000000,0.02438523,0.00702797,0.00935981,0.01410806,0.01769751,0.48770463,0.00000000,0.00000000
5.200,1,1,1,-532.283,190.181,50.284,45.284072,-0.206607,-0.206607,-45.490679,0.000000,0.331984,0.137631,-3.224273,-0.730521,2.796618,2.264962,-3.439791,-1.776169,2.950409,2.605636,8.417154,-18.968891,27.386045,-10.551736,0.00003967,0.00000000,0.00003967,0.00000000,0.00000001,0.000000,0.000000,0.000000,0.000000,0.000000,0.000000,0.000000,0.000000,0.17660010,0.08813604,0.01944053,0.03531079,0.00889681,0.00000000,0.00000000,0.02481593,0.00734467,0.00972027,0.01412431,0.01779362,0.49631851,0.00000000,0.00000000
5.300,1,1,1,-532.292,190.190,50.292,45.001082,-0.216006,-0.216006,-45.217088,0.000000,0.314282,0.121403,-3.330529,-1.289155,3.002057,2.292218,-3.537493,-1.174563,3.186502,2.628421,8.402907,-18.839773,27.242679,-10.436866,0.00004655,0.00000000,0.00004654,0.00000000,0.00000001,0.000000,0.000000,0.000000,0.000000,0.000000,0.000000,0.000000,0.000000,0.18199004,0.09219055,0.02020288,0.03543734,0.00891782,0.00000000,0.00000000,0.02524145,0.00768255,0.01010144,0.01417494,0.01783564,0.50482895,0.00000000,0.00000000
5.400,1,1,1,-532.300,190.198,50.300,44.719348,-0.225874,-0.225874,-44.945222,0.000000,0.301047,0.118908,-3.386430,-0.128916,3.161906,2.319708,-3.560761,0.959704,3.359071,2.650723,8.007097,-18.770808,26.777905,-10.763712,0.00005361,0.00000000,0.00005360,0.00000000,0.00000001,0.000000,0.000000,0.000000,0.000000,0.000000,0.000000,0.000000,0.000000,0.18738505,0.09638162,0.02097516,0.03543861,0.00893184,0.00000000,0.00000000,0.02565781,0.00803180,0.01048758,0.01417544,0.01786369,0.51315627,0.00000000,0.00000000
5.500,1,1,1,-532.306,190.207,50.307,44.438651,-0.236171,-0.236171,-44.674822,0.000000,0.292488,0.116291,-3.390305,0.888085,3.273985,2.345909,-3.509167,1.217535,3.464226,2.670595,7.820296,-18.700025,26.520321,-10.879729,0.00006069,0.00000000,0.00006068,0.00000000,0.00000001,0.000000,0.000000,0.000000,0.000000,0.000000,0.000000,0.000000,0.000000,0.19282939,0.10058247,0.02172525,0.03549866,0.00895442,0.00000000,0.00000000,0.02606859,0.00838187,0.01086263,0.01419946,0.01790884,0.52137177,0.00000000,0.00000000
5.600,1,1,1,-532.311,190.217,50.312,44.158783,-0.246819,-0.246819,-44.405602,0.000000,0.288779,0.109146,-3.341602,0.916732,3.336841,2.369512,-3.385435,1.833465,3.499755,2.686477,8.022701,-18.602306,26.625007,-10.579605,0.00006756,0.00000000,0.00006755,0.00000000,0.00000001,0.000000,0.000000,0.000000,0.000000,0.000000,0.000000,0.000000,0.000000,0.19814757,0.10467388,0.02242516,0.03556281,0.00900574,0.00000000,0.00000000,0.02647997,0.00872282,0.01121258,0.01422512,0.01801148,0.52959941,0.00000000,0.00000000
5.700,1,1,1,-532.315,190.226,50.316,43.901981,-0.257758,-0.257758,-44.159740,0.000000,0.289734,0.105532,-3.251843,0.945380,3.350769,2.389510,-3.211938,2.148592,3.471806,2.697523,8.262463,-18.519845,26.782308,-10.257382,0.00007398,0.00000000,0.00007397,0.00000000,0.00000001,0.000000,0.000000,0.000000,0.000000,0.000000,0.000000,0.000000,0.000000,0.20318006,0.10853081,0.02305230,0.03563072,0.00907590,0.00000000,0.00000000,0.02689032,0.00904423,0.01152615,0.01425229,0.01815180,0.53780644,0.00000000,0.00000000
5.800,1,1,1,-532.318,190.236,50.318,43.623586,-0.268976,-0.268976,-43.892562,0.000000,0.295574,0.101474,-3.108242,1.346451,3.318944,2.405054,-2.962372,3.380451,3.375441,2.702759,8.713289,-18.443578,27.156866,-9.730289,0.00007980,0.00000000,0.00007979,0.00000000,0.00000001,0.000000,0.000000,0.000000,0.000000,0.000000,0.000000,0.000000,0.000000,0.20797255,0.11206096,0.02358673,0.03576873,0.00924988,0.00000000,0.00000000,0.02730624,0.00933841,0.01179337,0.01430749,0.01849976,0.54612486,0.00000000,0.00000000
5.900,1,1,1,-532.319,190.246,50.320,43.345946,-0.280492,-0.280492,-43.626438,0.000000,0.306544,0.099501,-2.919773,1.274831,3.238236,2.415584,-2.651875,4.110972,3.213045,2.701825,9.276362,-18.356330,27.632692,-9.079969,0.00008467,0.00000000,0.00008466,0.00000000,0.00000001,0.000000,0.000000,0.000000,0.000000,0.000000,0.000000,0.000000,0.000000,0.21232172,0.11517743,0.02401520,0.03589251,0.00950730,0.00000000,0.00000000,0.02772928,0.00959812,0.01200760,0.01435700,0.01901460,0.55458555,0.00000000,0.00000000
6.000,1,1,1,-532.319,190.257,50.320,43.102236,-0.292332,-0.292332,-43.394568,0.000000,0.320740,0.108707,-2.718918,2.349127,3.125395,2.421443,-2.330353,3.623958,3.013666,2.695523,9.498043,-18.320962,27.819006,-8.822919,0.00008876,0.00000000,0.00008875,0.00000000,0.00000001,0.000000,0.000000,0.000000,0.000000,0.000000,0.000000,0.000000,0.000000,0.21640388,0.11788162,0.02434629,0.03631305,0.00970747,0.00000000,0.00000000,0.02815545,0.00982347,0.01217314,0.01452522,0.01941494,0.56310901,0.00000000,0.00000000
6.100,1,1,1,-532.318,190.267,50.318,42.825977,-0.304493,-0.304493,-43.130470,0.000000,0.341410,0.107021,-2.453434,2.764521,2.957686,2.422018,-1.914372,3.237212,2.737037,2.683564,10.434273,-18.253275,28.687549,-7.819002,0.00009113,0.00000000,0.00009112,0.00000000,0.00000001,0.000000,0.000000,0.000000,0.000000,0.000000,0.000000,0.000000,0.000000,0.22001273,0.12008290,0.02456966,0.03689532,0.00986715,0.00000000,0.00000000,0.02859770,0.01000691,0.01228483,0.01475813,0.01973430,0.57195399,0.00000000,0.00000000
6.200,1,1,1,-532.315,190.278,50.315,42.550481,-0.316959,-0.316959,-42.867440,0.000000,0.364382,0.109281,-2.153169,3.165592,2.748691,2.417559,-1.452270,4.626634,2.408051,2.666865,11.281414,-18.187646,29.469060,-6.906231,0.00009177,0.00000000,0.00009176,0.00000000,0.00000001,0.000000,0.000000,0.000000,0.000000,0.000000,0.000000,0.000000,0.000000,0.22338340,0.12177772,0.02469816,0.03765852,0.01019320,0.00000000,0.00000000,0.02905579,0.01014814,0.01234908,0.01506341,0.02038641,0.58111589,0.00000000,0.00000000
6.300,1,1,1,-532.310,190.290,50.311,42.275843,-0.329707,-0.329707,-42.605550,0.000000,0.390915,0.110949,-1.823741,4.497719,2.502385,2.408571,-0.954497,4.870141,2.034776,2.646765,12.285520,-18.152423,30.437943,-5.866903,0.00009040,0.00000000,0.00009039,0.00000000,0.00000001,0.000000,0.000000,0.000000,0.000000,0.000000,0.000000,0.000000,0.000000,0.22703300,0.12299220,0.02475360,0.03919741,0.01055406,0.00000000,0.00000000,0.02953572,0.01024935,0.01237680,0.01567897,0.02110812,0.59071435,0.00000000,0.00000000
6.400,1,1,1,-532.304,190.301,50.305,42.023971,-0.342711,-0.342711,-42.366682,0.000000,0.402751,0.117610,-1.499923,3.781521,2.252567,2.396028,-0.474169,5.643634,1.671253,2.624941,12.462749,-18.060654,30.523404,-5.597905,0.00009401,0.00000000,0.00009400,0.00000000,0.00000001,0.000000,0.000000,0.000000,0.000000,0.000000,0.000000,0.000000,0.000000,0.22992794,0.12381551,0.02476732,0.04028763,0.01103972,0.00000000,0.00000000,0.03001776,0.01031796,0.01238366,0.01611505,0.02207944,0.60035530,0.00000000,0.00000000
6.500,1,1,1,-532.301,190.307,50.302,41.751080,-0.349558,-0.349558,-42.100638,0.000000,0.407064,0.123275,-1.130002,4.082324,1.949165,2.380458,0.063509,5.428775,1.258056,2.602996,12.383205,-17.993999,30.377204,-5.610794,0.00009729,0.00000000,0.00009728,0.00000000,0.00000000,0.000000,0.000000,0.000000,0.000000,0.000000,0.000000,0.000000,0.000000,0.23258900,0.12428207,0.02476756,0.04155625,0.01148841,0.00000000,0.00000000,0.03049470,0.01035684,0.01238378,0.01662250,0.02297682,0.60989392,0.00000000,0.00000000
6.600,1,1,1,-532.293,190.319,50.294,41.479141,-0.362854,-0.362854,-41.841995,0.000000,0.411619,0.109500,-0.747154,4.655282,1.625365,2.362808,0.609144,4.769874,0.886233,2.582756,13.132453,-17.939195,31.071648,-4.806743,0.00010416,0.00000000,0.00010414,0.00000000,0.00000001,0.000000,0.000000,0.000000,0.000000,0.000000,0.000000,0.000000,0.000000,0.23530603,0.12448607,0.02479016,0.04320614,0.01183484,0.00000000,0.00000000,0.03098882,0.01037384,0.01239508,0.01728246,0.02366967,0.61977645,0.00000000,0.00000000
6.700,1,1,1,-532.280,190.336,50.281,41.186519,-0.382752,-0.382752,-41.569270,0.000000,0.416542,0.131330,-0.327219,4.540691,1.257216,2.344053,1.196603,5.056353,0.698508,2.566354,12.420311,-17.858855,30.279166,-5.438544,0.00011505,0.00000000,0.00011502,0.00000000,0.00000003,0.000000,0.000000,0.000000,0.000000,0.000000,0.000000,0.000000,0.000000,0.23786388,0.12452519,0.02487735,0.04477550,0.01222405,0.00000000,0.00000000,0.03146179,0.01037710,0.01243868,0.01791020,0.02444809,0.62923581,0.00000000,0.00000000
6.800,1,1,1,-532.275,190.342,50.277,40.938125,-0.389766,-0.389766,-41.327891,0.000000,0.421220,0.136985,0.031025,3.738550,0.960140,2.325362,1.686553,4.956085,0.860334,2.554747,12.400135,-17.764965,30.165100,-5.364829,0.00011833,0.00000000,0.00011833,0.00000000,0.00000000,0.000000,0.000000,0.000000,0.000000,0.000000,0.000000,0.000000,0.000000,0.23994722,0.12452554,0.02505080,0.04584083,0.01259849,0.00000000,0.00000000,0.03193156,0.01037713,0.01252540,0.01833633,0.02519697,0.63863122,0.00000000,0.00000000
6.900,1,1,1,-532.261,190.359,50.262,40.647590,-0.409631,-0.409631,-41.057220,0.000000,0.426186,0.146099,0.444973,3.566662,0.642696,2.307806,2.238987,4.841493,1.289874,2.550117,12.257772,-17.684868,29.942641,-5.427096,0.00012968,0.00000000,0.00012965,0.00000000,0.00000003,0.000000,0.000000,0.000000,0.000000,0.000000,0.000000,0.000000,0.000000,0.24211228,0.12459787,0.02535600,0.04680892,0.01295525,0.00000000,0.00000000,0.03239424,0.01038316,0.01267800,0.01872357,0.02591050,0.64788488,0.00000000,0.00000000
7.000,1,1,1,-532.251,190.371,50.252,40.379615,-0.422867,-0.422867,-40.802482,0.000000,0.430810,0.150941,0.816287,2.793169,0.500416,2.292226,2.719330,4.626634,1.749001,2.552804,12.288005,-17.588501,29.876506,-5.300496,0.00013714,0.00000000,0.00013713,0.00000000,0.00000001,0.000000,0.000000,0.000000,0.000000,0.000000,0.000000,0.000000,0.000000,0.24418639,0.12484138,0.02580641,0.04740292,0.01328120,0.00000000,0.00000000,0.03285448,0.01040345,0.01290320,0.01896117,0.02656240,0.65708968,0.00000000,0.00000000
7.100,1,1,1,-532.241,190.382,50.242,40.112662,-0.435868,-0.435868,-40.548531,0.000000,0.435164,0.151834,1.170849,4.311507,0.610592,2.279355,3.161432,4.583662,2.216579,2.563104,12.473377,-17.562025,30.035403,-5.088648,0.00014472,0.00000000,0.00014470,0.00000000,0.00000001,0.000000,0.000000,0.000000,0.000000,0.000000,0.000000,0.000000,0.000000,0.24749598,0.12534248,0.02641530,0.04881852,0.01360119,0.00000000,0.00000000,0.03331848,0.01044521,0.01320765,0.01952741,0.02720238,0.66636964,0.00000000,0.00000000
7.200,1,1,1,-532.231,190.393,50.233,39.846698,-0.448580,-0.448580,-40.295278,0.000000,0.437919,0.150049,1.503856,3.423423,0.872970,2.269716,3.557822,3.251535,2.669325,2.580796,12.701810,-17.455179,30.156989,-4.753369,0.00015242,0.00000000,0.00015241,0.00000000,0.00000001,0.000000,0.000000,0.000000,0.000000,0.000000,0.000000,0.000000,0.000000,0.25061787,0.12617037,0.02718758,0.04971231,0.01376245,0.00000000,0.00000000,0.03378517,0.01051420,0.01359379,0.01988492,0.02752490,0.67570334,0.00000000,0.00000000
7.300,1,1,1,-532.226,190.399,50.228,39.602861,-0.455064,-0.455064,-40.057926,0.000000,0.437011,0.144783,1.787289,2.864789,1.146208,2.263373,3.876261,3.738550,3.052628,2.604494,12.920261,-17.362856,30.283116,-4.442595,0.00015618,0.00000000,0.00015618,0.00000000,0.00000000,0.000000,0.000000,0.000000,0.000000,0.000000,0.000000,0.000000,0.000000,0.25400354,0.12733678,0.02810198,0.05033663,0.01397510,0.00000000,0.00000000,0.03425306,0.01061140,0.01405099,0.02013465,0.02795019,0.68506117,0.00000000,0.00000000
7.400,1,1,1,-532.218,190.410,50.220,39.338764,-0.467272,-0.467272,-39.806036,0.000000,0.435793,0.140556,2.066705,3.351803,1.452130,2.260645,4.166814,3.237212,3.441821,2.633761,13.081672,-17.296712,30.378384,-4.215040,0.00016422,0.00000000,0.00016421,0.00000000,0.00000001,0.000000,0.000000,0.000000,0.000000,0.000000,0.000000,0.000000,0.000000,0.25810787,0.12889800,0.02915969,0.05119214,0.01413470,0.00000000,0.00000000,0.03472334,0.01074150,0.01457984,0.02047686,0.02826940,0.69446672,0.00000000,0.00000000
7.500,1,1,1,-532.211,190.420,50.213,39.075632,-0.479132,-0.479132,-39.554764,0.000000,0.434692,0.133717,2.312965,2.879113,1.744371,2.261401,4.395456,2.234535,3.784758,2.667135,13.356134,-17.196333,30.552466,-3.840199,0.00017246,0.00000000,0.00017245,0.00000000,0.00000001,0.000000,0.000000,0.000000,0.000000,0.000000,0.000000,0.000000,0.000000,0.26242198,0.13085362,0.03033675,0.05182342,0.01421075,0.00000000,0.00000000,0.03519745,0.01090447,0.01516838,0.02072937,0.02842150,0.70394890,0.00000000,0.00000000
7.600,1,1,1,-532.205,190.430,50.207,38.813447,-0.490657,-0.490657,-39.304105,0.000000,0.433814,0.125216,2.523167,2.162916,2.013981,2.265298,4.559517,1.819141,4.075015,2.703004,13.705533,-17.086314,30.791848,-3.380781,0.00018091,0.00000000,0.00018090,0.00000000,0.00000001,0.000000,0.000000,0.000000,0.000000,0.000000,0.000000,0.000000,0.000000,0.26690241,0.13318092,0.03160338,0.05217970,0.01426116,0.00000000,0.00000000,0.03567726,0.01109841,0.01580169,0.02087188,0.02852231,0.71354512,0.00000000,0.00000000
7.700,1,1,1,-532.201,190.440,50.203,38.552220,-0.501880,-0.501880,-39.054100,0.000000,0.433267,0.117543,2.695049,2.005352,2.255207,2.271824,4.657280,0.329451,4.307677,2.739710,14.030279,-16.991520,31.021798,-2.961241,0.00018961,0.00000000,0.00018960,0.00000000,0.00000001,0.000000,0.000000,0.000000,0.000000,0.000000,0.000000,0.000000,0.000000,0.27167237,0.13583596,0.03292483,0.05248596,0.01426281,0.00000000,0.00000000,0.03616282,0.01131966,0.01646241,0.02099438,0.02852562,0.72325638,0.00000000,0.00000000
7.800,1,1,1,-532.198,190.449,50.200,38.291945,-0.512845,-0.512845,-38.804790,0.000000,0.413694,0.109642,2.826969,2.076972,2.463952,2.280341,4.687628,0.114592,4.479174,2.775641,13.578151,-16.900123,30.478274,-3.321971,0.00021535,0.00000000,0.00021534,0.00000000,0.00000001,0.000000,0.000000,0.000000,0.000000,0.000000,0.000000,0.000000,0.000000,0.27673058,0.13875697,0.03426341,0.05281444,0.01426301,0.00000000,0.00000000,0.03663275,0.01156308,0.01713171,0.02112577,0.02852602,0.73265502,0.00000000,0.00000000
7.900,1,1,1,-532.197,190.459,50.199,38.032596,-0.523594,-0.523594,-38.556190,0.000000,0.397322,0.102575,2.918174,1.017000,2.637260,2.290143,4.650447,-0.644578,4.587139,2.809323,13.244375,-16.770088,30.014464,-3.525713,0.00024025,0.00000000,0.00024024,0.00000000,0.00000001,0.000000,0.000000,0.000000,0.000000,0.000000,0.000000,0.000000,0.000000,0.28170186,0.14186927,0.03558075,0.05289319,0.01426934,0.00000000,0.00000000,0.03708932,0.01182244,0.01779038,0.02115728,0.02853867,0.74178638,0.00000000,0.00000000
8.000,1,1,1,-532.198,190.468,50.200,37.774189,-0.534169,-0.534169,-38.308358,0.000000,0.385364,0.089474,2.967266,-0.587282,2.772920,2.300485,4.546998,-1.518338,4.630342,2.839502,13.354493,-16.622493,29.976986,-3.268000,0.00026292,0.00000000,0.00026291,0.00000000,0.00000001,0.000000,0.000000,0.000000,0.000000,0.000000,0.000000,0.000000,0.000000,0.28669708,0.14508845,0.03684064,0.05291946,0.01430446,0.00000000,0.00000000,0.03754407,0.01209070,0.01842032,0.02116778,0.02860891,0.75088141,0.00000000,0.00000000
8.100,1,1,1,-532.200,190.477,50.202,37.516806,-0.544637,-0.544637,-38.061442,0.000000,0.377986,0.091968,2.973607,0.257831,2.869254,2.310615,4.379570,-0.902409,4.608606,2.865146,13.008584,-16.549828,29.558412,-3.541243,0.00028282,0.00000000,0.00028281,0.00000000,0.00000001,0.000000,0.000000,0.000000,0.000000,0.000000,0.000000,0.000000,0.000000,0.29155836,0.14832063,0.03800917,0.05292452,0.01431686,0.00000000,0.00000000,0.03798718,0.01236005,0.01900458,0.02116981,0.02863372,0.75974365,0.00000000,0.00000000
8.200,1,1,1,-532.204,190.486,50.206,37.260507,-0.555064,-0.555064,-37.815572,0.000000,0.375314,0.095875,2.938723,0.272155,2.925311,2.319864,4.151628,-2.148592,4.522814,2.885533,12.809887,-16.445203,29.255090,-3.635317,0.00029949,0.00000000,0.00029948,0.00000000,0.00000001,0.000000,0.000000,0.000000,0.000000,0.000000,0.000000,0.000000,0.000000,0.29627611,0.15147770,0.03905932,0.05293016,0.01438718,0.00000000,0.00000000,0.03842175,0.01262314,0.01952966,0.02117207,0.02877435,0.76843502,0.00000000,0.00000000
8.300,1,1,1,-532.210,190.496,50.212,37.005330,-0.565510,-0.565510,-37.570840,0.000000,0.377429,0.100745,2.864036,-0.358099,2.940891,2.327644,3.867645,-2.907761,4.375019,2.900227,12.773587,-16.317516,29.091103,-3.543929,0.00031252,0.00000000,0.00031252,0.00000000,0.00000001,0.000000,0.000000,0.000000,0.000000,0.000000,0.000000,0.000000,0.000000,0.30075293,0.15447552,0.03997047,0.05293993,0.01451593,0.00000000,0.00000000,0.03885109,0.01287296,0.01998523,0.02117597,0.02903186,0.77702180,0.00000000,0.00000000
8.400,1,1,1,-532.216,190.505,50.219,36.751340,-0.576044,-0.576044,-37.327384,0.000000,0.384389,0.106883,2.750890,-0.873761,2.916329,2.333482,3.532574,-3.179916,4.168376,2.909091,12.883735,-16.192101,29.075835,-3.308366,0.00032157,0.00000000,0.00032156,0.00000000,0.00000001,0.000000,0.000000,0.000000,0.000000,0.000000,0.000000,0.000000,0.000000,0.30492025,0.15724206,0.04073083,0.05299808,0.01466996,0.00000000,0.00000000,0.03927932,0.01310350,0.02036542,0.02119923,0.02933992,0.78558637,0.00000000,0.00000000
8.500,1,1,1,-532.225,190.514,50.227,36.498604,-0.586749,-0.586749,-37.085353,0.000000,0.396215,0.114378,2.600885,-1.461042,2.852588,2.337015,3.151951,-4.239888,3.906993,2.912254,13.133256,-16.063052,29.196308,-2.929796,0.00032634,0.00000000,0.00032633,0.00000000,0.00000001,0.000000,0.000000,0.000000,0.000000,0.000000,0.000000,0.000000,0.000000,0.30886695,0.15971595,0.04133638,0.05316071,0.01494389,0.00000000,0.00000000,0.03971002,0.01330966,0.02066819,0.02126429,0.02988778,0.79420046,0.00000000,0.00000000
8.600,1,1,1,-532.234,190.524,50.236,36.247192,-0.597707,-0.597707,-36.844899,0.000000,0.412882,0.103205,2.416378,-2.377775,2.751221,2.338010,2.732150,-4.125296,3.595904,2.910100,14.343136,-15.922875,30.266011,-1.579740,0.00032661,0.00000000,0.00032660,0.00000000,0.00000001,0.000000,0.000000,0.000000,0.000000,0.000000,0.000000,0.000000,0.000000,0.31260239,0.16184875,0.04179082,0.05359096,0.01520290,0.00000000,0.00000000,0.04016895,0.01348740,0.02089541,0.02143639,0.03040580,0.80337907,0.00000000,0.00000000
8.700,1,1,1,-532.243,190.534,50.246,35.997175,-0.609009,-0.609009,-36.606184,0.000000,0.434343,0.119207,2.199997,-1.618606,2.614076,2.336376,2.280164,-3.609634,3.241045,2.903238,14.596118,-15.834029,30.430147,-1.237911,0.00032217,0.00000000,0.00032216,0.00000000,0.00000001,0.000000,0.000000,0.000000,0.000000,0.000000,0.000000,0.000000,0.000000,0.31555129,0.16361869,0.04210770,0.05379056,0.01540143,0.00000000,0.00000000,0.04063291,0.01363489,0.02105385,0.02151622,0.03080286,0.81265813,0.00000000,0.00000000
8.800,1,1,1,-532.253,190.544,50.256,35.748568,-0.620737,-0.620737,-36.369305,0.000000,0.459812,0.130358,1.956935,-2.048324,2.443611,2.332172,1.804112,-4.010705,2.849316,2.892484,15.214328,-15.704922,30.919250,-0.490593,0.00031288,0.00000000,0.00031287,0.00000000,0.00000001,0.000000,0.000000,0.000000,0.000000,0.000000,0.000000,0.000000,0.000000,0.31819156,0.16501828,0.04230596,0.05411001,0.01564638,0.00000000,0.00000000,0.04111093,0.01375152,0.02115298,0.02164401,0.03129276,0.82221863,0.00000000,0.00000000
8.900,1,1,1,-532.264,190.555,50.267,35.530975,-0.632962,-0.632962,-36.163937,0.000000,0.474656,0.137848,1.723127,-1.690225,2.264319,2.325856,1.372381,-5.414451,2.472198,2.879104,15.535366,-15.618464,31.153830,-0.083099,0.00031049,0.00000000,0.00031048,0.00000000,0.00000001,0.000000,0.000000,0.000000,0.000000,0.000000,0.000000,0.000000,0.000000,0.32054253,0.16610433,0.04242078,0.05432772,0.01609318,0.00000000,0.00000000,0.04159653,0.01384203,0.02121039,0.02173109,0.03218637,0.83193057,0.00000000,0.00000000
9.000,1,1,1,-532.274,190.567,50.277,35.285049,-0.645762,-0.645762,-35.930810,0.000000,0.478067,0.142877,1.437986,-2.649930,2.039427,2.317390,0.875277,-5.357155,2.034752,2.863693,15.487506,-15.471240,30.958746,0.016266,0.00032230,0.00000000,0.00032228,0.00000000,0.00000001,0.000000,0.000000,0.000000,0.000000,0.000000,0.000000,0.000000,0.000000,0.32279592,0.16686011,0.04246744,0.05486242,0.01653024,0.00000000,0.00000000,0.04207570,0.01390501,0.02123372,0.02194497,0.03306049,0.84151390,0.00000000,0.00000000
9.100,1,1,1,-532.283,190.579,50.287,35.040570,-0.659180,-0.659180,-35.699750,0.000000,0.481737,0.146995,1.135959,-2.836141,1.791570,2.307132,0.379675,-4.569338,1.591026,2.847290,15.499485,-15.350179,30.849664,0.149306,0.00033461,0.00000000,0.00033460,0.00000000,0.00000001,0.000000,0.000000,0.000000,0.000000,0.000000,0.000000,0.000000,0.000000,0.32468273,0.16733178,0.04247623,0.05547495,0.01684823,0.00000000,0.00000000,0.04255153,0.01394432,0.02123811,0.02218998,0.03369646,0.85103068,0.00000000,0.00000000
9.200,1,1,1,-532.293,190.591,50.296,34.797588,-0.673217,-0.673217,-35.470806,0.000000,0.485614,0.147975,0.821992,-3.423423,1.525713,2.295531,-0.106162,-5.657958,1.162502,2.830910,15.657120,-15.217418,30.874538,0.439702,0.00034747,0.00000000,0.00034745,0.00000000,0.00000002,0.000000,0.000000,0.000000,0.000000,0.000000,0.000000,0.000000,0.000000,0.32678627,0.16757866,0.04247691,0.05636707,0.01733559,0.00000000,0.00000000,0.04302804,0.01396489,0.02123846,0.02254683,0.03467119,0.86056073,0.00000000,0.00000000
9.300,1,1,1,-532.301,190.604,50.305,34.575396,-0.687862,-0.687862,-35.263258,0.000000,0.489427,0.191418,0.526419,-3.552338,1.275726,2.283107,-0.538072,-3.953409,0.827899,2.815321,14.065874,-15.113371,29.179244,-1.047497,0.00036093,0.00000000,0.00036091,0.00000000,0.00000002,0.000000,0.000000,0.000000,0.000000,0.000000,0.000000,0.000000,0.000000,0.32853533,0.16768024,0.04249460,0.05733072,0.01757430,0.00000000,0.00000000,0.04345547,0.01397335,0.02124730,0.02293229,0.03514860,0.86910949,0.00000000,0.00000000
9.400,1,1,1,-532.308,190.617,50.312,34.335362,-0.703036,-0.703036,-35.038398,0.000000,0.493531,0.172894,0.205194,-3.552338,0.994063,2.270368,-0.984116,-4.597986,0.624333,2.801424,15.091594,-15.001524,30.093118,0.090069,0.00037499,0.00000000,0.00037497,0.00000000,0.00000002,0.000000,0.000000,0.000000,0.000000,0.000000,0.000000,0.000000,0.000000,0.33034278,0.16769560,0.04255351,0.05829026,0.01789581,0.00000000,0.00000000,0.04390759,0.01397463,0.02127676,0.02331610,0.03579163,0.87815179,0.00000000,0.00000000
9.500,1,1,1,-532.315,190.631,50.319,34.125478,-0.718803,-0.718803,-34.844281,0.000000,0.497327,0.158550,-0.082015,-2.864789,0.748674,2.257739,-1.351368,-3.265859,0.709216,2.789459,15.898415,-14.929865,30.828280,0.968551,0.00038981,0.00000000,0.00038979,0.00000000,0.00000002,0.000000,0.000000,0.000000,0.000000,0.000000,0.000000,0.000000,0.000000,0.33171934,0.16769806,0.04266475,0.05891514,0.01805823,0.00000000,0.00000000,0.04438316,0.01397484,0.02133237,0.02356606,0.03611646,0.88766313,0.00000000,0.00000000
9.600,1,1,1,-532.320,190.646,50.324,33.888469,-0.735145,-0.735145,-34.623614,0.000000,0.501394,0.154181,-0.405876,-3.051000,0.517217,2.245713,-1.735473,-2.592634,1.001884,2.780056,16.284514,-14.811720,31.096234,1.472795,0.00040547,0.00000000,0.00040544,0.00000000,0.00000002,0.000000,0.000000,0.000000,0.000000,0.000000,0.000000,0.000000,0.000000,0.33325761,0.16775823,0.04284809,0.05962344,0.01816052,0.00000000,0.00000000,0.04486733,0.01397985,0.02142405,0.02384938,0.03632105,0.89734653,0.00000000,0.00000000
9.700,1,1,1,-532.325,190.660,50.329,33.652961,-0.751950,-0.751950,-34.404911,0.000000,0.505350,0.154753,-0.717226,-3.036676,0.419345,2.234727,-2.078914,-2.463719,1.352854,2.773389,16.458240,-14.703157,31.161397,1.755083,0.00042196,0.00000000,0.00042193,0.00000000,0.00000002,0.000000,0.000000,0.000000,0.000000,0.000000,0.000000,0.000000,0.000000,0.33499053,0.16794625,0.04311137,0.06032562,0.01825297,0.00000000,0.00000000,0.04535433,0.01399552,0.02155568,0.02413025,0.03650593,0.90708662,0.00000000,0.00000000
9.800,1,1,1,-532.327,190.676,50.332,33.418970,-0.769192,-0.769192,-34.188162,0.000000,0.509140,0.154433,-1.011839,-2.750197,0.531752,2.225154,-2.375709,-1.833465,1.701283,2.769417,16.664789,-14.605974,31.270763,2.058815,0.00043937,0.00000000,0.00043935,0.00000000,0.00000002,0.000000,0.000000,0.000000,0.000000,0.000000,0.000000,0.000000,0.000000,0.33682691,0.16832050,0.04345522,0.06090163,0.01830417,0.00000000,0.00000000,0.04584539,0.01402671,0.02172761,0.02436065,0.03660833,0.91690778,0.00000000,0.00000000
9.900,1,1,1,-532.328,190.683,50.333,33.232924,-0.777642,-0.777642,-34.010566,0.000000,0.512302,0.148929,-1.236188,-3.666930,0.708860,2.216956,-2.575811,-2.377775,1.962159,2.767428,17.060750,-14.498796,31.559547,2.561954,0.00044713,0.00000000,0.00044713,0.00000000,0.00000001,0.000000,0.000000,0.000000,0.000000,0.000000,0.000000,0.000000,0.000000,0.33940122,0.16887913,0.04385945,0.06192566,0.01839028,0.00000000,0.00000000,0.04634669,0.01407326,0.02192973,0.02477027,0.03678056,0.92693384,0.00000000,0.00000000
10.000,1,1,1,-532.329,190.699,50.334,33.001893,-0.795647,-0.795647,-33.797540,0.000000,0.515679,0.148556,-1.502811,-1.690225,0.963803,2.210641,-2.775733,-3.437747,2.255441,2.767516,17.250109,-14.459011,31.709120,2.791098,0.00046637,0.00000000,0.00046635,0.00000000,0.00000002,0.000000,0.000000,0.000000,0.000000,0.000000,0.000000,0.000000,0.000000,0.34160011,0.16970459,0.04432880,0.06214320,0.01857026,0.00000000,0.00000000,0.04685326,0.01414205,0.02216440,0.02485728,0.03714052,0.93706526,0.00000000,0.00000000
10.100,1,1,1,-532.329,190.715,50.334,32.772494,-0.814186,-0.814186,-33.586680,0.000000,0.518786,0.156009,-1.749780,-2.506690,1.224375,2.206337,-2.917474,-1.303479,2.504697,2.769120,17.109058,-14.331602,31.440659,2.777456,0.00048697,0.00000000,0.00048694,0.00000000,0.00000003,0.000000,0.000000,0.000000,0.000000,0.000000,0.000000,0.000000,0.000000,0.34424026,0.17082373,0.04484734,0.06262170,0.01859614,0.00000000,0.00000000,0.04735136,0.01423531,0.02242367,0.02504868,0.03719228,0.94702714,0.00000000,0.00000000
10.200,1,1,1,-532.327,190.732,50.333,32.544586,-0.833167,-0.833167,-33.377754,0.000000,0.521616,0.160080,-1.970078,-1.776169,1.476156,2.204030,-2.999879,-0.429718,2.704199,2.771597,17.108187,-14.258114,31.366301,2.850073,0.00050895,0.00000000,0.00050892,0.00000000,0.00000003,0.000000,0.000000,0.000000,0.000000,0.000000,0.000000,0.000000,0.000000,0.34694664,0.17224264,0.04539567,0.06286198,0.01859895,0.00000000,0.00000000,0.04784740,0.01435355,0.02269783,0.02514479,0.03719790,0.95694802,0.00000000,0.00000000
10.300,1,1,1,-532.324,190.749,50.330,32.318105,-0.852486,-0.852486,-33.170591,0.000000,0.523075,0.165690,-2.159496,-1.203211,1.711403,2.203580,-3.023129,0.386747,2.850147,2.774279,16.993373,-14.182061,31.175434,2.811312,0.00053226,0.00000000,0.00053224,0.00000000,0.00000003,0.000000,0.000000,0.000000,0.000000,0.000000,0.000000,0.000000,0.000000,0.34981072,0.17394742,0.04595250,0.06297223,0.01860123,0.00000000,0.00000000,0.04833734,0.01449562,0.02297625,0.02518889,0.03720246,0.96674675,0.00000000,0.00000000
10.400,1,1,1,-532.320,190.766,50.326,32.093030,-0.872103,-0.872103,-32.965133,0.000000,0.524150,0.169847,-2.317976,-0.902409,1.924922,2.204765,-2.988487,1.188887,2.940469,2.776525,16.930822,-14.100456,31.031278,2.830366,0.00055693,0.00000000,0.00055690,0.00000000,0.00000003,0.000000,0.000000,0.000000,0.000000,0.000000,0.000000,0.000000,0.000000,0.35288711,0.17591096,0.04649647,0.06303423,0.01862275,0.00000000,0.00000000,0.04882269,0.01465925,0.02324824,0.02521369,0.03724550,0.97645373,0.00000000,0.00000000
10.500,1,1,1,-532.314,190.783,50.320,31.869384,-0.892021,-0.892021,-32.761405,0.000000,0.525794,0.176237,-2.446953,-1.045648,2.113020,2.207319,-2.898050,0.601606,2.974585,2.777766,16.804755,-14.008629,30.813384,2.796126,0.00058297,0.00000000,0.00058294,0.00000000,0.00000003,0.000000,0.000000,0.000000,0.000000,0.000000,0.000000,0.000000,0.000000,0.35615474,0.17809956,0.04700812,0.06311749,0.01862826,0.00000000,0.00000000,0.04930130,0.01484163,0.02350406,0.02524700,0.03725653,0.98602607,0.00000000,0.00000000
10.600,1,1,1,-532.307,190.801,50.313,31.647128,-0.912215,-0.912215,-32.559343,0.000000,0.520016,0.158726,-2.545369,-0.544310,2.273256,2.210919,-2.754594,1.017000,2.953156,2.777538,17.363661,-13.940973,31.304634,3.422688,0.00062860,0.00000000,0.00062857,0.00000000,0.00000003,0.000000,0.000000,0.000000,0.000000,0.000000,0.000000,0.000000,0.000000,0.35951929,0.18046773,0.04747037,0.06314005,0.01864402,0.00000000,0.00000000,0.04979712,0.01503898,0.02373519,0.02525602,0.03728803,0.99594246,0.00000000,0.00000000
10.700,1,1,1,-532.299,190.819,50.305,31.426161,-0.932613,-0.932613,-32.358775,0.000000,0.507264,0.174852,-2.610166,0.071620,2.404039,2.215183,-2.561596,2.220211,2.877887,2.775502,16.234215,-13.879573,30.113788,2.354641,0.00069483,0.00000000,0.00069480,0.00000000,0.00000003,0.000000,0.000000,0.000000,0.000000,0.000000,0.000000,0.000000,0.000000,0.36294183,0.18295865,0.04787022,0.06314045,0.01871911,0.00000000,0.00000000,0.05025341,0.01524655,0.02393511,0.02525618,0.03743822,1.00506813,0.00000000,0.00000000
10.800,1,1,1,-532.289,190.837,50.296,31.206348,-0.953114,-0.953114,-32.159462,0.000000,0.498491,0.189651,-2.637179,-0.200535,2.503794,2.219674,-2.322446,2.735873,2.751338,2.771452,15.360798,-13.793972,29.154770,1.566826,0.00075582,0.00000000,0.00075579,0.00000000,0.00000003,0.000000,0.000000,0.000000,0.000000,0.000000,0.000000,0.000000,0.000000,0.36636214,0.18550548,0.04819942,0.06314351,0.01883332,0.00000000,0.00000000,0.05068041,0.01545879,0.02409971,0.02525741,0.03766664,1.01360813,0.00000000,0.00000000
10.900,1,1,1,-532.279,190.854,50.286,30.987642,-0.973628,-0.973628,-31.961270,0.000000,0.492298,0.199101,-2.628077,0.415394,2.570951,2.223950,-2.040650,2.606958,2.576679,2.765356,14.835397,-13.740423,28.575821,1.094974,0.00080986,0.00000000,0.00080983,0.00000000,0.00000003,0.000000,0.000000,0.000000,0.000000,0.000000,0.000000,0.000000,0.000000,0.36966006,0.18802558,0.04845266,0.06315663,0.01893664,0.00000000,0.00000000,0.05108855,0.01566880,0.02422633,0.02526265,0.03787328,1.02177096,0.00000000,0.00000000
11.000,1,1,1,-532.267,190.872,50.274,30.770044,-0.994129,-0.994129,-31.764173,0.000000,0.490217,0.208016,-2.586812,0.487014,2.604587,2.227684,-1.721226,3.781521,2.357786,2.757279,14.509016,-13.672027,28.181043,0.836989,0.00085537,0.00000000,0.00085533,0.00000000,0.00000003,0.000000,0.000000,0.000000,0.000000,0.000000,0.000000,0.000000,0.000000,0.37291922,0.19047112,0.04863311,0.06317469,0.01915440,0.00000000,0.00000000,0.05148590,0.01587259,0.02431656,0.02526988,0.03830879,1.02971800,0.00000000,0.00000000
11.100,1,1,1,-532.254,190.890,50.262,30.553496,-1.014573,-1.014573,-31.568069,0.000000,0.492310,0.215506,-2.515027,1.375099,2.604643,2.230569,-1.370632,4.340155,2.099516,2.747466,14.412919,-13.631694,28.044613,0.781226,0.00089093,0.00000000,0.00089090,0.00000000,0.00000003,0.000000,0.000000,0.000000,0.000000,0.000000,0.000000,0.000000,0.000000,0.37617134,0.19278403,0.04874760,0.06331873,0.01944139,0.00000000,0.00000000,0.05187958,0.01606534,0.02437380,0.02532749,0.03888278,1.03759160,0.00000000,0.00000000
11.200,1,1,1,-532.240,190.908,50.248,30.337886,-1.034853,-1.034853,-31.372739,0.000000,0.498556,0.194099,-2.411392,1.919409,2.571694,2.232326,-0.996159,4.211240,1.807995,2.736294,15.671052,-13.581777,29.252828,2.089275,0.00091517,0.00000000,0.00091514,0.00000000,0.00000003,0.000000,0.000000,0.000000,0.000000,0.000000,0.000000,0.000000,0.000000,0.37933769,0.19490933,0.04880805,0.06359926,0.01971147,0.00000000,0.00000000,0.05230957,0.01624244,0.02440403,0.02543971,0.03942294,1.04619150,0.00000000,0.00000000
11.300,1,1,1,-532.225,190.925,50.234,30.123140,-1.054855,-1.054855,-31.177995,0.000000,0.508856,0.209821,-2.275863,2.578310,2.506940,2.232733,-0.605675,3.881789,1.491445,2.724220,15.520573,-13.537410,29.057983,1.983164,0.00092695,0.00000000,0.00092692,0.00000000,0.00000003,0.000000,0.000000,0.000000,0.000000,0.000000,0.000000,0.000000,0.000000,0.38241317,0.19680260,0.04883040,0.06410549,0.01994097,0.00000000,0.00000000,0.05273371,0.01640022,0.02441520,0.02564220,0.03988193,1.05467419,0.00000000,0.00000000
11.400,1,1,1,-532.209,190.942,50.218,29.909200,-1.074497,-1.074497,-30.983697,0.000000,0.523143,0.218712,-2.108301,1.303479,2.411286,2.231623,-0.206207,4.254212,1.162117,2.711769,15.819884,-13.435750,29.255634,2.384134,0.00092509,0.00000000,0.00092506,0.00000000,0.00000003,0.000000,0.000000,0.000000,0.000000,0.000000,0.000000,0.000000,0.000000,0.38487593,0.19842710,0.04883299,0.06423486,0.02021657,0.00000000,0.00000000,0.05316442,0.01653559,0.02441649,0.02569394,0.04043313,1.06328833,0.00000000,0.00000000
11.500,1,1,1,-532.193,190.958,50.202,29.713091,-1.093746,-1.093746,-30.806836,0.000000,0.539410,0.227651,-1.931021,1.890761,2.299399,2.229070,0.164250,4.139620,0.872594,2.699446,16.188896,-13.403460,29.592356,2.785436,0.00091406,0.00000000,0.00091403,0.00000000,0.00000003,0.000000,0.000000,0.000000,0.000000,0.000000,0.000000,0.000000,0.000000,0.38721827,0.19979169,0.04883463,0.06450742,0.02047787,0.00000000,0.00000000,0.05360665,0.01664931,0.02441732,0.02580297,0.04095573,1.07213306,0.00000000,0.00000000
11.600,1,1,1,-532.175,190.974,50.185,29.500673,-1.112620,-1.112620,-30.613292,0.000000,0.550678,0.231903,-1.718277,3.437747,2.148059,2.224994,0.564812,4.010705,0.607042,2.687799,16.535012,-13.393852,29.928865,3.141160,0.00091694,0.00000000,0.00091692,0.00000000,0.00000003,0.000000,0.000000,0.000000,0.000000,0.000000,0.000000,0.000000,0.000000,0.38991354,0.20087046,0.04885406,0.06540701,0.02072276,0.00000000,0.00000000,0.05405925,0.01673920,0.02442703,0.02616281,0.04144551,1.08118500,0.00000000,0.00000000
11.700,1,1,1,-532.157,190.990,50.167,29.288917,-1.131089,-1.131089,-30.420006,0.000000,0.553527,0.235096,-1.486587,2.435071,1.970805,2.219486,0.957548,3.810169,0.525421,2.677298,16.570561,-13.303743,29.874304,3.266818,0.00094590,0.00000000,0.00094588,0.00000000,0.00000003,0.000000,0.000000,0.000000,0.000000,0.000000,0.000000,0.000000,0.000000,0.39190224,0.20167859,0.04890994,0.06585875,0.02094395,0.00000000,0.00000000,0.05451100,0.01680655,0.02445497,0.02634350,0.04188791,1.09021994,0.00000000,0.00000000
11.800,1,1,1,-532.139,191.006,50.149,29.077766,-1.149061,-1.149061,-30.226827,0.000000,0.556548,0.212198,-1.235895,3.237212,1.770789,2.212700,1.336561,4.555014,0.700738,2.668390,17.691379,-13.273540,30.964919,4.417839,0.00097378,0.00000000,0.00097376,0.00000000,0.00000002,0.000000,0.000000,0.000000,0.000000,0.000000,0.000000,0.000000,0.000000,0.39417257,0.20223691,0.04901877,0.06665678,0.02125995,0.00000000,0.00000000,0.05500015,0.01685308,0.02450939,0.02666271,0.04251991,1.10000297,0.00000000,0.00000000
11.900,1,1,1,-532.120,191.021,50.130,28.867221,-1.166467,-1.166467,-30.033687,0.000000,0.559717,0.225410,-0.969012,4.211240,1.551876,2.204842,1.695517,3.967733,1.000654,2.661401,17.301560,-13.247580,30.549140,4.053980,0.00100044,0.00000000,0.00100041,0.00000000,0.00000002,0.000000,0.000000,0.000000,0.000000,0.000000,0.000000,0.000000,0.000000,0.39675658,0.20258021,0.04919394,0.06800758,0.02149977,0.00000000,0.00000000,0.05547507,0.01688168,0.02459697,0.02720303,0.04299955,1.10950148,0.00000000,0.00000000
12.000,1,1,1,-532.100,191.035,50.111,28.657209,-1.183293,-1.183293,-29.840502,0.000000,0.563004,0.232019,-0.689884,3.423423,1.317999,2.196179,2.028532,2.922085,1.332922,2.656549,17.209712,-13.166251,30.375963,4.043461,0.00102585,0.00000000,0.00102583,0.00000000,0.00000002,0.000000,0.000000,0.000000,0.000000,0.000000,0.000000,0.000000,0.000000,0.39867282,0.20275414,0.04944457,0.06889985,0.02162979,0.00000000,0.00000000,0.05594447,0.01689618,0.02472229,0.02755994,0.04325958,1.11888944,0.00000000,0.00000000
