t,controller_id,state_code,wp_idx,x,y,dist,yaw_deg,yaw_to_wp_deg,yaw_ref_deg,yaw_err_deg,yaw_rate_deg_s,speed_ref,speed_meas,roll_deg,roll_rate_deg_s,roll_rms_window_deg,roll_rms_total_deg,pitch_deg,pitch_rate_deg_s,pitch_rms_window_deg,pitch_rms_total_deg,base_cmd,diff_cmd,T_left,T_right,J_inst,J_goal,J_wave_roll,J_progress,J_smooth,J_mpc_distance,J_mpc_final,J_mpc_heading,J_mpc_wrong_way,J_mpc_pitch,J_mpc_control,J_mpc_slew,J_mpc_turn,J_total,J_roll,J_pitch,J_roll_rate,J_pitch_rate,J_goal_heading,J_no_progress,J_control,I_roll,I_pitch,I_roll_rate,I_pitch_rate,I_control,I_no_progress,I_goal_heading
0.200,3,1,1,-532.004,189.999,50.004,57.131,0.001,9.522,-47.610,-0.544,nan,0.165263,-1.429009,-0.788368,1.429009,1.429009,-0.741129,1.082500,0.741129,0.741129,58.669283,-55.534201,8.000000,3.135081,nan,0.000000,0.000000,0.000000,0.000000,0.000000,0.000000,0.000000,0.000000,0.000000,0.000000,0.000000,0.000000,0.03185227,0.00065312,0.00002510,0.00003550,0.00001339,0.03106980,0.00000000,0.00005537,0.00004665,0.00001255,0.00001420,0.00002677,0.00027685,0.00000000,0.05178301
0.435,3,1,1,-532.004,189.999,50.004,57.131,0.001,9.522,-47.610,-0.544,nan,0.165263,-1.429009,-0.788368,1.429009,1.429009,-0.741129,1.082500,0.741129,0.741129,48.535783,-59.852874,16.000000,-4.864919,nan,0.000000,0.000000,0.000000,0.000000,0.000000,0.000000,0.000000,0.000000,0.000000,0.000000,0.000000,0.000000,0.13221377,0.00270108,0.00010379,0.00014680,0.00005536,0.12849370,0.00000000,0.00071304,0.00019293,0.00005190,0.00005872,0.00011071,0.00356521,0.00000000,0.21415616
0.500,3,1,1,-532.008,189.998,50.008,57.082,0.003,9.515,-47.567,0.945,nan,0.114417,-1.444214,0.435835,1.434096,1.431644,-0.784480,-2.063766,0.755856,0.748787,48.545622,-61.274109,24.000000,-12.728488,nan,0.000000,0.000000,0.000000,0.000000,0.000000,0.000000,0.000000,0.000000,0.000000,0.000000,0.000000,0.000000,0.16008325,0.00327627,0.00012803,0.00015616,0.00009730,0.15523520,0.00000000,0.00119027,0.00023402,0.00006402,0.00006246,0.00019461,0.00595137,0.00000000,0.25872534
0.600,3,1,1,-532.011,189.994,50.011,57.039,0.007,9.510,-47.529,-0.258,nan,0.098694,-1.410101,0.296936,1.428135,1.427134,-0.978441,-1.758184,0.817206,0.802638,48.500366,-62.874886,32.000000,-14.374521,nan,0.000000,0.000000,0.000000,0.000000,0.000000,0.000000,0.000000,0.000000,0.000000,0.000000,0.000000,0.000000,0.20356565,0.00412432,0.00018636,0.00016287,0.00014439,0.19652670,0.00000000,0.00242100,0.00029459,0.00009318,0.00006515,0.00028878,0.01210502,0.00000000,0.32754450
0.700,3,1,1,-532.013,189.992,50.013,56.967,0.009,9.500,-47.467,-0.859,nan,0.084730,-1.376463,0.469213,1.417951,1.418451,-1.071318,-0.160511,0.873959,0.855453,48.455898,-64.563780,40.000000,-16.107882,nan,0.000000,0.000000,0.000000,0.000000,0.000000,0.000000,0.000000,0.000000,0.000000,0.000000,0.000000,0.000000,0.24749041,0.00493212,0.00025627,0.00017964,0.00014478,0.23769759,0.00000000,0.00428001,0.00035229,0.00012814,0.00007185,0.00028956,0.02140006,0.00000000,0.39616265
0.800,3,1,1,-532.013,189.994,50.013,56.860,0.007,9.481,-47.379,-0.802,nan,0.057698,-1.301648,1.055278,1.399239,1.401751,-0.983762,1.642068,0.893198,0.875661,48.450419,-66.349538,48.000000,-17.899119,nan,0.000000,0.000000,0.000000,0.000000,0.000000,0.000000,0.000000,0.000000,0.000000,0.000000,0.000000,0.000000,0.29206660,0.00565494,0.00031525,0.00026447,0.00018587,0.27874070,0.00000000,0.00690536,0.00040392,0.00015763,0.00010579,0.00037173,0.03452681,0.00000000,0.46456784
0.937,3,1,1,-532.013,189.994,50.013,56.860,0.007,9.481,-47.379,-0.802,nan,0.057698,-1.301648,1.055278,1.385718,1.385423,-0.983762,1.642068,0.906689,0.894754,48.534941,-68.842788,56.000000,-20.000000,nan,0.000000,0.000000,0.000000,0.000000,0.000000,0.000000,0.000000,0.000000,0.000000,0.000000,0.000000,0.000000,0.35410300,0.00664072,0.00039569,0.00038017,0.00024190,0.33471500,0.00000000,0.01172952,0.00047434,0.00019785,0.00015207,0.00048379,0.05864761,0.00000000,0.55785833
1.000,3,1,1,-532.006,190.002,50.006,56.528,-0.002,9.419,-47.109,-2.149,nan,0.071763,-0.990922,1.783361,1.342732,1.360615,-0.548549,2.035325,0.870022,0.874228,48.659077,-69.602826,64.000000,-20.000000,nan,0.000000,0.000000,0.000000,0.000000,0.000000,0.000000,0.000000,0.000000,0.000000,0.000000,0.000000,0.000000,0.38321919,0.00690693,0.00040735,0.00053415,0.00028201,0.36050104,0.00000000,0.01458772,0.00049335,0.00020367,0.00021366,0.00056401,0.07293860,0.00000000,0.60083506
1.100,3,1,1,-532.003,190.007,50.003,56.299,-0.008,9.376,-46.923,-2.220,nan,0.094067,-0.814252,1.739247,1.294709,1.315050,-0.376848,1.481450,0.829827,0.836917,49.023490,-71.289834,72.000000,-20.000000,nan,0.000000,0.000000,0.000000,0.000000,0.000000,0.000000,0.000000,0.000000,0.000000,0.000000,0.000000,0.000000,0.42960996,0.00718974,0.00041600,0.00076456,0.00031544,0.40075122,0.00000000,0.02017299,0.00051355,0.00020800,0.00030583,0.00063088,0.10086494,0.00000000,0.66791870
1.200,3,1,1,-531.999,190.013,49.999,56.024,-0.015,9.325,-46.699,-2.722,nan,0.110927,-0.639489,1.811953,1.244804,1.267503,-0.241017,1.363341,0.790924,0.800434,49.434357,-72.000000,80.000000,-20.000000,nan,0.000000,0.000000,0.000000,0.000000,0.000000,0.000000,0.000000,0.000000,0.000000,0.000000,0.000000,0.000000,0.47670283,0.00736407,0.00041954,0.00101448,0.00034374,0.44059114,0.00000000,0.02696987,0.00052600,0.00020977,0.00040579,0.00068747,0.13484936,0.00000000,0.73431856
1.300,3,1,1,-531.995,190.020,49.995,55.703,-0.023,9.265,-46.437,-3.409,nan,0.136437,-0.443770,2.102591,1.194393,1.219237,-0.088336,1.705759,0.754587,0.766033,49.865184,-72.000000,88.000000,-20.000000,nan,0.000000,0.000000,0.000000,0.000000,0.000000,0.000000,0.000000,0.000000,0.000000,0.000000,0.000000,0.000000,0.52474200,0.00744808,0.00042002,0.00135126,0.00038807,0.48001792,0.00000000,0.03511666,0.00053201,0.00021001,0.00054050,0.00077614,0.17558332,0.00000000,0.80002986
1.419,3,1,1,-531.995,190.020,49.995,55.703,-0.023,9.265,-46.437,-3.409,nan,0.136437,-0.443770,2.102591,1.150697,1.169715,-0.088336,1.705759,0.722912,0.730541,50.234390,-72.000000,96.000000,-20.000000,nan,0.000000,0.000000,0.000000,0.000000,0.000000,0.000000,0.000000,0.000000,0.000000,0.000000,0.000000,0.000000,0.58347450,0.00754774,0.00042058,0.00175077,0.00044066,0.52678735,0.00000000,0.04652741,0.00053912,0.00021029,0.00070031,0.00088131,0.23263705,0.00000000,0.87797892
1.500,3,1,1,-531.981,190.041,49.981,54.970,-0.048,9.125,-45.845,-4.813,nan,0.534292,0.001821,2.695804,1.105554,1.134563,0.298746,2.449040,0.699476,0.712305,50.697447,-71.650813,100.000000,-20.000000,nan,0.000000,0.000000,0.000000,0.000000,0.000000,0.000000,0.000000,0.000000,0.000000,0.000000,0.000000,0.000000,0.62373678,0.00754774,0.00042501,0.00220125,0.00051501,0.55805508,0.00000000,0.05499269,0.00053912,0.00021250,0.00088050,0.00103003,0.27496344,0.00000000,0.93009180
1.600,3,1,1,-531.973,190.055,49.973,54.512,-0.063,9.037,-45.475,-3.767,nan,0.437041,0.240180,2.391247,1.067271,1.097204,0.524298,2.371432,0.688443,0.701152,51.104543,-71.614062,100.000000,-20.000000,nan,0.000000,0.000000,0.000000,0.000000,0.000000,0.000000,0.000000,0.000000,0.000000,0.000000,0.000000,0.000000,0.67250474,0.00757235,0.00044176,0.00263678,0.00060068,0.59585872,0.00000000,0.06539445,0.00054088,0.00022088,0.00105471,0.00120136,0.32697226,0.00000000,0.99309787
1.700,3,1,1,-531.963,190.072,49.963,54.011,-0.082,8.939,-45.072,-5.214,nan,0.402685,0.460248,2.245967,1.037907,1.068118,0.761695,2.622183,0.693567,0.705150,51.458344,-71.122097,100.000000,-19.663753,nan,0.000000,0.000000,0.000000,0.000000,0.000000,0.000000,0.000000,0.000000,0.000000,0.000000,0.000000,0.000000,0.72062801,0.00766267,0.00047710,0.00302087,0.00070539,0.63298245,0.00000000,0.07577953,0.00054733,0.00023855,0.00120835,0.00141078,0.37889766,0.00000000,1.05497076
1.800,3,1,1,-531.953,190.090,49.953,53.472,-0.104,8.833,-44.639,-5.472,nan,0.406292,0.671305,2.136563,1.018866,1.048654,1.030994,2.904206,0.719309,0.728701,51.738090,-70.820204,100.000000,-19.082115,nan,0.000000,0.000000,0.000000,0.000000,0.000000,0.000000,0.000000,0.000000,0.000000,0.000000,0.000000,0.000000,0.76813469,0.00785481,0.00054184,0.00336844,0.00083383,0.66939431,0.00000000,0.08614146,0.00056106,0.00027092,0.00134737,0.00166765,0.43070730,0.00000000,1.11565718
1.925,3,1,1,-531.953,190.090,49.953,53.472,-0.104,8.833,-44.639,-5.472,nan,0.406292,0.671305,2.136563,1.001765,1.027033,1.030994,2.904206,0.741280,0.753517,51.814207,-70.820204,100.000000,-19.005997,nan,0.000000,0.000000,0.000000,0.000000,0.000000,0.000000,0.000000,0.000000,0.000000,0.000000,0.000000,0.000000,0.82725204,0.00809393,0.00062241,0.00380097,0.00099366,0.71470802,0.00000000,0.09903304,0.00057814,0.00031121,0.00152039,0.00198732,0.49516518,0.00000000,1.19118004
2.000,3,1,1,-531.928,190.134,49.929,52.300,-0.153,8.599,-43.701,-5.629,nan,1.036874,1.089652,1.980962,1.006849,1.029631,1.628537,2.811546,0.816278,0.807367,52.113343,-70.236050,100.000000,-18.122707,nan,0.000000,0.000000,0.000000,0.000000,0.000000,0.000000,0.000000,0.000000,0.000000,0.000000,0.000000,0.000000,0.86227420,0.00847678,0.00074458,0.00402692,0.00108469,0.74109905,0.00000000,0.10684217,0.00060548,0.00037229,0.00161077,0.00216938,0.53421087,0.00000000,1.23516508
2.100,3,1,1,-531.916,190.157,49.916,51.676,-0.181,8.474,-43.202,-5.157,nan,0.812290,1.272360,1.705021,1.022543,1.043290,1.879620,2.261755,0.903983,0.893216,52.078074,-70.022389,100.000000,-17.944315,nan,0.000000,0.000000,0.000000,0.000000,0.000000,0.000000,0.000000,0.000000,0.000000,0.000000,0.000000,0.000000,0.90794889,0.00916772,0.00095999,0.00424848,0.00116267,0.77523784,0.00000000,0.11717219,0.00065484,0.00047999,0.00169939,0.00232533,0.58586095,0.00000000,1.29206307
2.200,3,1,1,-531.903,190.182,49.903,51.031,-0.209,8.345,-42.686,-6.360,nan,0.683905,1.422714,1.397176,1.046194,1.064645,2.072101,1.748415,0.995493,0.982860,51.958622,-69.506461,100.000000,-17.547838,nan,0.000000,0.000000,0.000000,0.000000,0.000000,0.000000,0.000000,0.000000,0.000000,0.000000,0.000000,0.000000,0.95279812,0.01002937,0.00122109,0.00439687,0.00120914,0.80848028,0.00000000,0.12746137,0.00071638,0.00061055,0.00175875,0.00241828,0.63730684,0.00000000,1.34746713
2.300,3,1,1,-531.897,190.194,49.897,50.502,-0.223,8.246,-42.256,-6.231,nan,0.658229,1.522853,0.810982,1.073701,1.089951,2.199212,1.060136,1.083572,1.069586,51.761854,-69.273836,100.000000,-17.511981,nan,0.000000,0.000000,0.000000,0.000000,0.000000,0.000000,0.000000,0.000000,0.000000,0.000000,0.000000,0.000000,0.99709960,0.01101856,0.00151581,0.00444697,0.00122626,0.84112200,0.00000000,0.13776999,0.00078704,0.00075790,0.00177879,0.00245253,0.68884996,0.00000000,1.40187001
2.400,3,1,1,-531.884,190.221,49.884,49.826,-0.254,8.109,-41.717,-7.148,nan,0.597681,1.629846,0.866098,1.105069,1.119185,2.353960,1.399859,1.171592,1.156462,51.572556,-68.793900,100.000000,-17.221345,nan,0.000000,0.000000,0.000000,0.000000,0.000000,0.000000,0.000000,0.000000,0.000000,0.000000,0.000000,0.000000,1.04078477,0.01215202,0.00185357,0.00450413,0.00125613,0.87294691,0.00000000,0.14807202,0.00086800,0.00092679,0.00180165,0.00251225,0.74036010,0.00000000,1.45491152
2.521,3,1,1,-531.884,190.221,49.884,49.826,-0.254,8.109,-41.717,-7.148,nan,0.597681,1.629846,0.866098,1.132951,1.150348,2.353960,1.399859,1.246542,1.244665,51.230424,-68.793900,100.000000,-17.563476,nan,0.000000,0.000000,0.000000,0.000000,0.000000,0.000000,0.000000,0.000000,0.000000,0.000000,0.000000,0.000000,1.09349523,0.01351928,0.00226101,0.00457307,0.00129215,0.91133633,0.00000000,0.16051340,0.00096566,0.00113050,0.00182923,0.00258429,0.80256701,0.00000000,1.51889388
2.600,3,1,1,-531.856,190.278,49.857,48.493,-0.320,7.835,-40.658,-5.901,nan,0.552332,1.769453,0.418472,1.166427,1.175250,2.664286,1.417410,1.335997,1.314142,51.183162,-68.382754,100.000000,-17.199591,nan,0.000000,0.000000,0.000000,0.000000,0.000000,0.000000,0.000000,0.000000,0.000000,0.000000,0.000000,0.000000,1.12704987,0.01457795,0.00260389,0.00458364,0.00131641,0.93529134,0.00000000,0.16867664,0.00104128,0.00130194,0.00183346,0.00263282,0.84338320,0.00000000,1.55881890
2.700,3,1,1,-531.842,190.309,49.843,47.868,-0.355,7.704,-40.165,-7.277,nan,0.597706,1.791919,0.128722,1.197735,1.205156,2.777235,1.275227,1.421976,1.399951,50.941698,-67.850182,100.000000,-16.908483,nan,0.000000,0.000000,0.000000,0.000000,0.000000,0.000000,0.000000,0.000000,0.000000,0.000000,0.000000,0.000000,1.16876262,0.01594984,0.00307466,0.00458491,0.00134122,0.96483049,0.00000000,0.17898150,0.00113927,0.00153733,0.00183396,0.00268245,0.89490750,0.00000000,1.60805082
2.800,3,1,1,-531.829,190.340,49.830,47.150,-0.391,7.555,-39.594,-6.918,nan,0.619810,1.785338,-0.244019,1.225556,1.231729,2.855173,0.624532,1.502592,1.480193,50.737188,-67.574117,100.000000,-16.836929,nan,0.000000,0.000000,0.000000,0.000000,0.000000,0.000000,0.000000,0.000000,0.000000,0.000000,0.000000,0.000000,1.20949814,0.01730692,0.00357049,0.00458944,0.00134715,0.99343617,0.00000000,0.18924797,0.00123621,0.00178524,0.00183577,0.00269431,0.94623986,0.00000000,1.65572695
2.900,3,1,1,-531.816,190.371,49.817,46.423,-0.427,7.405,-39.018,-7.191,nan,0.651680,1.752271,-0.455754,1.249031,1.254255,2.878233,0.007915,1.575115,1.552623,50.564054,-67.184423,100.000000,-16.620370,nan,0.000000,0.000000,0.000000,0.000000,0.000000,0.000000,0.000000,0.000000,0.000000,0.000000,0.000000,0.000000,1.24944419,0.01861686,0.00407539,0.00460526,0.00134715,1.02127139,0.00000000,0.19952815,0.00132978,0.00203769,0.00184210,0.00269431,0.99764074,0.00000000,1.70211898
3.018,3,1,1,-531.816,190.371,49.817,46.423,-0.427,7.405,-39.018,-7.191,nan,0.651680,1.752271,-0.455754,1.270441,1.278419,2.878233,0.007915,1.639587,1.628100,50.297759,-67.184423,100.000000,-16.886664,nan,0.000000,0.000000,0.000000,0.000000,0.000000,0.000000,0.000000,0.000000,0.000000,0.000000,0.000000,0.000000,1.29667461,0.02016533,0.00467222,0.00462397,0.00134716,1.05417514,0.00000000,0.21169080,0.00144038,0.00233611,0.00184959,0.00269431,1.05845402,0.00000000,1.75695856
3.100,3,1,1,-531.790,190.436,49.792,44.949,-0.502,7.100,-37.850,-7.749,nan,3.719890,1.618878,-0.969030,1.284031,1.288971,2.800218,-0.778369,1.692907,1.671308,50.326257,-66.393928,100.000000,-16.067671,nan,0.000000,0.000000,0.000000,0.000000,0.000000,0.000000,0.000000,0.000000,0.000000,0.000000,0.000000,0.000000,1.32781958,0.02107853,0.00506254,0.00468239,0.00135470,1.07556903,0.00000000,0.22007238,0.00150561,0.00253127,0.00187296,0.00270939,1.10036191,0.00000000,1.79261505
3.200,3,1,1,-531.778,190.470,49.780,44.205,-0.541,6.944,-37.260,-6.990,nan,2.410653,1.512810,-0.924345,1.292310,1.296858,2.707186,-0.862338,1.736288,1.714863,50.288039,-66.176556,100.000000,-15.888517,nan,0.000000,0.000000,0.000000,0.000000,0.000000,0.000000,0.000000,0.000000,0.000000,0.000000,0.000000,0.000000,1.36494086,0.02205442,0.00550899,0.00474745,0.00136602,1.10094041,0.00000000,0.23032358,0.00157532,0.00275449,0.00189898,0.00273204,1.15161788,0.00000000,1.83490069
3.300,3,1,1,-531.766,190.504,49.768,43.456,-0.580,6.788,-36.668,-6.818,nan,1.671317,1.381536,-1.381485,1.295284,1.299609,2.575821,-1.456957,1.769598,1.748466,50.299553,-65.855038,100.000000,-15.555485,nan,0.000000,0.000000,0.000000,0.000000,0.000000,0.000000,0.000000,0.000000,0.000000,0.000000,0.000000,0.000000,1.40116007,0.02286855,0.00591329,0.00489282,0.00139836,1.12551944,0.00000000,0.24056761,0.00163347,0.00295664,0.00195713,0.00279672,1.20283804,0.00000000,1.87586573
3.400,3,1,1,-531.754,190.538,49.757,42.704,-0.619,6.630,-36.073,-8.508,nan,1.259056,1.232112,-1.111112,1.293357,1.297601,2.409181,-1.291349,1.793041,1.772288,50.361064,-65.207187,100.000000,-14.846123,nan,0.000000,0.000000,0.000000,0.000000,0.000000,0.000000,0.000000,0.000000,0.000000,0.000000,0.000000,0.000000,1.43628008,0.02351588,0.00626685,0.00498683,0.00142375,1.14930002,0.00000000,0.25078674,0.00167971,0.00313343,0.00199473,0.00284751,1.25393370,0.00000000,1.91550003
3.500,3,1,1,-531.742,190.573,49.745,41.949,-0.660,6.472,-35.477,-6.804,nan,1.038042,1.070643,-1.303399,1.287174,1.291447,2.214017,-1.622617,1.807240,1.786951,50.469820,-65.150898,100.000000,-14.681078,nan,0.000000,0.000000,0.000000,0.000000,0.000000,0.000000,0.000000,0.000000,0.000000,0.000000,0.000000,0.000000,1.47046724,0.02400488,0.00656559,0.00511625,0.00146387,1.17231116,0.00000000,0.26100550,0.00171463,0.00328279,0.00204650,0.00292773,1.30502748,0.00000000,1.95385194
3.620,3,1,1,-531.742,190.573,49.745,41.949,-0.660,6.472,-35.477,-6.804,nan,1.038042,1.070643,-1.303399,1.281328,1.284488,2.214017,-1.622617,1.820501,1.803309,50.484890,-65.150898,100.000000,-14.666008,nan,0.000000,0.000000,0.000000,0.000000,0.000000,0.000000,0.000000,0.000000,0.000000,0.000000,0.000000,0.000000,1.51152279,0.02459213,0.00692434,0.00527166,0.00151204,1.19994573,0.00000000,0.27327688,0.00175658,0.00346217,0.00210867,0.00302408,1.36638441,0.00000000,1.99990954
3.700,3,1,1,-531.717,190.644,49.721,40.435,-0.742,6.153,-34.282,-7.864,nan,1.677850,0.717470,-1.531510,1.268700,1.274588,1.745821,-2.158805,1.818410,1.802046,50.771688,-64.256598,100.000000,-13.484911,nan,0.000000,0.000000,0.000000,0.000000,0.000000,0.000000,0.000000,0.000000,0.000000,0.000000,0.000000,0.000000,1.53730566,0.02476728,0.00707249,0.00541417,0.00156867,1.21708287,0.00000000,0.28140018,0.00176909,0.00353624,0.00216567,0.00313734,1.40700090,0.00000000,2.02847145
3.800,3,1,1,-531.704,190.680,49.709,39.676,-0.784,5.993,-33.683,-8.766,nan,1.286274,0.527267,-1.510211,1.254038,1.260127,1.465617,-2.314991,1.809540,1.793724,50.991399,-63.743963,100.000000,-12.752564,nan,0.000000,0.000000,0.000000,0.000000,0.000000,0.000000,0.000000,0.000000,0.000000,0.000000,0.000000,0.000000,1.56871990,0.02488588,0.00720340,0.00558792,0.00165032,1.23782622,0.00000000,0.29156616,0.00177756,0.00360170,0.00223517,0.00330065,1.45783082,0.00000000,2.06304370
3.900,3,1,1,-531.691,190.716,49.696,38.917,-0.825,5.832,-33.085,-7.047,nan,1.066751,0.334054,-1.362778,1.238194,1.244516,1.155357,-2.272669,1.794996,1.779772,51.235906,-63.688998,100.000000,-12.453092,nan,0.000000,0.000000,0.000000,0.000000,0.000000,0.000000,0.000000,0.000000,0.000000,0.000000,0.000000,0.000000,1.59922286,0.02493346,0.00728470,0.00572931,0.00172897,1.25782773,0.00000000,0.30171869,0.00178096,0.00364235,0.00229173,0.00345794,1.50859347,0.00000000,2.09637954
4.000,3,1,1,-531.678,190.752,49.684,38.159,-0.868,5.671,-32.488,-6.632,nan,0.948555,0.143552,-2.236330,1.222015,1.228572,0.826150,-3.965474,1.776284,1.761665,51.498086,-63.406912,100.000000,-11.908825,nan,0.000000,0.000000,0.000000,0.000000,0.000000,0.000000,0.000000,0.000000,0.000000,0.000000,0.000000,0.000000,1.62932091,0.02494224,0.00732628,0.00611011,0.00196844,1.27711498,0.00000000,0.31185886,0.00178159,0.00366314,0.00244404,0.00393688,1.55929431,0.00000000,2.12852497
4.100,3,1,1,-531.664,190.789,49.670,37.401,-0.910,5.510,-31.891,-6.517,nan,0.886313,-0.041357,-1.508593,1.206265,1.213032,0.492119,-2.760403,1.755133,1.741108,51.770104,-63.072860,100.000000,-11.302756,nan,0.000000,0.000000,0.000000,0.000000,0.000000,0.000000,0.000000,0.000000,0.000000,0.000000,0.000000,0.000000,1.65835087,0.02494297,0.00734103,0.00628348,0.00208453,1.29570910,0.00000000,0.32198975,0.00178164,0.00367052,0.00251339,0.00416906,1.60994875,0.00000000,2.15951517
4.226,3,1,1,-531.664,190.789,49.670,37.401,-0.910,5.510,-31.891,-6.517,nan,0.886313,-0.041357,-1.508593,1.184381,1.194347,0.492119,-2.760403,1.752888,1.716418,51.906929,-63.072860,100.000000,-11.165930,nan,0.000000,0.000000,0.000000,0.000000,0.000000,0.000000,0.000000,0.000000,0.000000,0.000000,0.000000,0.000000,1.69476538,0.02494389,0.00735955,0.00650098,0.00223017,1.31903561,0.00000000,0.33469519,0.00178171,0.00367977,0.00260039,0.00446034,1.67347595,0.00000000,2.19839268
4.300,3,1,1,-531.634,190.864,49.641,35.889,-0.997,5.188,-30.701,-7.405,nan,3.414797,-0.389597,-2.212186,1.171104,1.184787,-0.160653,-4.288582,1.731025,1.701172,52.325444,-62.211957,100.000000,-9.886513,nan,0.000000,0.000000,0.000000,0.000000,0.000000,0.000000,0.000000,0.000000,0.000000,0.000000,0.000000,0.000000,1.71565588,0.02499211,0.00736072,0.00677859,0.00243884,1.33186853,0.00000000,0.34221709,0.00178515,0.00368036,0.00271144,0.00487768,1.71108546,0.00000000,2.21978089
4.400,3,1,1,-531.617,190.901,49.625,35.135,-1.041,5.026,-30.109,-6.961,nan,2.288536,-0.548468,-1.891429,1.159901,1.173848,-0.478189,-3.904745,1.711415,1.682745,52.585854,-61.937766,100.000000,-9.351912,nan,0.000000,0.000000,0.000000,0.000000,0.000000,0.000000,0.000000,0.000000,0.000000,0.000000,0.000000,0.000000,1.74296159,0.02512041,0.00737465,0.00705106,0.00267109,1.34843889,0.00000000,0.35230550,0.00179431,0.00368733,0.00282042,0.00534217,1.76152749,0.00000000,2.24739816
4.500,3,1,1,-531.599,190.939,49.608,34.383,-1.085,4.865,-29.518,-7.935,nan,1.659647,-0.692530,-2.503836,1.134812,1.165069,-0.788225,-5.596090,1.728751,1.667666,52.829269,-61.417163,100.000000,-8.587894,nan,0.000000,0.000000,0.000000,0.000000,0.000000,0.000000,0.000000,0.000000,0.000000,0.000000,0.000000,0.000000,1.77015462,0.02532492,0.00741250,0.00752844,0.00314802,1.36436240,0.00000000,0.36237835,0.00180892,0.00370625,0.00301138,0.00629603,1.81189176,0.00000000,2.27393733
4.600,3,1,1,-531.581,190.978,49.590,33.633,-1.130,4.704,-28.929,-7.363,nan,1.312180,-0.819868,-1.865492,1.128177,1.158480,-1.084087,-4.482534,1.715911,1.656872,53.098111,-61.167720,100.000000,-8.069609,nan,0.000000,0.000000,0.000000,0.000000,0.000000,0.000000,0.000000,0.000000,0.000000,0.000000,0.000000,0.000000,1.79644416,0.02561157,0.00748410,0.00779346,0.00345404,1.37965782,0.00000000,0.37244317,0.00182940,0.00374205,0.00311738,0.00690809,1.86221587,0.00000000,2.29942970
4.700,3,1,1,-531.561,191.016,49.571,32.885,-1.174,4.543,-28.342,-7.864,nan,1.116011,-0.930114,-2.194323,1.108673,1.153971,-1.357436,-5.592291,1.735338,1.650908,53.300314,-60.732021,100.000000,-7.431706,nan,0.000000,0.000000,0.000000,0.000000,0.000000,0.000000,0.000000,0.000000,0.000000,0.000000,0.000000,0.000000,1.82250385,0.02598049,0.00759635,0.00816012,0.00393034,1.39433869,0.00000000,0.38249786,0.00185575,0.00379818,0.00326405,0.00786069,1.91248928,0.00000000,2.32389781
4.821,3,1,1,-531.561,191.016,49.571,32.885,-1.174,4.543,-28.342,-7.864,nan,1.116011,-0.930114,-2.194323,1.099284,1.148765,-1.357436,-5.592291,1.741629,1.644022,53.392741,-60.732021,100.000000,-7.339280,nan,0.000000,0.000000,0.000000,0.000000,0.000000,0.000000,0.000000,0.000000,0.000000,0.000000,0.000000,0.000000,1.85394949,0.02642568,0.00773181,0.00860260,0.00450511,1.41205468,0.00000000,0.39462960,0.00188755,0.00386591,0.00344104,0.00901023,1.97314799,0.00000000,2.35342447
4.900,3,1,1,-531.517,191.093,49.529,31.397,-1.265,4.222,-27.175,-7.277,nan,1.989105,-1.098462,-1.187570,1.099264,1.147947,-1.813805,-3.501740,1.743425,1.646987,53.715205,-60.141900,100.000000,-6.426696,nan,0.000000,0.000000,0.000000,0.000000,0.000000,0.000000,0.000000,0.000000,0.000000,0.000000,0.000000,0.000000,1.87342883,0.02683402,0.00789086,0.00868782,0.00465332,1.42276518,0.00000000,0.40259764,0.00191672,0.00394543,0.00347513,0.00930663,2.01298819,0.00000000,2.37127531
5.000,3,1,1,-531.493,191.132,49.506,30.656,-1.311,4.061,-26.595,-7.534,nan,1.519743,-1.154802,-0.755723,1.095255,1.148088,-1.990315,-2.545621,1.764240,1.654742,53.847746,-59.752384,100.000000,-5.904638,nan,0.000000,0.000000,0.000000,0.000000,0.000000,0.000000,0.000000,0.000000,0.000000,0.000000,0.000000,0.000000,1.89733128,0.02740246,0.00813208,0.00873129,0.00475197,1.43568578,0.00000000,0.41262769,0.00195732,0.00406604,0.00349252,0.00950393,2.06313847,0.00000000,2.39280964
5.100,3,1,1,-531.468,191.172,49.482,29.917,-1.357,3.901,-26.016,-6.431,nan,1.261127,-1.191689,-0.403949,1.100123,1.148980,-2.127893,-1.710646,1.793221,1.665578,53.971977,-59.601626,100.000000,-5.629649,nan,0.000000,0.000000,0.000000,0.000000,0.000000,0.000000,0.000000,0.000000,0.000000,0.000000,0.000000,0.000000,1.92067357,0.02800813,0.00840796,0.00874372,0.00479654,1.44805717,0.00000000,0.42266004,0.00200058,0.00420398,0.00349749,0.00959308,2.11330021,0.00000000,2.41342862
5.200,3,1,1,-531.441,191.211,49.456,29.181,-1.403,3.741,-25.440,-6.890,nan,1.125879,-1.209825,-0.153568,1.108963,1.150211,-2.222709,-1.150640,1.825562,1.678344,54.022772,-59.179579,100.000000,-5.156807,nan,0.000000,0.000000,0.000000,0.000000,0.000000,0.000000,0.000000,0.000000,0.000000,0.000000,0.000000,0.000000,1.94347640,0.02863235,0.00870896,0.00874552,0.00481671,1.45988598,0.00000000,0.43268689,0.00204517,0.00435448,0.00349821,0.00963341,2.16343446,0.00000000,2.43314330
5.300,3,1,1,-531.413,191.250,49.429,28.505,-1.450,3.591,-24.914,-6.489,nan,1.039959,-1.211417,0.046644,1.120544,1.151424,-2.270406,-0.326287,1.859297,1.691752,54.029281,-58.937658,100.000000,-4.908377,nan,0.000000,0.000000,0.000000,0.000000,0.000000,0.000000,0.000000,0.000000,0.000000,0.000000,0.000000,0.000000,1.96579146,0.02925833,0.00902307,0.00874568,0.00481833,1.47123303,0.00000000,0.44271302,0.00208988,0.00451153,0.00349827,0.00963665,2.21356509,0.00000000,2.45205505
5.422,3,1,1,-531.413,191.250,49.429,28.505,-1.450,3.591,-24.914,-6.489,nan,1.039959,-1.211417,0.046644,1.146233,1.152841,-2.270406,-0.326287,1.916217,1.707289,53.892883,-58.937658,100.000000,-5.044774,nan,0.000000,0.000000,0.000000,0.000000,0.000000,0.000000,0.000000,0.000000,0.000000,0.000000,0.000000,0.000000,1.99301443,0.03002194,0.00940623,0.00874589,0.00482031,1.48507488,0.00000000,0.45494518,0.00214442,0.00470312,0.00349835,0.00964061,2.27472590,0.00000000,2.47512481
5.500,3,1,1,-531.352,191.330,49.370,27.129,-1.543,3.286,-23.843,-5.930,nan,1.232411,-1.173037,0.254443,1.146895,1.153137,-2.252642,0.354321,1.925122,1.716449,53.870141,-58.399628,100.000000,-4.529487,nan,0.000000,0.000000,0.000000,0.000000,0.000000,0.000000,0.000000,0.000000,0.000000,0.000000,0.000000,0.000000,2.00965030,0.03047997,0.00964753,0.00874973,0.00482180,1.49318483,0.00000000,0.46276644,0.00217714,0.00482377,0.00349989,0.00964360,2.31383219,0.00000000,2.48864138
5.600,3,1,1,-531.320,191.369,49.339,26.400,-1.590,3.127,-23.273,-7.663,nan,1.131474,-1.131385,0.343895,1.160425,1.152744,-2.182679,0.637956,1.954511,1.726096,53.981382,-57.758954,100.000000,-3.777573,nan,0.000000,0.000000,0.000000,0.000000,0.000000,0.000000,0.000000,0.000000,0.000000,0.000000,0.000000,0.000000,2.03042027,0.03102598,0.00993784,0.00875874,0.00482800,1.50308672,0.00000000,0.47278299,0.00221614,0.00496892,0.00350350,0.00965600,2.36391494,0.00000000,2.50514453
5.700,3,1,1,-531.286,191.409,49.306,25.672,-1.637,2.967,-22.705,-7.148,nan,1.080826,-1.076811,0.400462,1.171948,1.151427,-2.071004,0.872011,1.979399,1.732882,53.970326,-57.511707,100.000000,-3.541381,nan,0.000000,0.000000,0.000000,0.000000,0.000000,0.000000,0.000000,0.000000,0.000000,0.000000,0.000000,0.000000,2.05061646,0.03152003,0.01019892,0.00877094,0.00483957,1.51250039,0.00000000,0.48278661,0.00225143,0.00509946,0.00350838,0.00967914,2.41393306,0.00000000,2.52083398
5.800,3,1,1,-531.250,191.448,49.272,24.947,-1.685,2.809,-22.138,-7.993,nan,1.068763,-1.010924,0.474596,1.180348,1.149099,-1.917243,1.164569,1.998381,1.736301,53.979758,-57.027930,100.000000,-3.048172,nan,0.000000,0.000000,0.000000,0.000000,0.000000,0.000000,0.000000,0.000000,0.000000,0.000000,0.000000,0.000000,2.07028312,0.03195591,0.01042288,0.00878810,0.00486023,1.52145899,0.00000000,0.49279700,0.00228257,0.00521144,0.00351524,0.00972046,2.46398502,0.00000000,2.53576499
5.923,3,1,1,-531.250,191.448,49.272,24.947,-1.685,2.809,-22.138,-7.993,nan,1.068763,-1.010924,0.474596,1.186236,1.146347,-1.917243,1.164569,2.014263,1.740326,53.890104,-57.027930,100.000000,-3.137826,nan,0.000000,0.000000,0.000000,0.000000,0.000000,0.000000,0.000000,0.000000,0.000000,0.000000,0.000000,0.000000,2.09441916,0.03249084,0.01069774,0.00880915,0.00488558,1.53245319,0.00000000,0.50508266,0.00232077,0.00534887,0.00352366,0.00977116,2.52541328,0.00000000,2.55408865
6.000,3,1,1,-531.194,191.508,49.217,23.559,-1.756,2.519,-21.040,-7.076,nan,1.144941,-0.860746,0.845166,1.189216,1.143050,-1.510460,2.447517,2.021627,1.737497,54.074199,-56.536220,100.000000,-2.462021,nan,0.000000,0.000000,0.000000,0.000000,0.000000,0.000000,0.000000,0.000000,0.000000,0.000000,0.000000,0.000000,2.10888217,0.03273524,0.01080526,0.00885123,0.00495616,1.53871171,0.00000000,0.51282257,0.00233823,0.00540263,0.00354049,0.00991231,2.56411284,0.00000000,2.56451952
6.100,3,1,1,-531.155,191.548,49.179,22.838,-1.804,2.360,-20.478,-6.904,nan,1.109476,-0.773749,0.946083,1.183164,1.137856,-1.248551,2.916750,2.015021,1.730452,54.169840,-56.232553,100.000000,-2.062713,nan,0.000000,0.000000,0.000000,0.000000,0.000000,0.000000,0.000000,0.000000,0.000000,0.000000,0.000000,0.000000,2.12709649,0.03299053,0.01090022,0.00891938,0.00508572,1.54637505,0.00000000,0.52282559,0.00235647,0.00545011,0.00356775,0.01017143,2.61412795,0.00000000,2.57729175
6.200,3,1,1,-531.114,191.587,49.140,22.119,-1.851,2.202,-19.917,-6.260,nan,1.117916,-0.682518,0.992094,1.164235,1.131847,-0.958896,3.212098,1.997283,1.720558,54.350516,-56.012272,100.000000,-1.661755,nan,0.000000,0.000000,0.000000,0.000000,0.000000,0.000000,0.000000,0.000000,0.000000,0.000000,0.000000,0.000000,2.14482924,0.03318911,0.01095622,0.00899431,0.00524280,1.55362243,0.00000000,0.53282437,0.00237065,0.00547811,0.00359772,0.01048560,2.66412184,0.00000000,2.58937072
6.300,3,1,1,-531.073,191.626,49.099,21.403,-1.898,2.045,-19.358,-6.317,nan,1.126960,-0.588529,0.759267,1.153617,1.125144,-0.645713,2.582242,1.975351,1.708553,54.637486,-55.670354,100.000000,-1.032868,nan,0.000000,0.000000,0.000000,0.000000,0.000000,0.000000,0.000000,0.000000,0.000000,0.000000,0.000000,0.000000,2.16198809,0.03333674,0.01098160,0.00903819,0.00534430,1.56046740,0.00000000,0.54281986,0.00238120,0.00549080,0.00361527,0.01068860,2.71409930,0.00000000,2.60077900
6.400,3,1,1,-531.030,191.665,49.058,20.688,-1.945,1.888,-18.800,-7.477,nan,1.137789,-0.493977,0.968188,1.131469,1.117878,-0.313163,3.480457,1.945878,1.695335,54.876923,-55.136838,100.000000,-0.259915,nan,0.000000,0.000000,0.000000,0.000000,0.000000,0.000000,0.000000,0.000000,0.000000,0.000000,0.000000,0.000000,2.17882654,0.03344088,0.01098758,0.00910963,0.00552894,1.56693204,0.00000000,0.55282747,0.00238863,0.00549379,0.00364385,0.01105788,2.76413733,0.00000000,2.61155340
6.522,3,1,1,-531.030,191.665,49.058,20.688,-1.945,1.888,-18.800,-7.477,nan,1.137789,-0.493977,0.968188,1.088810,1.109296,-0.313163,3.480457,1.899078,1.679703,55.079531,-55.136838,100.000000,-0.057307,nan,0.000000,0.000000,0.000000,0.000000,0.000000,0.000000,0.000000,0.000000,0.000000,0.000000,0.000000,0.000000,2.19928059,0.03356738,0.01099485,0.00919641,0.00575323,1.57478482,0.00000000,0.56498390,0.00239767,0.00549742,0.00367856,0.01150645,2.82491949,0.00000000,2.62464137
6.600,3,1,1,-530.940,191.741,48.971,19.264,-2.037,1.575,-17.689,-6.775,nan,1.131049,-0.309781,0.747496,1.053391,1.103067,0.389612,2.968229,1.852790,1.670023,55.710594,-54.600290,100.000000,1.110304,nan,0.000000,0.000000,0.000000,0.000000,0.000000,0.000000,0.000000,0.000000,0.000000,0.000000,0.000000,0.000000,2.21182346,0.03359957,0.01100212,0.00922987,0.00585877,1.57928305,0.00000000,0.57285007,0.00239997,0.00550106,0.00369195,0.01171754,2.86425037,0.00000000,2.63213841
6.700,3,1,1,-530.894,191.779,48.927,18.641,-2.083,1.433,-17.207,-7.463,nan,1.153215,-0.233683,0.818015,1.041105,1.095038,0.705355,3.413308,1.833368,1.659571,56.148798,-54.194155,100.000000,1.954643,nan,0.000000,0.000000,0.000000,0.000000,0.000000,0.000000,0.000000,0.000000,0.000000,0.000000,0.000000,0.000000,2.22749813,0.03362283,0.01103239,0.00928076,0.00603596,1.58468682,0.00000000,0.58283938,0.00240163,0.00551619,0.00371230,0.01207192,2.91419689,0.00000000,2.64114470
6.800,3,1,1,-530.847,191.816,48.881,17.935,-2.129,1.278,-16.656,-5.701,nan,1.146691,-0.149200,0.763256,0.975497,1.086963,1.062204,3.242928,1.754096,1.652220,56.397508,-54.174774,100.000000,2.222735,nan,0.000000,0.000000,0.000000,0.000000,0.000000,0.000000,0.000000,0.000000,0.000000,0.000000,0.000000,0.000000,2.24284648,0.03363231,0.01110108,0.00932509,0.00619603,1.58975421,0.00000000,0.59283775,0.00240231,0.00555054,0.00373004,0.01239207,2.96418874,0.00000000,2.64959036
6.900,3,1,1,-530.800,191.853,48.835,17.232,-2.174,1.124,-16.108,-6.116,nan,1.169346,-0.068241,0.727252,0.963586,1.078943,1.412301,3.206908,1.746555,1.648933,57.123149,-53.776611,100.000000,3.346538,nan,0.000000,0.000000,0.000000,0.000000,0.000000,0.000000,0.000000,0.000000,0.000000,0.000000,0.000000,0.000000,2.25792036,0.03363430,0.01122260,0.00936537,0.00635267,1.59449638,0.00000000,0.60284904,0.00240245,0.00561130,0.00374615,0.01270535,3.01424519,0.00000000,2.65749396
7.026,3,1,1,-530.800,191.853,48.835,17.232,-2.174,1.124,-16.108,-6.116,nan,1.169346,-0.068241,0.727252,0.893478,1.069082,1.412301,3.206908,1.662038,1.644915,57.218817,-53.776611,100.000000,3.442206,nan,0.000000,0.000000,0.000000,0.000000,0.000000,0.000000,0.000000,0.000000,0.000000,0.000000,0.000000,0.000000,2.27692522,0.03363680,0.01137580,0.00941615,0.00655015,1.60047495,0.00000000,0.61547136,0.00240263,0.00568790,0.00376646,0.01310031,3.07735680,0.00000000,2.66745825
7.100,3,1,1,-530.703,191.925,48.741,15.834,-2.263,0.818,-15.017,-7.549,nan,1.196639,0.071029,0.571495,0.856102,1.063426,2.071793,2.862717,1.635129,1.650019,58.121192,-52.879070,100.000000,5.242122,nan,0.000000,0.000000,0.000000,0.000000,0.000000,0.000000,0.000000,0.000000,0.000000,0.000000,0.000000,0.000000,2.28769023,0.03363839,0.01156912,0.00943454,0.00664242,1.60352169,0.00000000,0.62288406,0.00240274,0.00578456,0.00377382,0.01328485,3.11442031,0.00000000,2.67253615
7.200,3,1,1,-530.654,191.960,48.693,15.140,-2.307,0.666,-14.474,-6.689,nan,1.177261,0.129315,0.519173,0.822261,1.055996,2.370417,2.659751,1.622004,1.662378,58.561196,-52.707304,100.000000,5.853892,nan,0.000000,0.000000,0.000000,0.000000,0.000000,0.000000,0.000000,0.000000,0.000000,0.000000,0.000000,0.000000,2.30203184,0.03364552,0.01191145,0.00945507,0.00675018,1.60735103,0.00000000,0.63291860,0.00240325,0.00595572,0.00378203,0.01350035,3.16459302,0.00000000,2.67891838
7.300,3,1,1,-530.605,191.995,48.646,14.450,-2.350,0.515,-13.935,-7.463,nan,1.202035,0.182937,0.323204,0.812674,1.048835,2.641692,1.607881,1.654369,1.679950,58.951131,-52.252149,100.000000,6.698981,nan,0.000000,0.000000,0.000000,0.000000,0.000000,0.000000,0.000000,0.000000,0.000000,0.000000,0.000000,0.000000,2.31610876,0.03365979,0.01233649,0.00946302,0.00678954,1.61089920,0.00000000,0.64296072,0.00240427,0.00616824,0.00378521,0.01357908,3.21480359,0.00000000,2.68483200
7.400,3,1,1,-530.555,192.029,48.598,13.763,-2.393,0.364,-13.398,-7.363,nan,1.175822,0.231691,0.265686,0.784345,1.041955,2.882185,1.301169,1.666650,1.702243,59.084753,-51.951104,100.000000,7.133649,nan,0.000000,0.000000,0.000000,0.000000,0.000000,0.000000,0.000000,0.000000,0.000000,0.000000,0.000000,0.000000,2.33000207,0.03368269,0.01284262,0.00946840,0.00681533,1.61418052,0.00000000,0.65301251,0.00240591,0.00642131,0.00378736,0.01363066,3.26506254,0.00000000,2.69030087
7.500,3,1,1,-530.506,192.062,48.550,13.080,-2.434,0.215,-12.864,-6.804,nan,1.185813,0.273644,0.221798,0.761575,1.035357,3.089195,1.103517,1.693787,1.728510,59.387021,-51.731667,100.000000,7.655354,nan,0.000000,0.000000,0.000000,0.000000,0.000000,0.000000,0.000000,0.000000,0.000000,0.000000,0.000000,0.000000,2.34372178,0.03371462,0.01342405,0.00947214,0.00683388,1.61720541,0.00000000,0.66307166,0.00240819,0.00671203,0.00378886,0.01366776,3.31535832,0.00000000,2.69534236
7.622,3,1,1,-530.506,192.062,48.550,13.080,-2.434,0.215,-12.864,-6.804,nan,1.185813,0.273644,0.221798,0.734203,1.027528,3.089195,1.103517,1.712928,1.758955,59.491924,-51.731667,100.000000,7.760257,nan,0.000000,0.000000,0.000000,0.000000,0.000000,0.000000,0.000000,0.000000,0.000000,0.000000,0.000000,0.000000,2.36038077,0.03375340,0.01412997,0.00947669,0.00685640,1.62087792,0.00000000,0.67528640,0.00241096,0.00706498,0.00379068,0.01371279,3.37643201,0.00000000,2.70146320
7.700,3,1,1,-530.407,192.127,48.454,11.724,-2.516,-0.080,-11.804,-5.200,nan,1.078541,0.335588,0.150011,0.727324,1.022758,3.393051,0.666317,1.773625,1.783600,59.903077,-51.382317,100.000000,8.520760,nan,0.000000,0.000000,0.000000,0.000000,0.000000,0.000000,0.000000,0.000000,0.000000,0.000000,0.000000,0.000000,2.37088916,0.03379113,0.01468095,0.00947804,0.00686171,1.62287846,0.00000000,0.68319888,0.00241365,0.00734047,0.00379121,0.01372342,3.41599439,0.00000000,2.70479743
7.800,3,1,1,-530.359,192.159,48.407,11.051,-2.556,-0.226,-11.278,-6.818,nan,1.117779,0.359386,0.130678,0.724762,1.016900,3.485397,0.425027,1.842755,1.816060,59.959272,-50.787216,100.000000,9.172056,nan,0.000000,0.000000,0.000000,0.000000,0.000000,0.000000,0.000000,0.000000,0.000000,0.000000,0.000000,0.000000,2.38409850,0.03384621,0.01542113,0.00947934,0.00686446,1.62520326,0.00000000,0.69328411,0.00241759,0.00771056,0.00379174,0.01372892,3.46642053,0.00000000,2.70867209
7.900,3,1,1,-530.310,192.190,48.360,10.382,-2.595,-0.372,-10.753,-7.420,nan,1.122061,0.380224,0.117265,0.725330,1.011259,3.535813,0.185802,1.917009,1.848365,59.967532,-50.371036,100.000000,9.596496,nan,0.000000,0.000000,0.000000,0.000000,0.000000,0.000000,0.000000,0.000000,0.000000,0.000000,0.000000,0.000000,2.39712869,0.03390787,0.01618278,0.00948038,0.00686499,1.62731669,0.00000000,0.70337599,0.00242199,0.00809139,0.00379215,0.01372997,3.51687994,0.00000000,2.71219448
8.000,3,1,1,-530.262,192.220,48.313,9.715,-2.634,-0.516,-10.232,-5.558,nan,1.147598,0.397427,0.093838,0.727693,1.005816,3.543858,-0.069754,1.992946,1.879501,59.942594,-50.386272,100.000000,9.556323,nan,0.000000,0.000000,0.000000,0.000000,0.000000,0.000000,0.000000,0.000000,0.000000,0.000000,0.000000,0.000000,2.40996368,0.03397521,0.01694774,0.00948106,0.00686506,1.62922961,0.00000000,0.71346501,0.00242680,0.00847387,0.00379242,0.01373012,3.56732505,0.00000000,2.71538268
8.100,3,1,1,-530.214,192.250,48.267,9.052,-2.672,-0.660,-9.712,-6.790,nan,1.137226,0.410311,0.101778,0.721615,1.000547,3.510073,-0.519376,2.043395,1.908587,59.900648,-49.862802,100.000000,10.037846,nan,0.000000,0.000000,0.000000,0.000000,0.000000,0.000000,0.000000,0.000000,0.000000,0.000000,0.000000,0.000000,2.42261397,0.03404700,0.01769825,0.00948184,0.00686917,1.63095335,0.00000000,0.72356437,0.00243193,0.00884912,0.00379274,0.01373834,3.61782185,0.00000000,2.71825558
8.229,3,1,1,-530.214,192.250,48.267,9.052,-2.672,-0.660,-9.712,-6.790,nan,1.137226,0.410311,0.101778,0.733396,0.993896,3.510073,-0.519376,2.139101,1.944462,59.842178,-49.862802,100.000000,9.979376,nan,0.000000,0.000000,0.000000,0.000000,0.000000,0.000000,0.000000,0.000000,0.000000,0.000000,0.000000,0.000000,2.43894426,0.03413968,0.01866717,0.00948286,0.00687447,1.63317873,0.00000000,0.73660135,0.00243855,0.00933359,0.00379314,0.01374894,3.68300673,0.00000000,2.72196455
8.300,3,1,1,-530.120,192.308,48.175,7.735,-2.746,-0.944,-8.679,-5.773,nan,1.098925,0.427047,0.154637,0.733917,0.990371,3.322107,-2.366989,2.202503,1.960594,59.818125,-49.426806,100.000000,10.391319,nan,0.000000,0.000000,0.000000,0.000000,0.000000,0.000000,0.000000,0.000000,0.000000,0.000000,0.000000,0.000000,2.44769046,0.03419488,0.01914443,0.00948415,0.00693504,1.63415592,0.00000000,0.74377604,0.00244249,0.00957221,0.00379366,0.01387008,3.71888019,0.00000000,2.72359319
8.400,3,1,1,-530.073,192.336,48.130,7.079,-2.782,-1.086,-8.165,-6.217,nan,1.092851,0.434129,0.073806,0.728075,0.985528,3.171595,-1.893875,2.231153,1.979646,59.810983,-49.044037,100.000000,10.766946,nan,0.000000,0.000000,0.000000,0.000000,0.000000,0.000000,0.000000,0.000000,0.000000,0.000000,0.000000,0.000000,2.45976654,0.03427521,0.01975692,0.00948457,0.00698964,1.63537371,0.00000000,0.75388648,0.00244823,0.00987846,0.00379383,0.01397928,3.76943242,0.00000000,2.72562284
8.500,3,1,1,-530.026,192.363,48.085,6.427,-2.817,-1.226,-7.653,-7.434,nan,1.085434,0.440795,0.143317,0.726289,0.980811,2.986420,-3.349804,2.278156,1.994664,59.917076,-48.527318,100.000000,11.389759,nan,0.000000,0.000000,0.000000,0.000000,0.000000,0.000000,0.000000,0.000000,0.000000,0.000000,0.000000,0.000000,2.47176254,0.03435805,0.02030016,0.00948613,0.00716051,1.63644383,0.00000000,0.76401386,0.00245415,0.01015008,0.00379445,0.01432102,3.82006928,0.00000000,2.72740638
8.600,3,1,1,-529.980,192.390,48.040,5.777,-2.852,-1.366,-7.142,-6.116,nan,1.071742,0.445637,0.099200,0.718925,0.976206,2.769284,-4.670092,2.338067,2.005554,59.957305,-48.454114,100.000000,11.503191,nan,0.000000,0.000000,0.000000,0.000000,0.000000,0.000000,0.000000,0.000000,0.000000,0.000000,0.000000,0.000000,2.48371708,0.03444278,0.02076757,0.00948688,0.00749283,1.63737657,0.00000000,0.77415044,0.00246020,0.01038379,0.00379475,0.01498566,3.87075222,0.00000000,2.72896095
8.720,3,1,1,-529.980,192.390,48.040,5.777,-2.852,-1.366,-7.142,-6.116,nan,1.071742,0.445637,0.099200,0.707241,0.970781,2.769284,-4.670092,2.369011,2.018243,59.887642,-48.454114,100.000000,11.433529,nan,0.000000,0.000000,0.000000,0.000000,0.000000,0.000000,0.000000,0.000000,0.000000,0.000000,0.000000,0.000000,2.49809625,0.03454471,0.02132986,0.00948779,0.00789261,1.63849864,0.00000000,0.78634265,0.00246748,0.01066493,0.00379511,0.01578522,3.93171323,0.00000000,2.73083107
8.800,3,1,1,-529.888,192.443,47.950,4.613,-2.920,-1.621,-6.233,-6.016,nan,2.331184,0.452625,0.060017,0.702131,0.967284,2.308345,-2.752613,2.367550,2.021098,60.124183,-47.931401,100.000000,12.192782,nan,0.000000,0.000000,0.000000,0.000000,0.000000,0.000000,0.000000,0.000000,0.000000,0.000000,0.000000,0.000000,2.50717151,0.03461434,0.02158860,0.00948800,0.00798459,1.63906459,0.00000000,0.79443138,0.00247245,0.01079430,0.00379520,0.01596917,3.97215692,0.00000000,2.73177431
8.900,3,1,1,-529.842,192.468,47.906,3.969,-2.954,-1.758,-5.727,-5.858,nan,1.758487,0.456685,0.036769,0.677298,0.962992,2.020046,-2.748631,2.391469,2.021086,60.284149,-47.658075,100.000000,12.626075,nan,0.000000,0.000000,0.000000,0.000000,0.000000,0.000000,0.000000,0.000000,0.000000,0.000000,0.000000,0.000000,2.51838320,0.03470329,0.02183721,0.00948811,0.00809966,1.63966402,0.00000000,0.80459093,0.00247881,0.01091860,0.00379524,0.01619931,4.02295463,0.00000000,2.73277336
9.000,3,1,1,-529.796,192.494,47.861,3.327,-2.986,-1.895,-5.222,-6.446,nan,1.439673,0.461428,0.070351,0.656290,0.958800,1.713937,-3.037633,2.386112,2.017884,60.530001,-47.255718,100.000000,13.274283,nan,0.000000,0.000000,0.000000,0.000000,0.000000,0.000000,0.000000,0.000000,0.000000,0.000000,0.000000,0.000000,2.52947533,0.03479415,0.02201628,0.00948848,0.00824028,1.64016279,0.00000000,0.81477335,0.00248530,0.01100814,0.00379539,0.01648056,4.07386675,0.00000000,2.73360465
9.100,3,1,1,-529.750,192.518,47.816,2.688,-3.019,-2.032,-4.720,-6.875,nan,1.269571,0.465523,0.044222,0.632954,0.954712,1.394636,-3.201232,2.372543,2.012007,60.809007,-46.881801,100.000000,13.927206,nan,0.000000,0.000000,0.000000,0.000000,0.000000,0.000000,0.000000,0.000000,0.000000,0.000000,0.000000,0.000000,2.54043735,0.03488651,0.02213471,0.00948863,0.00839628,1.64056967,0.00000000,0.82496155,0.00249189,0.01106736,0.00379545,0.01679256,4.12480775,0.00000000,2.73428278
9.222,3,1,1,-529.750,192.518,47.816,2.688,-3.019,-2.032,-4.720,-6.875,nan,1.269571,0.465523,0.044222,0.607830,0.949823,1.394636,-3.201232,2.356708,2.004990,61.000482,-46.881801,100.000000,14.118681,nan,0.000000,0.000000,0.000000,0.000000,0.000000,0.000000,0.000000,0.000000,0.000000,0.000000,0.000000,0.000000,2.55381471,0.03499918,0.02227917,0.00948881,0.00858655,1.64106595,0.00000000,0.83739505,0.00249994,0.01113958,0.00379553,0.01717310,4.18697527,0.00000000,2.73510992
9.300,3,1,1,-529.656,192.566,47.725,1.417,-3.082,-2.302,-3.719,-7.019,nan,1.547844,0.471576,0.013888,0.604872,0.946776,0.735621,-2.092234,2.330624,1.997601,61.451855,-46.261957,100.000000,15.189898,nan,0.000000,0.000000,0.000000,0.000000,0.000000,0.000000,0.000000,0.000000,0.000000,0.000000,0.000000,0.000000,2.56214403,0.03507316,0.02230488,0.00948883,0.00863856,1.64126318,0.00000000,0.84537543,0.00250523,0.01115244,0.00379553,0.01727712,4.22687714,0.00000000,2.73543863
9.400,3,1,1,-529.609,192.589,47.679,0.785,-3.113,-2.437,-3.222,-6.589,nan,1.333333,0.473207,0.021156,0.579256,0.942939,0.405336,-2.005295,2.304363,1.987248,61.647541,-46.040988,100.000000,15.606553,nan,0.000000,0.000000,0.000000,0.000000,0.000000,0.000000,0.000000,0.000000,0.000000,0.000000,0.000000,0.000000,2.57274511,0.03516866,0.02231489,0.00948886,0.00869981,1.64145294,0.00000000,0.85561995,0.00251205,0.01115745,0.00379554,0.01739962,4.27809976,0.00000000,2.73575490
9.500,3,1,1,-529.561,192.612,47.632,0.156,-3.143,-2.571,-2.727,-7.062,nan,1.217602,0.473938,-0.000796,0.552470,0.939174,0.080452,-2.088132,2.276954,1.976642,62.003908,-45.663627,100.000000,16.340282,nan,0.000000,0.000000,0.000000,0.000000,0.000000,0.000000,0.000000,0.000000,0.000000,0.000000,0.000000,0.000000,2.58330689,0.03526442,0.02231529,0.00948886,0.00876620,1.64158877,0.00000000,0.86588335,0.00251889,0.01115764,0.00379554,0.01753240,4.32941676,0.00000000,2.73598129
9.600,3,1,1,-529.512,192.634,47.585,-0.470,-3.173,-2.704,-2.233,-6.102,nan,1.150578,0.473175,0.004301,0.526424,0.935468,-0.234632,-2.031945,2.249911,1.966330,62.371705,-45.537457,100.000000,16.834248,nan,0.000000,0.000000,0.000000,0.000000,0.000000,0.000000,0.000000,0.000000,0.000000,0.000000,0.000000,0.000000,2.59384360,0.03535991,0.02231864,0.00948886,0.00882909,1.64167995,0.00000000,0.87616716,0.00252571,0.01115932,0.00379554,0.01765817,4.38083579,0.00000000,2.73613325
9.700,3,1,1,-529.463,192.656,47.537,-1.093,-3.202,-2.836,-1.742,-5.973,nan,1.119935,0.469370,-0.030977,0.478089,0.931805,-0.535654,-1.981636,2.229236,1.956797,62.734232,-45.267444,100.000000,17.466788,nan,0.000000,0.000000,0.000000,0.000000,0.000000,0.000000,0.000000,0.000000,0.000000,0.000000,0.000000,0.000000,2.60437926,0.03545389,0.02233613,0.00948893,0.00888892,1.64173546,0.00000000,0.88647592,0.00253242,0.01116806,0.00379557,0.01777784,4.43237962,0.00000000,2.73622577
9.823,3,1,1,-529.463,192.656,47.537,-1.093,-3.202,-2.836,-1.742,-5.973,nan,1.119935,0.469370,-0.030977,0.456649,0.927403,-0.535654,-1.981636,2.210152,1.945334,63.122371,-45.267444,100.000000,17.854928,nan,0.000000,0.000000,0.000000,0.000000,0.000000,0.000000,0.000000,0.000000,0.000000,0.000000,0.000000,0.000000,2.61729416,0.03556895,0.02235754,0.00948902,0.00896217,1.64180342,0.00000000,0.89911305,0.00254064,0.01117877,0.00379561,0.01792433,4.49556525,0.00000000,2.73633904
9.900,3,1,1,-529.361,192.697,47.438,-2.331,-3.260,-3.098,-0.767,-6.517,nan,1.515084,0.452187,-0.080015,0.456540,0.924594,-1.079621,-1.666860,2.189534,1.939985,63.557604,-44.590817,100.000000,18.966787,nan,0.000000,0.000000,0.000000,0.000000,0.000000,0.000000,0.000000,0.000000,0.000000,0.000000,0.000000,0.000000,2.62549479,0.03563660,0.02241262,0.00948940,0.00899499,1.64181177,0.00000000,0.90714941,0.00254547,0.01120631,0.00379576,0.01798998,4.53574704,0.00000000,2.73635294
10.000,3,1,1,-529.309,192.718,47.387,-2.946,-3.288,-3.228,-0.283,-6.374,nan,1.336294,0.438079,-0.124191,0.433802,0.920957,-1.315662,-2.031323,2.178675,1.934673,63.722559,-44.326688,100.000000,19.395871,nan,0.000000,0.000000,0.000000,0.000000,0.000000,0.000000,0.000000,0.000000,0.000000,0.000000,0.000000,0.000000,2.63612268,0.03571843,0.02251807,0.00949058,0.00905783,1.64181322,0.00000000,0.91752454,0.00255132,0.01125903,0.00379623,0.01811567,4.58762272,0.00000000,2.73635537
10.100,3,1,1,-529.256,192.737,47.335,-3.508,-3.315,-3.349,0.159,-5.228,nan,1.239301,0.421557,-0.205698,0.417670,0.917299,-1.508311,-1.899525,2.178639,1.930864,63.939770,-44.256791,100.000000,19.682979,nan,0.000000,0.000000,0.000000,0.000000,0.000000,0.000000,0.000000,0.000000,0.000000,0.000000,0.000000,0.000000,2.64678774,0.03579425,0.02265673,0.00949380,0.00911281,1.64181369,0.00000000,0.92791646,0.00255673,0.01132836,0.00379752,0.01822563,4.63958231,0.00000000,2.73635614
10.200,3,1,1,-529.202,192.756,47.283,-4.116,-3.342,-3.477,0.639,-5.572,nan,1.189297,0.399027,-0.233929,0.395192,0.913600,-1.688607,-1.558268,2.207816,1.928609,63.936149,-43.885179,100.000000,20.050970,nan,0.000000,0.000000,0.000000,0.000000,0.000000,0.000000,0.000000,0.000000,0.000000,0.000000,0.000000,0.000000,2.65748018,0.03586216,0.02283045,0.00949797,0.00914980,1.64182115,0.00000000,0.93831866,0.00256158,0.01141522,0.00379919,0.01829959,4.69159329,0.00000000,2.73636858
10.326,3,1,1,-529.202,192.756,47.283,-4.116,-3.342,-3.477,0.639,-5.572,nan,1.189297,0.399027,-0.233929,0.389228,0.909021,-1.688607,-1.558268,2.221557,1.925826,64.034627,-43.853877,100.000000,20.180750,nan,0.000000,0.000000,0.000000,0.000000,0.000000,0.000000,0.000000,0.000000,0.000000,0.000000,0.000000,0.000000,2.67096340,0.03594774,0.02304940,0.00950322,0.00919641,1.64183055,0.00000000,0.95143607,0.00256770,0.01152470,0.00380129,0.01839282,4.75718034,0.00000000,2.73638425
10.400,3,1,1,-529.091,192.793,47.174,-5.371,-3.394,-3.740,1.631,-5.873,nan,1.817811,0.334398,-0.354419,0.387982,0.906190,-1.958048,-0.816036,2.215503,1.926060,63.800005,-43.160276,100.000000,20.639729,nan,0.000000,0.000000,0.000000,0.000000,0.000000,0.000000,0.000000,0.000000,0.000000,0.000000,0.000000,0.000000,2.67892821,0.03598299,0.02322205,0.00951029,0.00920391,1.64186650,0.00000000,0.95914246,0.00257021,0.01161103,0.00380412,0.01840782,4.79571231,0.00000000,2.73644417
10.500,3,1,1,-529.034,192.810,47.118,-5.970,-3.419,-3.866,2.104,-5.672,nan,1.517058,0.295116,-0.933008,0.383018,0.902280,-2.034324,-1.336196,2.237632,1.927132,63.703697,-42.829464,100.000000,20.874234,nan,0.000000,0.000000,0.000000,0.000000,0.000000,0.000000,0.000000,0.000000,0.000000,0.000000,0.000000,0.000000,2.68981918,0.03602011,0.02347399,0.00957653,0.00923108,1.64194738,0.00000000,0.96957009,0.00257286,0.01173699,0.00383061,0.01846216,4.84785047,0.00000000,2.73657896
10.600,3,1,1,-528.976,192.827,47.061,-6.566,-3.444,-3.991,2.576,-6.116,nan,1.375479,0.250473,-1.212753,0.377203,0.898296,-2.075469,-0.644225,2.260458,1.928602,63.574017,-42.368115,100.000000,21.205902,nan,0.000000,0.000000,0.000000,0.000000,0.000000,0.000000,0.000000,0.000000,0.000000,0.000000,0.000000,0.000000,2.70079874,0.03604686,0.02373645,0.00968855,0.00923740,1.64206863,0.00000000,0.98002085,0.00257478,0.01186822,0.00387542,0.01847480,4.90010426,0.00000000,2.73678105
10.700,3,1,1,-528.917,192.843,47.003,-7.160,-3.467,-4.115,3.045,-5.243,nan,1.303019,0.200555,-1.214977,0.375396,0.894248,-2.081570,0.229085,2.282903,1.930107,63.449352,-42.118572,100.000000,21.330781,nan,0.000000,0.000000,0.000000,0.000000,0.000000,0.000000,0.000000,0.000000,0.000000,0.000000,0.000000,0.000000,2.71182740,0.03606403,0.02400066,0.00980107,0.00923820,1.64223824,0.00000000,0.99048520,0.00257600,0.01200033,0.00392043,0.01847640,4.95242602,0.00000000,2.73706373
10.800,3,1,1,-528.857,192.858,46.944,-7.751,-3.490,-4.239,3.512,-4.770,nan,1.292308,0.145120,-0.659540,0.378220,0.890159,-2.053100,0.483091,2.325226,1.931295,63.297604,-41.780774,100.000000,21.516831,nan,0.000000,0.000000,0.000000,0.000000,0.000000,0.000000,0.000000,0.000000,0.000000,0.000000,0.000000,0.000000,2.72282162,0.03607302,0.02425754,0.00983420,0.00924176,1.64246377,0.00000000,1.00095133,0.00257664,0.01212877,0.00393368,0.01848352,5.00475666,0.00000000,2.73743962
10.929,3,1,1,-528.857,192.858,46.944,-7.751,-3.490,-4.239,3.512,-4.770,nan,1.292308,0.145120,-0.659540,0.378761,0.884961,-2.053100,0.483091,2.337133,1.932798,63.187535,-41.602139,100.000000,21.585396,nan,0.000000,0.000000,0.000000,0.000000,0.000000,0.000000,0.000000,0.000000,0.000000,0.000000,0.000000,0.000000,2.73702933,0.03608462,0.02458942,0.00987701,0.00924635,1.64275515,0.00000000,1.01447677,0.00257747,0.01229471,0.00395081,0.01849270,5.07238387,0.00000000,2.73792525
11.000,3,1,1,-528.734,192.887,46.823,-8.879,-3.535,-4.475,4.404,-5.887,nan,2.043014,0.025491,-0.607158,0.374135,0.882080,-1.905550,0.944172,2.327559,1.932622,62.936385,-40.742273,100.000000,22.194112,nan,0.000000,0.000000,0.000000,0.000000,0.000000,0.000000,0.000000,0.000000,0.000000,0.000000,0.000000,0.000000,2.74488964,0.03608482,0.02474593,0.00989687,0.00925596,1.64300591,0.00000000,1.02190014,0.00257749,0.01237297,0.00395875,0.01851192,5.10950072,0.00000000,2.73834319
11.100,3,1,1,-528.671,192.900,46.761,-9.463,-3.555,-4.596,4.867,-5.801,nan,1.704090,-0.042255,-0.632020,0.378521,0.878061,-1.783634,1.225711,2.339942,1.931316,62.873825,-40.280633,100.000000,22.593192,nan,0.000000,0.000000,0.000000,0.000000,0.000000,0.000000,0.000000,0.000000,0.000000,0.000000,0.000000,0.000000,2.75608225,0.03608558,0.02493977,0.00992730,0.00927884,1.64343886,0.00000000,1.03241190,0.00257754,0.01246989,0.00397092,0.01855769,5.16205949,0.00000000,2.73906476
11.200,3,1,1,-528.607,192.912,46.698,-10.045,-3.575,-4.716,5.328,-5.228,nan,1.521279,-0.112760,-0.631688,0.374291,0.874155,-1.633820,1.449282,2.325272,1.928835,62.701911,-39.883462,100.000000,22.818448,nan,0.000000,0.000000,0.000000,0.000000,0.000000,0.000000,0.000000,0.000000,0.000000,0.000000,0.000000,0.000000,2.76735040,0.03609100,0.02510237,0.00995768,0.00931083,1.64395765,0.00000000,1.04293087,0.00257793,0.01255119,0.00398307,0.01862166,5.21465434,0.00000000,2.73992941
11.300,3,1,1,-528.543,192.924,46.634,-10.624,-3.595,-4.836,5.788,-4.827,nan,1.424300,-0.185709,-1.044446,0.378423,0.870413,-1.458544,2.702367,2.297893,1.925137,62.647945,-39.434720,100.000000,23.213225,nan,0.000000,0.000000,0.000000,0.000000,0.000000,0.000000,0.000000,0.000000,0.000000,0.000000,0.000000,0.000000,2.77883714,0.03610571,0.02523195,0.01004073,0.00942203,1.64456979,0.00000000,1.05346694,0.00257898,0.01261597,0.00401629,0.01884405,5.26733468,0.00000000,2.74094965
11.400,3,1,1,-528.477,192.935,46.570,-11.201,-3.613,-4.954,6.246,-5.615,nan,1.375462,-0.259873,-0.689259,0.375976,0.866891,-1.260453,1.922833,2.278217,1.920255,62.562509,-38.755325,100.000000,23.807183,nan,0.000000,0.000000,0.000000,0.000000,0.000000,0.000000,0.000000,0.000000,0.000000,0.000000,0.000000,0.000000,2.79033186,0.03613450,0.02532871,0.01007690,0.00947832,1.64528273,0.00000000,1.06403069,0.00258104,0.01266435,0.00403076,0.01895665,5.32015345,0.00000000,2.74213789
11.519,3,1,1,-528.477,192.935,46.570,-11.201,-3.613,-4.954,6.246,-5.615,nan,1.375462,-0.259873,-0.689259,0.378638,0.862768,-1.260453,1.922833,2.216641,1.914550,62.621055,-38.450058,100.000000,24.170997,nan,0.000000,0.000000,0.000000,0.000000,0.000000,0.000000,0.000000,0.000000,0.000000,0.000000,0.000000,0.000000,2.80400990,0.03616871,0.02544368,0.01011988,0.00954521,1.64612981,0.00000000,1.07660262,0.00258348,0.01272184,0.00404795,0.01909042,5.38301309,0.00000000,2.74354968
11.600,3,1,1,-528.344,192.954,46.438,-12.347,-3.647,-5.189,7.159,-5.787,nan,1.516918,-0.408230,-0.896756,0.379387,0.860395,-0.807927,2.905064,2.193074,1.908973,62.504053,-37.590611,100.000000,24.913442,nan,0.000000,0.000000,0.000000,0.000000,0.000000,0.000000,0.000000,0.000000,0.000000,0.000000,0.000000,0.000000,2.81364052,0.03622643,0.02547598,0.01016961,0.00964961,1.64689053,0.00000000,1.08522836,0.00258760,0.01273799,0.00406785,0.01929921,5.42614182,0.00000000,2.74481754
11.700,3,1,1,-528.277,192.962,46.371,-12.916,-3.662,-5.304,7.612,-5.715,nan,1.443948,-0.479406,-1.046370,0.384335,0.857829,-0.560162,3.765325,2.141137,1.901423,62.434771,-36.978524,99.413295,25.456247,nan,0.000000,0.000000,0.000000,0.000000,0.000000,0.000000,0.000000,0.000000,0.000000,0.000000,0.000000,0.000000,2.82564546,0.03632443,0.02549509,0.01025298,0.00986552,1.64794951,0.00000000,1.09575793,0.00259460,0.01274755,0.00410119,0.01973103,5.47878965,0.00000000,2.74658252
11.800,3,1,1,-528.209,192.969,46.304,-13.483,-3.677,-5.418,8.064,-6.145,nan,1.407641,-0.547250,-0.770687,0.390220,0.855647,-0.302704,3.094873,2.075067,1.893468,62.395768,-36.243477,98.639245,26.152291,nan,0.000000,0.000000,0.000000,0.000000,0.000000,0.000000,0.000000,0.000000,0.000000,0.000000,0.000000,0.000000,2.83757418,0.03645217,0.02550067,0.01029822,0.01001143,1.64913835,0.00000000,1.10617334,0.00260373,0.01275034,0.00411929,0.02002285,5.53086670,0.00000000,2.74856391
11.900,3,1,1,-528.140,192.976,46.236,-14.045,-3.690,-5.532,8.514,-4.354,nan,1.385700,-0.611232,-0.699142,0.397786,0.853866,-0.038923,3.098697,2.002411,1.885415,62.379962,-35.855139,98.235101,26.524823,nan,0.000000,0.000000,0.000000,0.000000,0.000000,0.000000,0.000000,0.000000,0.000000,0.000000,0.000000,0.000000,2.84959397,0.03661148,0.02550077,0.01033544,0.01015765,1.65046298,0.00000000,1.11652566,0.00261511,0.01275038,0.00413418,0.02031530,5.58262828,0.00000000,2.75077163
12.000,3,1,1,-528.071,192.981,46.168,-14.604,-3.703,-5.643,8.961,-5.400,nan,1.366231,-0.669645,-0.603375,0.406994,0.852482,0.227681,2.899290,1.925094,1.877578,62.366256,-34.922727,97.288983,27.443529,nan,0.000000,0.000000,0.000000,0.000000,0.000000,0.000000,0.000000,0.000000,0.000000,0.000000,0.000000,0.000000,2.86162557,0.03680265,0.02550392,0.01036316,0.01028563,1.65192993,0.00000000,1.12674028,0.00262876,0.01275196,0.00414526,0.02057127,5.63370140,0.00000000,2.75321655
12.123,3,1,1,-528.071,192.981,46.168,-14.604,-3.703,-5.643,8.961,-5.400,nan,1.366231,-0.669645,-0.603375,0.415739,0.850803,0.227681,2.899290,1.782679,1.868052,62.462562,-34.376594,96.839155,28.085968,nan,0.000000,0.000000,0.000000,0.000000,0.000000,0.000000,0.000000,0.000000,0.000000,0.000000,0.000000,0.000000,2.87639664,0.03703835,0.02550782,0.01039733,0.01044343,1.65373866,0.00000000,1.13927105,0.00264560,0.01275391,0.00415893,0.02088687,5.69635525,0.00000000,2.75623109
12.200,3,1,1,-527.969,192.988,46.066,-15.641,-3.719,-5.845,9.796,-4.756,nan,1.479155,-0.760892,-0.370063,0.427486,0.850261,0.724147,2.332948,1.764433,1.862996,62.485849,-33.418414,95.904263,29.067435,nan,0.000000,0.000000,0.000000,0.000000,0.000000,0.000000,0.000000,0.000000,0.000000,0.000000,0.000000,0.000000,2.88574387,0.03722801,0.02553236,0.01040534,0.01050711,1.65508586,0.00000000,1.14698519,0.00265914,0.01276618,0.00416214,0.02101422,5.73492597,0.00000000,2.75847643
12.300,3,1,1,-527.900,192.991,45.997,-16.185,-3.728,-5.953,10.232,-5.658,nan,1.442281,-0.797436,-0.344295,0.440622,0.849841,0.979327,2.512596,1.684076,1.857453,62.331103,-32.291131,94.622234,30.039973,nan,0.000000,0.000000,0.000000,0.000000,0.000000,0.000000,0.000000,0.000000,0.000000,0.000000,0.000000,0.000000,2.89794420,0.03749912,0.02559077,0.01041437,0.01060324,1.65699877,0.00000000,1.15683794,0.00267851,0.01279538,0.00416575,0.02120647,5.78418972,0.00000000,2.76166462
12.400,3,1,1,-527.830,192.993,45.928,-16.722,-3.736,-6.058,10.663,-5.157,nan,1.385407,-0.824599,-0.285024,0.454675,0.849638,1.224447,3.068375,1.554707,1.853169,62.295543,-31.290505,93.586047,31.005038,nan,0.000000,0.000000,0.000000,0.000000,0.000000,0.000000,0.000000,0.000000,0.000000,0.000000,0.000000,0.000000,2.91027579,0.03778917,0.02568213,0.01042055,0.01074667,1.65907749,0.00000000,1.16655978,0.00269923,0.01284107,0.00416822,0.02149333,5.83279891,0.00000000,2.76512916
12.500,3,1,1,-527.761,192.994,45.859,-17.251,-3.743,-6.162,11.089,-5.099,nan,1.383885,-0.841970,-0.295142,0.468609,0.849577,1.456898,4.477383,1.499069,1.850306,62.354592,-30.061025,92.415617,32.293567,nan,0.000000,0.000000,0.000000,0.000000,0.000000,0.000000,0.000000,0.000000,0.000000,0.000000,0.000000,0.000000,2.92285333,0.03809156,0.02581147,0.01042719,0.01105207,1.66132557,0.00000000,1.17614546,0.00272083,0.01290574,0.00417088,0.02210414,5.88072732,0.00000000,2.76887596
12.619,3,1,1,-527.761,192.994,45.859,-17.251,-3.743,-6.162,11.089,-5.099,nan,1.383885,-0.841970,-0.295142,0.482030,0.849505,1.456898,4.477383,1.452084,1.846969,62.370503,-29.032126,91.402628,33.338377,nan,0.000000,0.000000,0.000000,0.000000,0.000000,0.000000,0.000000,0.000000,0.000000,0.000000,0.000000,0.000000,2.93761148,0.03844973,0.02596467,0.01043505,0.01141380,1.66398832,0.00000000,1.18735990,0.00274641,0.01298234,0.00417402,0.02282760,5.93679950,0.00000000,2.77331387
