t,controller_id,state_code,wp_idx,x,y,dist,yaw_deg,yaw_to_wp_deg,yaw_ref_deg,yaw_err_deg,yaw_rate_deg_s,speed_ref,speed_meas,roll_deg,roll_rate_deg_s,roll_rms_window_deg,roll_rms_total_deg,pitch_deg,pitch_rate_deg_s,pitch_rms_window_deg,pitch_rms_total_deg,base_cmd,diff_cmd,T_left,T_right,J_inst,J_goal,J_wave_roll,J_progress,J_smooth,J_mpc_distance,J_mpc_final,J_mpc_heading,J_mpc_wrong_way,J_mpc_pitch,J_mpc_control,J_mpc_slew,J_mpc_turn,J_total,J_roll,J_pitch,J_roll_rate,J_pitch_rate,J_goal_heading,J_no_progress,J_control,I_roll,I_pitch,I_roll_rate,I_pitch_rate,I_control,I_no_progress,I_goal_heading
0.500,3,1,1,-531.997,189.995,49.997,56.863,0.006,9.483,-47.380,0.172,nan,0.000000,0.378150,0.346750,0.378150,0.378150,0.947562,-0.061306,0.947562,0.947562,58.733484,-55.972699,8.000000,2.760785,nan,0.000000,0.000000,0.000000,0.000000,0.000000,0.000000,0.000000,0.000000,0.000000,0.000000,0.000000,0.000000,0.04120918,0.00006096,0.00005468,0.00000915,0.00000006,0.04101274,0.00000000,0.00007159,0.00000435,0.00002734,0.00000366,0.00000011,0.00035796,0.00000000,0.06835457
0.736,3,1,1,-531.997,189.995,49.997,56.863,0.006,9.483,-47.380,0.172,nan,0.000000,0.378150,0.346750,0.378150,0.378150,0.947562,-0.061306,0.947562,0.947562,54.685126,-60.279485,16.000000,-5.239215,nan,0.000000,0.000000,0.000000,0.000000,0.000000,0.000000,0.000000,0.000000,0.000000,0.000000,0.000000,0.000000,0.13885975,0.00020466,0.00018358,0.00003073,0.00000019,0.13770104,0.00000000,0.00073954,0.00001462,0.00009179,0.00001229,0.00000038,0.00369772,0.00000000,0.22950173
0.800,3,1,1,-531.997,189.991,49.997,56.812,0.010,9.478,-47.335,-0.458,nan,0.012293,0.466036,0.555253,0.409546,0.393615,0.998117,0.694606,0.964708,0.955875,54.697039,-61.317082,24.000000,-6.620043,nan,0.000000,0.000000,0.000000,0.000000,0.000000,0.000000,0.000000,0.000000,0.000000,0.000000,0.000000,0.000000,0.16572482,0.00026426,0.00022263,0.00004584,0.00000492,0.16404883,0.00000000,0.00113834,0.00001888,0.00011132,0.00001833,0.00000984,0.00569169,0.00000000,0.27341472
0.900,3,1,1,-531.996,189.991,49.996,56.771,0.010,9.471,-47.300,-0.816,nan,0.013511,0.489842,0.132004,0.431025,0.414644,1.042292,0.422852,0.984677,0.973767,54.484312,-63.057230,32.000000,-8.572918,nan,0.000000,0.000000,0.000000,0.000000,0.000000,0.000000,0.000000,0.000000,0.000000,0.000000,0.000000,0.000000,0.20786401,0.00036654,0.00028879,0.00004716,0.00000764,0.20491861,0.00000000,0.00223528,0.00002618,0.00014439,0.00001886,0.00001528,0.01117641,0.00000000,0.34153101
1.000,3,1,1,-531.996,189.991,49.996,56.704,0.010,9.460,-47.244,0.673,nan,0.011132,0.488453,-0.104537,0.443106,0.427837,1.066158,0.113609,1.001504,0.989772,54.332552,-65.107237,40.000000,-10.774685,nan,0.000000,0.000000,0.000000,0.000000,0.000000,0.000000,0.000000,0.000000,0.000000,0.000000,0.000000,0.000000,0.25056100,0.00046832,0.00035806,0.00004799,0.00000784,0.24572683,0.00000000,0.00395196,0.00003345,0.00017903,0.00001920,0.00001568,0.01975978,0.00000000,0.40954471
1.100,3,1,1,-531.996,189.992,49.996,56.615,0.009,9.444,-47.171,-0.258,nan,0.013140,0.476493,-0.173737,0.448843,0.435132,1.063193,-0.174662,1.012047,1.000607,54.248171,-66.724182,48.000000,-12.476011,nan,0.000000,0.000000,0.000000,0.000000,0.000000,0.000000,0.000000,0.000000,0.000000,0.000000,0.000000,0.000000,0.29393232,0.00056531,0.00042705,0.00005030,0.00000830,0.28646554,0.00000000,0.00641583,0.00004038,0.00021352,0.00002012,0.00001661,0.03207914,0.00000000,0.47744256
1.540,3,1,1,-531.996,189.992,49.996,56.615,0.009,9.444,-47.171,-0.258,nan,0.013140,0.476493,-0.173737,0.452897,0.451536,1.063193,-0.174662,1.019510,1.025202,54.194726,-72.000000,56.000000,-17.805274,nan,0.000000,0.000000,0.000000,0.000000,0.000000,0.000000,0.000000,0.000000,0.000000,0.000000,0.000000,0.000000,0.48865861,0.00099102,0.00072982,0.00006040,0.00001035,0.46526968,0.00000000,0.02159733,0.00007079,0.00036491,0.00002416,0.00002069,0.10798667,0.00000000,0.77544947
1.600,3,1,1,-531.996,190.008,49.996,55.699,-0.009,9.276,-46.423,-2.693,nan,0.058516,0.360962,-0.618651,0.442451,0.447433,0.929788,-0.516899,1.008732,1.020632,54.349863,-72.000000,64.000000,-17.650137,nan,0.000000,0.000000,0.000000,0.000000,0.000000,0.000000,0.000000,0.000000,0.000000,0.000000,0.000000,0.000000,0.51508339,0.00102444,0.00076150,0.00007793,0.00001279,0.48895869,0.00000000,0.02424804,0.00007317,0.00038075,0.00003117,0.00002559,0.12124020,0.00000000,0.81493115
1.700,3,1,1,-531.996,190.014,49.996,55.429,-0.016,9.225,-46.204,-2.449,nan,0.082154,0.313189,-0.482735,0.430011,0.438568,0.884789,-0.493763,0.995722,1.010830,54.489461,-72.000000,72.000000,-17.510539,nan,0.000000,0.000000,0.000000,0.000000,0.000000,0.000000,0.000000,0.000000,0.000000,0.000000,0.000000,0.000000,0.55970222,0.00106627,0.00080919,0.00009568,0.00001651,0.52797597,0.00000000,0.02973860,0.00007616,0.00040460,0.00003827,0.00003302,0.14869302,0.00000000,0.87995994
1.821,3,1,1,-531.996,190.014,49.996,55.429,-0.016,9.225,-46.204,-2.449,nan,0.082154,0.313189,-0.482735,0.419795,0.429302,0.884789,-0.493763,0.985191,1.000697,54.588603,-72.000000,80.000000,-17.411397,nan,0.000000,0.000000,0.000000,0.000000,0.000000,0.000000,0.000000,0.000000,0.000000,0.000000,0.000000,0.000000,0.61526891,0.00111698,0.00086702,0.00011719,0.00002101,0.57528116,0.00000000,0.03786554,0.00007978,0.00043351,0.00004688,0.00004202,0.18932771,0.00000000,0.95880193
1.900,3,1,1,-531.994,190.031,49.994,54.770,-0.035,9.100,-45.670,-2.879,nan,0.099268,0.223414,-0.506889,0.405887,0.421000,0.784731,-0.559517,0.968683,0.990525,54.808171,-71.884471,88.000000,-17.076300,nan,0.000000,0.000000,0.000000,0.000000,0.000000,0.000000,0.000000,0.000000,0.000000,0.000000,0.000000,0.000000,0.65170340,0.00113376,0.00089658,0.00013261,0.00002477,0.60531854,0.00000000,0.04419715,0.00008098,0.00044829,0.00005305,0.00004953,0.22098573,0.00000000,1.00886424
2.000,3,1,1,-531.992,190.041,49.992,54.379,-0.047,9.025,-45.354,-3.882,nan,0.145517,0.164551,-0.729913,0.391500,0.409702,0.725801,-0.719920,0.950816,0.976085,55.004978,-71.521942,96.000000,-16.516964,nan,0.000000,0.000000,0.000000,0.000000,0.000000,0.000000,0.000000,0.000000,0.000000,0.000000,0.000000,0.000000,0.69887857,0.00114530,0.00092867,0.00017318,0.00003266,0.64291304,0.00000000,0.05368571,0.00008181,0.00046434,0.00006927,0.00006532,0.26842855,0.00000000,1.07152173
2.100,3,1,1,-531.990,190.054,49.990,53.945,-0.062,8.941,-45.004,-4.455,nan,0.188156,0.096661,-0.760769,0.377095,0.398160,0.656632,-0.776429,0.931491,0.960240,55.216459,-71.214218,100.000000,-15.997759,nan,0.000000,0.000000,0.000000,0.000000,0.000000,0.000000,0.000000,0.000000,0.000000,0.000000,0.000000,0.000000,0.74623470,0.00114929,0.00095494,0.00021726,0.00004184,0.67992988,0.00000000,0.06394149,0.00008209,0.00047747,0.00008690,0.00008368,0.31970746,0.00000000,1.13321647
2.200,3,1,1,-531.988,190.068,49.988,53.508,-0.078,8.855,-44.654,-4.412,nan,0.229189,0.035772,-0.602046,0.363504,0.387025,0.587938,-0.719599,0.911257,0.943406,55.431217,-71.013835,100.000000,-15.582618,nan,0.000000,0.000000,0.000000,0.000000,0.000000,0.000000,0.000000,0.000000,0.000000,0.000000,0.000000,0.000000,0.79301289,0.00114983,0.00097601,0.00024488,0.00004974,0.71640045,0.00000000,0.07419197,0.00008213,0.00048801,0.00009795,0.00009947,0.37095985,0.00000000,1.19400075
2.323,3,1,1,-531.988,190.068,49.988,53.508,-0.078,8.855,-44.654,-4.412,nan,0.229189,0.035772,-0.602046,0.351299,0.374538,0.587938,-0.719599,0.893350,0.924748,55.551491,-71.013835,100.000000,-15.462344,nan,0.000000,0.000000,0.000000,0.000000,0.000000,0.000000,0.000000,0.000000,0.000000,0.000000,0.000000,0.000000,0.85056926,0.00115051,0.00100195,0.00027887,0.00005945,0.76127781,0.00000000,0.08680068,0.00008218,0.00050097,0.00011155,0.00011889,0.43400338,0.00000000,1.26879635
2.400,3,1,1,-531.979,190.103,49.979,52.453,-0.118,8.647,-43.806,-5.286,nan,0.247964,-0.077221,-0.564331,0.340692,0.367584,0.458038,-0.550604,0.872529,0.911243,55.881039,-70.358574,100.000000,-14.477534,nan,0.000000,0.000000,0.000000,0.000000,0.000000,0.000000,0.000000,0.000000,0.000000,0.000000,0.000000,0.000000,0.88540058,0.00115246,0.00101177,0.00029751,0.00006300,0.78822970,0.00000000,0.09464614,0.00008232,0.00050588,0.00011900,0.00012599,0.47323071,0.00000000,1.31371617
2.500,3,1,1,-531.972,190.124,49.973,51.880,-0.142,8.532,-43.348,-5.873,nan,0.323356,-0.134084,-0.553590,0.332115,0.359916,0.408249,-0.455541,0.852249,0.893731,56.104821,-69.983955,100.000000,-13.879134,nan,0.000000,0.000000,0.000000,0.000000,0.000000,0.000000,0.000000,0.000000,0.000000,0.000000,0.000000,0.000000,0.92998481,0.00116013,0.00102192,0.00032085,0.00006616,0.82257601,0.00000000,0.10483974,0.00008287,0.00051096,0.00012834,0.00013231,0.52419869,0.00000000,1.37096002
2.600,3,1,1,-531.965,190.146,49.966,51.282,-0.168,8.412,-42.870,-6.073,nan,0.380607,-0.194195,-0.571575,0.325988,0.354073,0.359947,-0.485328,0.832571,0.876557,56.320490,-69.665453,100.000000,-13.344963,nan,0.000000,0.000000,0.000000,0.000000,0.000000,0.000000,0.000000,0.000000,0.000000,0.000000,0.000000,0.000000,0.97378328,0.00117620,0.00102981,0.00034572,0.00006974,0.85614916,0.00000000,0.11501265,0.00008401,0.00051491,0.00013829,0.00013948,0.57506326,0.00000000,1.42691526
2.700,3,1,1,-531.957,190.170,49.958,50.665,-0.195,8.287,-42.378,-6.417,nan,0.428778,-0.250369,-0.508496,0.322450,0.350202,0.306888,-0.532072,0.813418,0.859669,56.523950,-69.313442,100.000000,-12.789492,nan,0.000000,0.000000,0.000000,0.000000,0.000000,0.000000,0.000000,0.000000,0.000000,0.000000,0.000000,0.000000,1.01683967,0.00120294,0.00103555,0.00036542,0.00007406,0.88898245,0.00000000,0.12517925,0.00008592,0.00051778,0.00014617,0.00014811,0.62589627,0.00000000,1.48163741
2.800,3,1,1,-531.948,190.196,49.949,50.033,-0.224,8.159,-41.874,-4.899,nan,0.471593,-0.296368,-0.428253,0.321196,0.348125,0.249543,-0.584687,0.794783,0.843106,56.713749,-69.279203,100.000000,-12.565454,nan,0.000000,0.000000,0.000000,0.000000,0.000000,0.000000,0.000000,0.000000,0.000000,0.000000,0.000000,0.000000,1.05911440,0.00124041,0.00103935,0.00037939,0.00007926,0.92103659,0.00000000,0.13533941,0.00008860,0.00051967,0.00015175,0.00015853,0.67669705,0.00000000,1.53506098
2.922,3,1,1,-531.948,190.196,49.949,50.033,-0.224,8.159,-41.874,-4.899,nan,0.471593,-0.296368,-0.428253,0.320058,0.345811,0.249543,-0.584687,0.777538,0.824385,56.755534,-69.279203,100.000000,-12.523670,nan,0.000000,0.000000,0.000000,0.000000,0.000000,0.000000,0.000000,0.000000,0.000000,0.000000,0.000000,0.000000,1.11040583,0.00128587,0.00104395,0.00039634,0.00008558,0.95992846,0.00000000,0.14766564,0.00009185,0.00052198,0.00015853,0.00017116,0.73832819,0.00000000,1.59988076
3.000,3,1,1,-531.927,190.250,49.927,48.713,-0.287,7.889,-40.824,-7.821,nan,0.448781,-0.367107,-0.312994,0.322345,0.346474,0.145529,-0.428125,0.760294,0.812219,57.071045,-68.146227,100.000000,-11.075182,nan,0.000000,0.000000,0.000000,0.000000,0.000000,0.000000,0.000000,0.000000,0.000000,0.000000,0.000000,0.000000,1.14236778,0.00133106,0.00104497,0.00040220,0.00008778,0.98387735,0.00000000,0.15562443,0.00009508,0.00052248,0.00016088,0.00017555,0.77812214,0.00000000,1.63979559
3.100,3,1,1,-531.915,190.280,49.915,48.043,-0.321,7.751,-40.292,-5.314,nan,0.527106,-0.399605,-0.236226,0.326085,0.348585,0.107268,-0.254062,0.743919,0.797314,57.228342,-68.268320,100.000000,-11.039978,nan,0.000000,0.000000,0.000000,0.000000,0.000000,0.000000,0.000000,0.000000,0.000000,0.000000,0.000000,0.000000,1.18220508,0.00139910,0.00104567,0.00040645,0.00008876,1.01352662,0.00000000,0.16573848,0.00009994,0.00052283,0.00016258,0.00017752,0.82869239,0.00000000,1.68921104
3.200,3,1,1,-531.901,190.311,49.902,47.366,-0.357,7.610,-39.756,-5.243,nan,0.583849,-0.426248,-0.177375,0.330865,0.351656,0.078209,-0.187905,0.728431,0.783077,57.376169,-67.962472,100.000000,-10.586303,nan,0.000000,0.000000,0.000000,0.000000,0.000000,0.000000,0.000000,0.000000,0.000000,0.000000,0.000000,0.000000,1.22131026,0.00147664,0.00104604,0.00040884,0.00008930,1.04243244,0.00000000,0.17585701,0.00010547,0.00052302,0.00016354,0.00017860,0.87928506,0.00000000,1.73738739
3.300,3,1,1,-531.887,190.342,49.888,46.671,-0.393,7.465,-39.205,-8.838,nan,0.629618,-0.442647,-0.075857,0.336051,0.355179,0.057485,-0.119932,0.713806,0.769544,57.519496,-67.008154,100.000000,-9.488658,nan,0.000000,0.000000,0.000000,0.000000,0.000000,0.000000,0.000000,0.000000,0.000000,0.000000,0.000000,0.000000,1.25954057,0.00156011,0.00104624,0.00040928,0.00008952,1.07049804,0.00000000,0.18593738,0.00011144,0.00052312,0.00016371,0.00017903,0.92968688,0.00000000,1.78416340
3.400,3,1,1,-531.871,190.375,49.872,45.968,-0.431,7.319,-38.649,-8.437,nan,0.666228,-0.449356,-0.016910,0.341105,0.358717,0.045088,-0.070029,0.700000,0.756653,57.659979,-66.748204,100.000000,-9.088225,nan,0.000000,0.000000,0.000000,0.000000,0.000000,0.000000,0.000000,0.000000,0.000000,0.000000,0.000000,0.000000,1.29701345,0.00164623,0.00104636,0.00040930,0.00008959,1.09780128,0.00000000,0.19602067,0.00011759,0.00052318,0.00016372,0.00017918,0.98010337,0.00000000,1.82966880
3.520,3,1,1,-531.871,190.375,49.872,45.968,-0.431,7.319,-38.649,-8.437,nan,0.666228,-0.449356,-0.016910,0.345719,0.362612,0.045088,-0.070029,0.686970,0.742050,57.653016,-66.748204,100.000000,-9.095188,nan,0.000000,0.000000,0.000000,0.000000,0.000000,0.000000,0.000000,0.000000,0.000000,0.000000,0.000000,0.000000,1.34185578,0.00174929,0.00104651,0.00040933,0.00008968,1.13047390,0.00000000,0.20808708,0.00012495,0.00052326,0.00016373,0.00017936,1.04043538,0.00000000,1.88412316
3.600,3,1,1,-531.836,190.443,49.838,44.654,-0.510,7.038,-37.616,-9.053,nan,1.416667,-0.447446,0.062761,0.349862,0.364986,0.044364,0.059804,0.674643,0.732700,57.919919,-66.027819,100.000000,-8.107900,nan,0.000000,0.000000,0.000000,0.000000,0.000000,0.000000,0.000000,0.000000,0.000000,0.000000,0.000000,0.000000,1.37081945,0.00181795,0.00104661,0.00040957,0.00008972,1.15127315,0.00000000,0.21618244,0.00012985,0.00052330,0.00016383,0.00017945,1.08091219,0.00000000,1.91878858
3.700,3,1,1,-531.818,190.479,49.820,43.938,-0.551,6.886,-37.051,-8.322,nan,1.137200,-0.441252,0.086039,0.353407,0.367531,0.054103,0.103297,0.662985,0.721570,58.065035,-65.820122,100.000000,-7.755086,nan,0.000000,0.000000,0.000000,0.000000,0.000000,0.000000,0.000000,0.000000,0.000000,0.000000,0.000000,0.000000,1.40606688,0.00190102,0.00104679,0.00041014,0.00008989,1.17637289,0.00000000,0.22624616,0.00013579,0.00052339,0.00016405,0.00017977,1.13123078,0.00000000,1.96062149
3.800,3,1,1,-531.798,190.515,49.800,43.237,-0.592,6.737,-36.500,-4.856,nan,0.981376,-0.427590,0.154214,0.356129,0.369436,0.070152,0.195346,0.651968,0.710985,58.209116,-66.098081,100.000000,-7.888964,nan,0.000000,0.000000,0.000000,0.000000,0.000000,0.000000,0.000000,0.000000,0.000000,0.000000,0.000000,0.000000,1.44054882,0.00197897,0.00104709,0.00041195,0.00009047,1.20071514,0.00000000,0.23630521,0.00014135,0.00052354,0.00016478,0.00018094,1.18152606,0.00000000,2.00119191
3.900,3,1,1,-531.777,190.552,49.780,42.536,-0.635,6.587,-35.949,-3.309,nan,0.909425,-0.404970,0.281403,0.357809,0.370498,0.093843,0.318344,0.641587,0.700938,58.357314,-66.041085,100.000000,-7.683771,nan,0.000000,0.000000,0.000000,0.000000,0.000000,0.000000,0.000000,0.000000,0.000000,0.000000,0.000000,0.000000,1.47429361,0.00204888,0.00104762,0.00041797,0.00009201,1.22432662,0.00000000,0.24636050,0.00014635,0.00052381,0.00016719,0.00018402,1.23180251,0.00000000,2.04054436
4.029,3,1,1,-531.777,190.552,49.780,42.536,-0.635,6.587,-35.949,-3.309,nan,0.909425,-0.404970,0.281403,0.359376,0.371779,0.093843,0.318344,0.631701,0.688584,58.365716,-66.041085,100.000000,-7.675369,nan,0.000000,0.000000,0.000000,0.000000,0.000000,0.000000,0.000000,0.000000,0.000000,0.000000,0.000000,0.000000,1.51787658,0.00213918,0.00104832,0.00042576,0.00009400,1.25482206,0.00000000,0.25934726,0.00015280,0.00052416,0.00017030,0.00018801,1.29673632,0.00000000,2.09137010
4.100,3,1,1,-531.732,190.627,49.736,41.085,-0.722,6.277,-34.808,-10.328,nan,1.430121,-0.346726,0.313735,0.358999,0.371316,0.171003,0.489598,0.622768,0.682372,58.675055,-64.138957,100.000000,-5.463903,nan,0.000000,0.000000,0.000000,0.000000,0.000000,0.000000,0.000000,0.000000,0.000000,0.000000,0.000000,0.000000,1.54070913,0.00217549,0.00104958,0.00043107,0.00009659,1.27050564,0.00000000,0.26645076,0.00015539,0.00052479,0.00017243,0.00019318,1.33225380,0.00000000,2.11750941
4.200,3,1,1,-531.708,190.665,49.713,40.438,-0.767,6.134,-34.304,-9.998,nan,1.195484,-0.318057,0.322267,0.357862,0.370011,0.218958,0.527259,0.614689,0.674263,58.827220,-63.897511,100.000000,-5.070291,nan,0.000000,0.000000,0.000000,0.000000,0.000000,0.000000,0.000000,0.000000,0.000000,0.000000,0.000000,0.000000,1.57232588,0.00221866,0.00105250,0.00043898,0.00010083,1.29203063,0.00000000,0.27648427,0.00015848,0.00052625,0.00017559,0.00020165,1.38242136,0.00000000,2.15338438
4.300,3,1,1,-531.684,190.704,49.689,39.709,-0.812,5.977,-33.732,-9.697,nan,1.074564,-0.283009,0.366377,0.355942,0.368038,0.276060,0.558653,0.607639,0.667029,59.000856,-63.610642,100.000000,-4.609786,nan,0.000000,0.000000,0.000000,0.000000,0.000000,0.000000,0.000000,0.000000,0.000000,0.000000,0.000000,0.000000,1.60319686,0.00225282,0.00105714,0.00044921,0.00010558,1.31282696,0.00000000,0.28650515,0.00016092,0.00052857,0.00017968,0.00021116,1.43252577,0.00000000,2.18804493
4.400,3,1,1,-531.658,190.743,49.664,39.008,-0.858,5.824,-33.184,-3.867,nan,1.012087,-0.242355,0.389862,0.353280,0.365423,0.336603,0.580458,0.601761,0.660785,59.171692,-64.302567,100.000000,-5.130874,nan,0.000000,0.000000,0.000000,0.000000,0.000000,0.000000,0.000000,0.000000,0.000000,0.000000,0.000000,0.000000,1.63339809,0.00227787,0.00106405,0.00046078,0.00011071,1.33295314,0.00000000,0.29653154,0.00016270,0.00053202,0.00018431,0.00022142,1.48265768,0.00000000,2.22158857
4.524,3,1,1,-531.658,190.743,49.664,39.008,-0.858,5.824,-33.184,-3.867,nan,1.012087,-0.242355,0.389862,0.349952,0.362324,0.336603,0.580458,0.583371,0.653368,59.200319,-64.302567,100.000000,-5.102247,nan,0.000000,0.000000,0.000000,0.000000,0.000000,0.000000,0.000000,0.000000,0.000000,0.000000,0.000000,0.000000,1.67094512,0.00230901,0.00107263,0.00047517,0.00011709,1.35797484,0.00000000,0.30899638,0.00016493,0.00053631,0.00019007,0.00023418,1.54498190,0.00000000,2.26329140
4.600,3,1,1,-531.604,190.823,49.611,37.579,-0.950,5.513,-32.066,-10.385,nan,1.248016,-0.155108,0.427793,0.346131,0.359648,0.467183,0.672563,0.580537,0.650485,59.552798,-62.501536,100.000000,-2.948738,nan,0.000000,0.000000,0.000000,0.000000,0.000000,0.000000,0.000000,0.000000,0.000000,0.000000,0.000000,0.000000,1.69277738,0.00231678,0.00108269,0.00048572,0.00012231,1.37219828,0.00000000,0.31657160,0.00016548,0.00054135,0.00019429,0.00024461,1.58285802,0.00000000,2.28699713
4.700,3,1,1,-531.576,190.863,49.584,36.849,-0.997,5.355,-31.494,-11.115,nan,1.125545,-0.115237,0.369747,0.342057,0.355875,0.537483,0.662148,0.579445,0.648081,59.734818,-62.034845,100.000000,-2.300028,nan,0.000000,0.000000,0.000000,0.000000,0.000000,0.000000,0.000000,0.000000,0.000000,0.000000,0.000000,0.000000,1.72095391,0.00232244,0.00110029,0.00049613,0.00012898,1.39032835,0.00000000,0.32657771,0.00016589,0.00055015,0.00019845,0.00025797,1.63288856,0.00000000,2.31721391
4.800,3,1,1,-531.547,190.903,49.556,36.153,-1.044,5.202,-30.952,-2.449,nan,1.063467,-0.074296,0.384514,0.332536,0.351986,0.609555,0.697865,0.551072,0.647230,59.907658,-63.225407,100.000000,-3.317748,nan,0.000000,0.000000,0.000000,0.000000,0.000000,0.000000,0.000000,0.000000,0.000000,0.000000,0.000000,0.000000,1.74852185,0.00232479,0.00112293,0.00050739,0.00013640,1.40784020,0.00000000,0.33659013,0.00016606,0.00056147,0.00020296,0.00027281,1.68295064,0.00000000,2.34640033
4.900,3,1,1,-531.518,190.943,49.527,35.460,-1.091,5.049,-30.411,-3.051,nan,1.031270,-0.029765,0.436613,0.322675,0.348078,0.682067,0.694303,0.535624,0.648025,60.168584,-62.799902,100.000000,-2.631318,nan,0.000000,0.000000,0.000000,0.000000,0.000000,0.000000,0.000000,0.000000,0.000000,0.000000,0.000000,0.000000,1.77550214,0.00232517,0.00115130,0.00052192,0.00014375,1.42475584,0.00000000,0.34660415,0.00016608,0.00057565,0.00020877,0.00028750,1.73302077,0.00000000,2.37459307
5.021,3,1,1,-531.518,190.943,49.527,35.460,-1.091,5.049,-30.411,-3.051,nan,1.031270,-0.029765,0.436613,0.312561,0.343522,0.682067,0.694303,0.518406,0.648940,60.264092,-62.799902,100.000000,-2.535810,nan,0.000000,0.000000,0.000000,0.000000,0.000000,0.000000,0.000000,0.000000,0.000000,0.000000,0.000000,0.000000,1.80814475,0.00232563,0.00118561,0.00053950,0.00015264,1.44522193,0.00000000,0.35871944,0.00016612,0.00059281,0.00021580,0.00030528,1.79359719,0.00000000,2.40870322
5.100,3,1,1,-531.456,191.024,49.467,34.004,-1.187,4.731,-29.273,-12.104,nan,1.215506,0.052196,0.263647,0.308537,0.340698,0.823745,0.510861,0.528705,0.652256,60.667838,-60.544344,100.000000,0.123494,nan,0.000000,0.000000,0.000000,0.000000,0.000000,0.000000,0.000000,0.000000,0.000000,0.000000,0.000000,0.000000,1.82840145,0.00232655,0.00121818,0.00054367,0.00015577,1.45756001,0.00000000,0.36659727,0.00016618,0.00060909,0.00021747,0.00031154,1.83298636,0.00000000,2.42926669
5.200,3,1,1,-531.425,191.065,49.436,33.316,-1.235,4.578,-28.738,-1.189,nan,1.145871,0.084064,0.263885,0.299009,0.337347,0.890102,0.608813,0.520223,0.658092,60.817567,-62.131715,100.000000,-1.314149,nan,0.000000,0.000000,0.000000,0.000000,0.000000,0.000000,0.000000,0.000000,0.000000,0.000000,0.000000,0.000000,1.85357493,0.00232956,0.00126648,0.00054897,0.00016142,1.47266343,0.00000000,0.37660506,0.00016640,0.00063324,0.00021959,0.00032284,1.88302531,0.00000000,2.45443906
5.300,3,1,1,-531.393,191.106,49.405,32.632,-1.283,4.426,-28.205,-1.819,nan,1.094893,0.120289,0.368201,0.295779,0.334328,0.951720,0.569481,0.535647,0.665382,61.040135,-61.705786,100.000000,-0.665651,nan,0.000000,0.000000,0.000000,0.000000,0.000000,0.000000,0.000000,0.000000,0.000000,0.000000,0.000000,0.000000,1.87819363,0.00233573,0.00132166,0.00055930,0.00016636,1.48720448,0.00000000,0.38660610,0.00016684,0.00066083,0.00022372,0.00033272,1.93303048,0.00000000,2.47867413
5.400,3,1,1,-531.360,191.146,49.373,31.907,-1.330,4.268,-27.639,-12.849,nan,1.051739,0.154320,0.266553,0.293075,0.331689,1.008049,0.387374,0.552403,0.673936,61.182944,-59.444887,100.000000,1.738057,nan,0.000000,0.000000,0.000000,0.000000,0.000000,0.000000,0.000000,0.000000,0.000000,0.000000,0.000000,0.000000,1.90221375,0.00234588,0.00138351,0.00056470,0.00016864,1.50115234,0.00000000,0.39659867,0.00016756,0.00069175,0.00022588,0.00033729,1.98299336,0.00000000,2.50192057
5.500,3,1,1,-531.327,191.187,49.341,31.183,-1.379,4.109,-27.074,-12.705,nan,1.062468,0.179300,0.193639,0.290830,0.329378,1.057772,0.425153,0.570084,0.683544,61.319279,-59.134520,100.000000,2.184759,nan,0.000000,0.000000,0.000000,0.000000,0.000000,0.000000,0.000000,0.000000,0.000000,0.000000,0.000000,0.000000,1.92572083,0.00235960,0.00145172,0.00056756,0.00017140,1.51455964,0.00000000,0.40661092,0.00016854,0.00072586,0.00022702,0.00034280,2.03305458,0.00000000,2.52426606
5.621,3,1,1,-531.327,191.187,49.341,31.183,-1.379,4.109,-27.074,-12.705,nan,1.062468,0.179300,0.193639,0.280298,0.326681,1.057772,0.425153,0.557872,0.694504,61.300021,-59.134520,100.000000,2.165501,nan,0.000000,0.000000,0.000000,0.000000,0.000000,0.000000,0.000000,0.000000,0.000000,0.000000,0.000000,0.000000,1.95414324,0.00237619,0.00153421,0.00057102,0.00017473,1.53077045,0.00000000,0.41871666,0.00016973,0.00076710,0.00022841,0.00034946,2.09358328,0.00000000,2.55128408
5.700,3,1,1,-531.258,191.268,49.275,29.835,-1.475,3.807,-26.027,-0.745,nan,1.231915,0.225429,0.222168,0.278182,0.325404,1.135505,0.287372,0.569108,0.703107,61.674666,-60.600708,100.000000,1.073958,nan,0.000000,0.000000,0.000000,0.000000,0.000000,0.000000,0.000000,0.000000,0.000000,0.000000,0.000000,0.000000,1.97189997,0.00239330,0.00159623,0.00057398,0.00017572,1.54054690,0.00000000,0.42661382,0.00017095,0.00079812,0.00022959,0.00035145,2.13306910,0.00000000,2.56757817
5.800,3,1,1,-531.223,191.308,49.241,29.117,-1.523,3.649,-25.467,-12.634,nan,1.158636,0.244975,0.213698,0.277420,0.324095,1.164329,0.236553,0.590804,0.714366,61.816457,-58.193395,100.000000,3.623062,nan,0.000000,0.000000,0.000000,0.000000,0.000000,0.000000,0.000000,0.000000,0.000000,0.000000,0.000000,0.000000,1.99389291,0.00241891,0.00167887,0.00057746,0.00017658,1.55240812,0.00000000,0.43663297,0.00017278,0.00083944,0.00023099,0.00035315,2.18316484,0.00000000,2.58734686
5.900,3,1,1,-531.188,191.349,49.206,28.399,-1.571,3.491,-24.908,-12.906,nan,1.102105,0.256086,0.044732,0.275987,0.322987,1.185315,0.140759,0.603509,0.725653,61.928146,-57.813967,100.000000,4.114179,nan,0.000000,0.000000,0.000000,0.000000,0.000000,0.000000,0.000000,0.000000,0.000000,0.000000,0.000000,0.000000,2.01534527,0.00244685,0.00176440,0.00057762,0.00017688,1.56373787,0.00000000,0.44664165,0.00017478,0.00088220,0.00023105,0.00035375,2.23320825,0.00000000,2.60622978
6.000,3,1,1,-531.152,191.389,49.172,27.736,-1.618,3.342,-24.393,0.014,nan,1.084463,0.263441,0.004014,0.279076,0.322018,1.196631,0.062953,0.616897,0.736733,62.050076,-59.763602,100.000000,2.286474,nan,0.000000,0.000000,0.000000,0.000000,0.000000,0.000000,0.000000,0.000000,0.000000,0.000000,0.000000,0.000000,2.03639020,0.00247652,0.00185183,0.00057762,0.00017694,1.57463783,0.00000000,0.45666947,0.00017689,0.00092592,0.00023105,0.00035388,2.28334733,0.00000000,2.62439638
6.130,3,1,1,-531.152,191.389,49.172,27.736,-1.618,3.342,-24.393,0.014,nan,1.084463,0.263441,0.004014,0.281753,0.320812,1.196631,0.062953,0.636852,0.750259,62.002464,-59.763602,100.000000,2.238862,nan,0.000000,0.000000,0.000000,0.000000,0.000000,0.000000,0.000000,0.000000,0.000000,0.000000,0.000000,0.000000,2.06360523,0.00251488,0.00196490,0.00057762,0.00017702,1.58873366,0.00000000,0.46963716,0.00017963,0.00098245,0.00023105,0.00035403,2.34818579,0.00000000,2.64788943
6.200,3,1,1,-531.079,191.468,49.101,26.363,-1.714,3.037,-23.326,-13.837,nan,1.454115,0.274320,0.082362,0.281574,0.320290,1.191664,-0.118913,0.655991,0.757136,62.228864,-56.712539,100.000000,5.516325,nan,0.000000,0.000000,0.000000,0.000000,0.000000,0.000000,0.000000,0.000000,0.000000,0.000000,0.000000,0.000000,2.07769803,0.00253739,0.00202558,0.00057798,0.00017717,1.59570798,0.00000000,0.47667193,0.00018124,0.00101279,0.00023119,0.00035433,2.38335965,0.00000000,2.65951331
6.300,3,1,1,-531.042,191.508,49.065,25.650,-1.761,2.880,-22.770,-13.121,nan,1.292776,0.271826,-0.075370,0.284701,0.319530,1.175569,-0.196692,0.674981,0.766134,62.339810,-56.508037,100.000000,5.831773,nan,0.000000,0.000000,0.000000,0.000000,0.000000,0.000000,0.000000,0.000000,0.000000,0.000000,0.000000,0.000000,2.09732558,0.00256890,0.00210978,0.00057841,0.00017776,1.60518461,0.00000000,0.48670613,0.00018349,0.00105489,0.00023137,0.00035551,2.43353063,0.00000000,2.67530768
6.400,3,1,1,-531.004,191.547,49.029,24.998,-1.808,2.733,-22.265,0.716,nan,1.198461,0.267138,-0.180340,0.287688,0.318727,1.149933,-0.425279,0.692402,0.774092,62.414838,-58.623070,100.000000,3.791768,nan,0.000000,0.000000,0.000000,0.000000,0.000000,0.000000,0.000000,0.000000,0.000000,0.000000,0.000000,0.000000,2.11651760,0.00259933,0.00219034,0.00058089,0.00018051,1.61424548,0.00000000,0.49672105,0.00018567,0.00109517,0.00023236,0.00036102,2.48360523,0.00000000,2.69040913
6.500,3,1,1,-530.966,191.586,48.992,24.349,-1.855,2.587,-21.762,-0.129,nan,1.147016,0.261546,-0.033744,0.290323,0.317872,1.116500,-0.363395,0.710428,0.780917,62.493033,-58.177193,100.000000,4.315840,nan,0.000000,0.000000,0.000000,0.000000,0.000000,0.000000,0.000000,0.000000,0.000000,0.000000,0.000000,0.000000,2.13529920,0.00262851,0.00226629,0.00058098,0.00018252,1.62290125,0.00000000,0.50673966,0.00018775,0.00113314,0.00023239,0.00036505,2.53369828,0.00000000,2.70483541
6.600,3,1,1,-530.928,191.625,48.955,23.641,-1.902,2.430,-21.210,-15.226,nan,1.120323,0.251683,-0.088420,0.292222,0.316915,1.076632,-0.772419,0.727265,0.786569,62.585195,-55.214823,100.000000,7.370371,nan,0.000000,0.000000,0.000000,0.000000,0.000000,0.000000,0.000000,0.000000,0.000000,0.000000,0.000000,0.000000,2.15368190,0.00265552,0.00233690,0.00058157,0.00019161,1.63112311,0.00000000,0.51679319,0.00018968,0.00116845,0.00023263,0.00038322,2.58396596,0.00000000,2.71853851
6.722,3,1,1,-530.928,191.625,48.955,23.641,-1.902,2.430,-21.210,-15.226,nan,1.120323,0.251683,-0.088420,0.294283,0.315784,1.076632,-0.772419,0.752012,0.793165,62.538379,-55.214823,100.000000,7.323556,nan,0.000000,0.000000,0.000000,0.000000,0.000000,0.000000,0.000000,0.000000,0.000000,0.000000,0.000000,0.000000,2.17608716,0.00268844,0.00242297,0.00058230,0.00020268,1.64114448,0.00000000,0.52904629,0.00019203,0.00121148,0.00023292,0.00040537,2.64523144,0.00000000,2.73524079
6.800,3,1,1,-530.870,191.682,48.899,22.406,-1.971,2.167,-20.238,1.576,nan,1.239731,0.225808,-0.006154,0.292803,0.314840,0.982475,-0.399241,0.758467,0.795750,62.732121,-57.570308,100.000000,5.161813,nan,0.000000,0.000000,0.000000,0.000000,0.000000,0.000000,0.000000,0.000000,0.000000,0.000000,0.000000,0.000000,2.18984670,0.00270545,0.00246896,0.00058230,0.00020458,1.64699838,0.00000000,0.53688703,0.00019325,0.00123448,0.00023292,0.00040917,2.68443513,0.00000000,2.74499731
6.900,3,1,1,-530.830,191.720,48.860,21.703,-2.018,2.012,-19.690,-14.897,nan,1.157665,0.211027,-0.197333,0.290994,0.313503,0.924125,-0.974359,0.771092,0.797881,62.874459,-54.370271,100.000000,8.504188,nan,0.000000,0.000000,0.000000,0.000000,0.000000,0.000000,0.000000,0.000000,0.000000,0.000000,0.000000,0.000000,2.20709466,0.00272444,0.00252099,0.00058527,0.00021904,1.65408499,0.00000000,0.54695993,0.00019460,0.00126049,0.00023411,0.00043809,2.73479964,0.00000000,2.75680832
7.000,3,1,1,-530.790,191.758,48.822,21.000,-2.064,1.857,-19.143,-14.883,nan,1.120366,0.192747,-0.210672,0.288862,0.312024,0.861121,-0.419715,0.781761,0.798876,63.006549,-54.047906,100.000000,8.958642,nan,0.000000,0.000000,0.000000,0.000000,0.000000,0.000000,0.000000,0.000000,0.000000,0.000000,0.000000,0.000000,2.22392595,0.00274027,0.00256613,0.00058864,0.00022172,1.66077720,0.00000000,0.55703198,0.00019573,0.00128306,0.00023546,0.00044345,2.78515992,0.00000000,2.76796200
7.100,3,1,1,-530.749,191.796,48.782,20.421,-2.110,1.723,-18.698,-15.957,nan,1.095469,0.175397,-0.137752,0.280954,0.310426,0.798947,-0.645588,0.800980,0.798877,63.117684,-53.596284,100.000000,9.521399,nan,0.000000,0.000000,0.000000,0.000000,0.000000,0.000000,0.000000,0.000000,0.000000,0.000000,0.000000,0.000000,2.24048154,0.00275340,0.00260505,0.00059009,0.00022808,1.66717295,0.00000000,0.56713196,0.00019667,0.00130253,0.00023604,0.00045616,2.83565982,0.00000000,2.77862158
7.221,3,1,1,-530.749,191.796,48.782,20.421,-2.110,1.723,-18.698,-15.957,nan,1.095469,0.175397,-0.137752,0.274157,0.308540,0.798947,-0.645588,0.810786,0.798878,63.133979,-53.596284,100.000000,9.537694,nan,0.000000,0.000000,0.000000,0.000000,0.000000,0.000000,0.000000,0.000000,0.000000,0.000000,0.000000,0.000000,2.26055044,0.00276932,0.00265224,0.00059184,0.00023578,1.67492582,0.00000000,0.57937544,0.00019781,0.00132612,0.00023674,0.00047156,2.89687722,0.00000000,2.79154303
7.300,3,1,1,-530.666,191.870,48.702,19.099,-2.201,1.428,-17.671,2.249,nan,0.989546,0.135308,-0.182110,0.265935,0.307117,0.655953,-0.541982,0.817342,0.797394,63.433552,-56.164339,100.000000,7.269213,nan,0.000000,0.000000,0.000000,0.000000,0.000000,0.000000,0.000000,0.000000,0.000000,0.000000,0.000000,0.000000,2.27297697,0.00277546,0.00267285,0.00059383,0.00023930,1.67941417,0.00000000,0.58728135,0.00019825,0.00133643,0.00023753,0.00047860,2.93640676,0.00000000,2.79902362
7.400,3,1,1,-530.624,191.907,48.661,18.519,-2.246,1.294,-17.225,-15.370,nan,1.042087,0.118461,-0.173975,0.256952,0.305243,0.592445,-0.727357,0.822662,0.794837,63.595909,-52.824862,100.000000,10.771047,nan,0.000000,0.000000,0.000000,0.000000,0.000000,0.000000,0.000000,0.000000,0.000000,0.000000,0.000000,0.000000,2.28856058,0.00278145,0.00269424,0.00059614,0.00024736,1.68483955,0.00000000,0.59740184,0.00019867,0.00134712,0.00023845,0.00049472,2.98700921,0.00000000,2.80806592
7.500,3,1,1,-530.581,191.943,48.620,17.826,-2.290,1.141,-16.685,-15.198,nan,1.073344,0.096054,-0.327985,0.254242,0.303300,0.521289,-0.730971,0.816636,0.791640,63.791504,-52.533961,100.000000,11.257543,nan,0.000000,0.000000,0.000000,0.000000,0.000000,0.000000,0.000000,0.000000,0.000000,0.000000,0.000000,0.000000,2.30381216,0.00278538,0.00271080,0.00060433,0.00025550,1.68992747,0.00000000,0.60752869,0.00019896,0.00135540,0.00024173,0.00051100,3.03764344,0.00000000,2.81654578
7.600,3,1,1,-530.538,191.979,48.578,17.209,-2.335,1.001,-16.208,2.736,nan,1.094466,0.073723,-0.243265,0.244636,0.301312,0.450668,-0.685200,0.819633,0.787916,63.949384,-55.381112,100.000000,8.568272,nan,0.000000,0.000000,0.000000,0.000000,0.000000,0.000000,0.000000,0.000000,0.000000,0.000000,0.000000,0.000000,2.31871423,0.00278770,0.00272318,0.00060884,0.00026265,1.69472911,0.00000000,0.61760275,0.00019912,0.00136159,0.00024353,0.00052530,3.08801377,0.00000000,2.82454852
7.722,3,1,1,-530.538,191.979,48.578,17.209,-2.335,1.001,-16.208,2.736,nan,1.094466,0.073723,-0.243265,0.227169,0.298951,0.450668,-0.685200,0.832795,0.783502,64.010893,-55.381112,100.000000,8.629781,nan,0.000000,0.000000,0.000000,0.000000,0.000000,0.000000,0.000000,0.000000,0.000000,0.000000,0.000000,0.000000,2.33683074,0.00279052,0.00273822,0.00061431,0.00027134,1.70056609,0.00000000,0.62985026,0.00019932,0.00136911,0.00024573,0.00054269,3.14925131,0.00000000,2.83427681
7.800,3,1,1,-530.449,192.050,48.492,15.907,-2.423,0.711,-15.197,-15.470,nan,0.988106,0.034079,-0.165199,0.216942,0.297382,0.316797,-0.620737,0.834226,0.780020,64.375932,-51.603382,100.000000,12.772550,nan,0.000000,0.000000,0.000000,0.000000,0.000000,0.000000,0.000000,0.000000,0.000000,0.000000,0.000000,0.000000,2.34812793,0.00279091,0.00274301,0.00061594,0.00027595,1.70387778,0.00000000,0.63782434,0.00019935,0.00137151,0.00024638,0.00055190,3.18912168,0.00000000,2.83979630
7.900,3,1,1,-530.404,192.085,48.449,15.218,-2.467,0.559,-14.659,-16.888,nan,1.053578,0.012612,-0.257636,0.207287,0.295398,0.255105,-0.600034,0.835069,0.775364,64.588393,-51.036977,100.000000,13.551416,nan,0.000000,0.000000,0.000000,0.000000,0.000000,0.000000,0.000000,0.000000,0.000000,0.000000,0.000000,0.000000,2.36224595,0.00279098,0.00274698,0.00062100,0.00028143,1.70780324,0.00000000,0.64800234,0.00019936,0.00137349,0.00024840,0.00056286,3.24001169,0.00000000,2.84633873
8.000,3,1,1,-530.358,192.120,48.404,14.613,-2.510,0.422,-14.191,4.254,nan,1.088565,-0.008024,-0.224359,0.204748,0.293449,0.196929,-0.555865,0.825396,0.770577,64.779800,-54.449293,100.000000,10.330507,nan,0.000000,0.000000,0.000000,0.000000,0.000000,0.000000,0.000000,0.000000,0.000000,0.000000,0.000000,0.000000,2.37604494,0.00279100,0.00274934,0.00062483,0.00028613,1.71148427,0.00000000,0.65810936,0.00019936,0.00137467,0.00024993,0.00057227,3.29054682,0.00000000,2.85247379
8.100,3,1,1,-530.311,192.154,48.359,13.894,-2.553,0.265,-13.628,4.326,nan,1.122198,-0.027901,-0.190465,0.194783,0.291557,0.138639,-0.489897,0.825550,0.765725,64.968175,-54.127569,100.000000,10.840606,nan,0.000000,0.000000,0.000000,0.000000,0.000000,0.000000,0.000000,0.000000,0.000000,0.000000,0.000000,0.000000,2.38955281,0.00279133,0.00275051,0.00062759,0.00028979,1.71487582,0.00000000,0.66821777,0.00019938,0.00137526,0.00025104,0.00057957,3.34108885,0.00000000,2.85812636
8.200,3,1,1,-530.264,192.188,48.314,13.329,-2.595,0.136,-13.193,-16.673,nan,1.146095,-0.042768,-0.139309,0.187224,0.289721,0.099635,-0.396569,0.825264,0.760880,65.154930,-50.204424,100.000000,14.950506,nan,0.000000,0.000000,0.000000,0.000000,0.000000,0.000000,0.000000,0.000000,0.000000,0.000000,0.000000,0.000000,2.40297300,0.00279211,0.00275112,0.00062907,0.00029218,1.71805959,0.00000000,0.67844892,0.00019944,0.00137556,0.00025163,0.00058437,3.39224462,0.00000000,2.86343264
8.322,3,1,1,-530.264,192.188,48.314,13.073,-2.595,0.092,-12.981,4.827,nan,1.146095,-0.050305,-0.056527,0.177373,0.287557,0.083876,-0.118191,0.833762,0.755092,65.266162,-53.830927,100.000000,11.435234,nan,0.000000,0.000000,0.000000,0.000000,0.000000,0.000000,0.000000,0.000000,0.000000,0.000000,0.000000,0.000000,2.41903093,0.00279343,0.00275164,0.00062937,0.00029244,1.72180269,0.00000000,0.69076138,0.00019953,0.00137582,0.00025175,0.00058488,3.45380689,0.00000000,2.86967114
8.400,3,1,1,-530.168,192.254,48.220,12.053,-2.679,-0.149,-12.202,4.011,nan,1.028409,-0.078018,-0.160815,0.173623,0.286247,0.031722,-0.235453,0.832077,0.751385,65.527093,-53.225934,100.000000,12.301158,nan,0.000000,0.000000,0.000000,0.000000,0.000000,0.000000,0.000000,0.000000,0.000000,0.000000,0.000000,0.000000,2.42914083,0.00279546,0.00275168,0.00063091,0.00029311,1.72393898,0.00000000,0.69873068,0.00019968,0.00137584,0.00025236,0.00058621,3.49365340,0.00000000,2.87323163
8.500,3,1,1,-530.118,192.286,48.173,11.463,-2.720,-0.282,-11.745,5.543,nan,1.098355,-0.092671,-0.090231,0.172102,0.284661,0.009546,-0.108269,0.821869,0.746734,65.679787,-53.222163,100.000000,12.457624,nan,0.000000,0.000000,0.000000,0.000000,0.000000,0.000000,0.000000,0.000000,0.000000,0.000000,0.000000,0.000000,2.44181805,0.00279913,0.00275169,0.00063153,0.00029328,1.72645946,0.00000000,0.70888296,0.00019994,0.00137585,0.00025261,0.00058657,3.54441478,0.00000000,2.87743243
8.600,3,1,1,-530.069,192.318,48.124,10.784,-2.761,-0.431,-11.215,-17.661,nan,1.137351,-0.106327,-0.065442,0.168708,0.283164,-0.004846,-0.066099,0.820186,0.742168,65.854132,-48.857536,100.000000,16.996596,nan,0.000000,0.000000,0.000000,0.000000,0.000000,0.000000,0.000000,0.000000,0.000000,0.000000,0.000000,0.000000,2.45440836,0.00280395,0.00275169,0.00063186,0.00029335,1.72875778,0.00000000,0.71916974,0.00020028,0.00137585,0.00025274,0.00058670,3.59584868,0.00000000,2.88126297
8.700,3,1,1,-530.018,192.350,48.076,10.107,-2.802,-0.579,-10.686,-17.762,nan,1.163447,-0.120558,-0.084152,0.168018,0.281764,-0.012316,-0.044184,0.816937,0.737685,66.023821,-48.525946,100.000000,17.497874,nan,0.000000,0.000000,0.000000,0.000000,0.000000,0.000000,0.000000,0.000000,0.000000,0.000000,0.000000,0.000000,2.46680726,0.00281014,0.00275170,0.00063240,0.00029338,1.73084462,0.00000000,0.72947502,0.00020072,0.00137585,0.00025296,0.00058676,3.64737511,0.00000000,2.88474103
8.800,3,1,1,-529.967,192.381,48.026,9.526,-2.842,-0.710,-10.237,6.317,nan,1.176596,-0.133058,-0.109444,0.170025,0.280457,-0.013192,0.017813,0.817045,0.733280,66.156060,-52.461694,100.000000,13.694365,nan,0.000000,0.000000,0.000000,0.000000,0.000000,0.000000,0.000000,0.000000,0.000000,0.000000,0.000000,0.000000,2.47892599,0.00281770,0.00275171,0.00063331,0.00029338,1.73276101,0.00000000,0.73966887,0.00020126,0.00137586,0.00025332,0.00058677,3.69834437,0.00000000,2.88793501
8.921,3,1,1,-529.967,192.381,48.026,9.526,-2.842,-0.710,-10.237,6.317,nan,1.176596,-0.133058,-0.109444,0.171257,0.278912,-0.013192,0.017813,0.809899,0.728062,66.141344,-52.461694,100.000000,13.679650,nan,0.000000,0.000000,0.000000,0.000000,0.000000,0.000000,0.000000,0.000000,0.000000,0.000000,0.000000,0.000000,2.49356365,0.00282682,0.00275172,0.00063441,0.00029339,1.73507580,0.00000000,0.75198150,0.00020192,0.00137586,0.00025376,0.00058678,3.75990750,0.00000000,2.89179301
9.000,3,1,1,-529.862,192.441,47.925,8.279,-2.920,-0.987,-9.266,-18.277,nan,3.389614,-0.151215,-0.042329,0.170796,0.278005,0.010968,0.136465,0.799964,0.724710,66.407632,-47.592909,100.000000,18.814723,nan,0.000000,0.000000,0.000000,0.000000,0.000000,0.000000,0.000000,0.000000,0.000000,0.000000,0.000000,0.000000,2.50299518,0.00283453,0.00275173,0.00063452,0.00029361,1.73631604,0.00000000,0.76016474,0.00020247,0.00137586,0.00025381,0.00058723,3.80082372,0.00000000,2.89386007
9.100,3,1,1,-529.809,192.471,47.873,7.610,-2.959,-1.133,-8.742,-17.948,nan,2.454239,-0.162021,-0.084443,0.174547,0.276948,0.035780,0.187126,0.792072,0.720541,66.572498,-47.339392,100.000000,19.233106,nan,0.000000,0.000000,0.000000,0.000000,0.000000,0.000000,0.000000,0.000000,0.000000,0.000000,0.000000,0.000000,2.51478053,0.00284573,0.00275181,0.00063506,0.00029415,1.73771363,0.00000000,0.77054015,0.00020327,0.00137590,0.00025403,0.00058830,3.85270073,0.00000000,2.89618938
9.200,3,1,1,-529.755,192.500,47.821,7.043,-2.997,-1.260,-8.303,7.320,nan,1.925721,-0.170820,-0.074083,0.174457,0.275971,0.066859,0.251228,0.782423,0.716470,66.679776,-51.488546,100.000000,15.191230,nan,0.000000,0.000000,0.000000,0.000000,0.000000,0.000000,0.000000,0.000000,0.000000,0.000000,0.000000,0.000000,2.52628579,0.00285818,0.00275208,0.00063548,0.00029511,1.73897368,0.00000000,0.78077126,0.00020416,0.00137604,0.00025419,0.00059022,3.90385628,0.00000000,2.89828947
9.300,3,1,1,-529.701,192.528,47.768,6.479,-3.034,-1.387,-7.867,5.973,nan,1.629693,-0.175016,-0.011992,0.176096,0.275043,0.104319,0.459258,0.770147,0.712523,66.818014,-50.994380,100.000000,15.823634,nan,0.000000,0.000000,0.000000,0.000000,0.000000,0.000000,0.000000,0.000000,0.000000,0.000000,0.000000,0.000000,2.53767561,0.00287123,0.00275274,0.00063549,0.00029832,1.74010388,0.00000000,0.79101394,0.00020509,0.00137637,0.00025420,0.00059664,3.95506971,0.00000000,2.90017314
9.400,3,1,1,-529.645,192.556,47.714,5.816,-3.071,-1.531,-7.347,-18.507,nan,1.462030,-0.178564,-0.011758,0.177835,0.274158,0.147944,0.510365,0.748634,0.708724,66.971605,-46.413302,100.000000,20.558303,nan,0.000000,0.000000,0.000000,0.000000,0.000000,0.000000,0.000000,0.000000,0.000000,0.000000,0.000000,0.000000,2.54910591,0.00288483,0.00275408,0.00063550,0.00030229,1.74109067,0.00000000,0.80143854,0.00020606,0.00137704,0.00025420,0.00060458,4.00719272,0.00000000,2.90181778
9.527,3,1,1,-529.645,192.556,47.714,5.816,-3.071,-1.531,-7.347,-18.507,nan,1.462030,-0.178564,-0.011758,0.177816,0.273058,0.147944,0.510365,0.730088,0.703998,67.005015,-46.413302,100.000000,20.591714,nan,0.000000,0.000000,0.000000,0.000000,0.000000,0.000000,0.000000,0.000000,0.000000,0.000000,0.000000,0.000000,2.56360267,0.00290208,0.00275577,0.00063552,0.00030732,1.74234203,0.00000000,0.81465996,0.00020729,0.00137788,0.00025421,0.00061464,4.07329980,0.00000000,2.90390338
9.600,3,1,1,-529.533,192.610,47.605,4.600,-3.143,-1.799,-6.399,6.618,nan,5.054046,-0.188337,-0.067737,0.178080,0.272489,0.247258,0.621314,0.722163,0.701540,67.299377,-50.235049,100.000000,17.064327,nan,0.000000,0.000000,0.000000,0.000000,0.000000,0.000000,0.000000,0.000000,0.000000,0.000000,0.000000,0.000000,2.57169702,0.00291314,0.00275849,0.00063577,0.00031162,1.74288952,0.00000000,0.82218847,0.00020808,0.00137925,0.00025431,0.00062324,4.11094236,0.00000000,2.90481587
9.700,3,1,1,-529.477,192.636,47.550,4.051,-3.178,-1.922,-5.972,7.506,nan,3.407610,-0.188386,0.106752,0.178309,0.271723,0.302462,0.851404,0.704600,0.698463,67.429050,-50.136477,100.000000,17.292574,nan,0.000000,0.000000,0.000000,0.000000,0.000000,0.000000,0.000000,0.000000,0.000000,0.000000,0.000000,0.000000,2.58268075,0.00292828,0.00276407,0.00063664,0.00032266,1.74354145,0.00000000,0.83248765,0.00020916,0.00138203,0.00025466,0.00064532,4.16243826,0.00000000,2.90590241
9.800,3,1,1,-529.419,192.661,47.494,3.395,-3.212,-2.063,-5.458,-18.879,nan,2.471508,-0.187313,0.065805,0.177230,0.270963,0.361622,0.945521,0.684253,0.695738,67.603497,-45.225533,100.000000,22.377964,nan,0.000000,0.000000,0.000000,0.000000,0.000000,0.000000,0.000000,0.000000,0.000000,0.000000,0.000000,0.000000,2.59376426,0.00294324,0.00277203,0.00063697,0.00033628,1.74408590,0.00000000,0.84298984,0.00021023,0.00138602,0.00025479,0.00067256,4.21494918,0.00000000,2.90680983
9.900,3,1,1,-529.361,192.686,47.437,2.740,-3.246,-2.204,-4.944,-19.495,nan,1.945748,-0.187479,-0.131500,0.173016,0.270218,0.422915,0.796144,0.644486,0.693424,67.793590,-44.812485,100.000000,22.981105,nan,0.000000,0.000000,0.000000,0.000000,0.000000,0.000000,0.000000,0.000000,0.000000,0.000000,0.000000,0.000000,2.60478217,0.00295824,0.00278294,0.00063829,0.00034594,1.74453282,0.00000000,0.85352394,0.00021130,0.00139147,0.00025531,0.00069188,4.26761969,0.00000000,2.90755471
10.017,3,1,1,-529.361,192.686,47.437,2.740,-3.246,-2.204,-4.944,-19.495,nan,1.945748,-0.187479,-0.131500,0.170523,0.269367,0.422915,0.796144,0.619706,0.690779,67.910917,-44.812485,100.000000,23.098432,nan,0.000000,0.000000,0.000000,0.000000,0.000000,0.000000,0.000000,0.000000,0.000000,0.000000,0.000000,0.000000,2.61762757,0.00297572,0.00279564,0.00063982,0.00035720,1.74505362,0.00000000,0.86580557,0.00021255,0.00139782,0.00025593,0.00071439,4.32902786,0.00000000,2.90842270
10.100,3,1,1,-529.244,192.733,47.323,1.665,-3.311,-2.443,-4.108,8.580,nan,2.289113,-0.180969,0.277328,0.170785,0.268732,0.545978,0.974660,0.618013,0.689664,68.208258,-49.215740,100.000000,18.992518,nan,0.000000,0.000000,0.000000,0.000000,0.000000,0.000000,0.000000,0.000000,0.000000,0.000000,0.000000,0.000000,2.62656352,0.00298736,0.00281078,0.00064470,0.00036925,1.74531071,0.00000000,0.87444071,0.00021338,0.00140539,0.00025788,0.00073851,4.37220356,0.00000000,2.90885119
10.200,3,1,1,-529.185,192.756,47.265,1.020,-3.343,-2.581,-3.601,-19.681,nan,1.818777,-0.174383,0.110172,0.164441,0.267937,0.607412,0.676156,0.573944,0.688874,68.346719,-43.981499,100.000000,24.365220,nan,0.000000,0.000000,0.000000,0.000000,0.000000,0.000000,0.000000,0.000000,0.000000,0.000000,0.000000,0.000000,2.63743445,0.00300032,0.00283325,0.00064563,0.00037622,1.74554765,0.00000000,0.88503139,0.00021431,0.00141662,0.00025825,0.00075243,4.42515694,0.00000000,2.90924608
10.300,3,1,1,-529.125,192.778,47.207,0.538,-3.374,-2.690,-3.228,7.978,nan,1.565015,-0.168282,0.124329,0.160940,0.267116,0.663779,0.710413,0.553063,0.688625,68.590757,-48.587244,100.000000,20.003513,nan,0.000000,0.000000,0.000000,0.000000,0.000000,0.000000,0.000000,0.000000,0.000000,0.000000,0.000000,0.000000,2.64808005,0.00301241,0.00286011,0.00064681,0.00038391,1.74573826,0.00000000,0.89543856,0.00021517,0.00143006,0.00025872,0.00076782,4.47719279,0.00000000,2.90956377
10.400,3,1,1,-529.065,192.800,47.148,-0.104,-3.404,-2.827,-2.723,-20.584,nan,1.426303,-0.161314,0.171275,0.157379,0.266266,0.722991,0.684829,0.534684,0.688977,68.799149,-43.301550,100.000000,25.497598,nan,0.000000,0.000000,0.000000,0.000000,0.000000,0.000000,0.000000,0.000000,0.000000,0.000000,0.000000,0.000000,2.65891570,0.00302350,0.00289195,0.00064904,0.00039105,1.74587377,0.00000000,0.90608639,0.00021596,0.00144597,0.00025962,0.00078210,4.53043197,0.00000000,2.90978961
10.500,3,1,1,-529.004,192.820,47.089,-0.744,-3.434,-2.963,-2.219,-20.483,nan,1.348725,-0.154383,0.030712,0.157306,0.265390,0.779218,0.515649,0.541963,0.689928,69.002659,-43.018581,100.000000,25.984079,nan,0.000000,0.000000,0.000000,0.000000,0.000000,0.000000,0.000000,0.000000,0.000000,0.000000,0.000000,0.000000,2.66972369,0.00303366,0.00292891,0.00064911,0.00039510,1.74596366,0.00000000,0.91675325,0.00021669,0.00146446,0.00025964,0.00079019,4.58376627,0.00000000,2.90993943
10.627,3,1,1,-529.004,192.820,47.089,-0.744,-3.434,-2.963,-2.219,-20.483,nan,1.348725,-0.154383,0.030712,0.150552,0.264299,0.779218,0.515649,0.506067,0.691107,68.987242,-43.018581,100.000000,25.968661,nan,0.000000,0.000000,0.000000,0.000000,0.000000,0.000000,0.000000,0.000000,0.000000,0.000000,0.000000,0.000000,2.68345044,0.00304656,0.00297586,0.00064920,0.00040024,1.74607783,0.00000000,0.93030075,0.00021761,0.00148793,0.00025968,0.00080047,4.65150376,0.00000000,2.91012972
10.700,3,1,1,-528.882,192.860,46.969,-1.766,-3.491,-3.188,-1.422,-20.111,nan,1.777457,-0.131176,0.098441,0.150109,0.263590,0.872314,0.268110,0.518089,0.692561,69.332691,-42.609111,100.000000,26.723580,nan,0.000000,0.000000,0.000000,0.000000,0.000000,0.000000,0.000000,0.000000,0.000000,0.000000,0.000000,0.000000,2.69135725,0.00305193,0.00300978,0.00064974,0.00040104,1.74610488,0.00000000,0.93813988,0.00021800,0.00150489,0.00025990,0.00080207,4.69069941,0.00000000,2.91017481
10.800,3,1,1,-528.821,192.878,46.909,-2.396,-3.518,-3.321,-0.925,-20.154,nan,1.553947,-0.118370,-0.066994,0.143485,0.262576,0.915234,0.239389,0.492908,0.695043,69.444379,-42.305021,100.000000,27.139358,nan,0.000000,0.000000,0.000000,0.000000,0.000000,0.000000,0.000000,0.000000,0.000000,0.000000,0.000000,0.000000,2.70217095,0.00305791,0.00306083,0.00065008,0.00040191,1.74612052,0.00000000,0.94887970,0.00021842,0.00153041,0.00026003,0.00080382,4.74439848,0.00000000,2.91020087
10.900,3,1,1,-528.759,192.896,46.848,-2.900,-3.545,-3.431,-0.532,10.743,nan,1.428599,-0.103880,0.067940,0.142650,0.261519,0.954232,0.231802,0.509158,0.697965,69.656826,-47.462849,100.000000,22.193977,nan,0.000000,0.000000,0.000000,0.000000,0.000000,0.000000,0.000000,0.000000,0.000000,0.000000,0.000000,0.000000,2.71272872,0.00306251,0.00311630,0.00065044,0.00040273,1.74612569,0.00000000,0.95937106,0.00021875,0.00155815,0.00026017,0.00080546,4.79685530,0.00000000,2.91020948
11.000,3,1,1,-528.697,192.914,46.787,-3.400,-3.570,-3.540,-0.140,10.514,nan,1.351835,-0.087776,0.394577,0.137871,0.260423,0.989770,0.340596,0.500325,0.701284,69.733386,-47.189296,100.000000,22.544089,nan,0.000000,0.000000,0.000000,0.000000,0.000000,0.000000,0.000000,0.000000,0.000000,0.000000,0.000000,0.000000,2.72330748,0.00306579,0.00317594,0.00066229,0.00040449,1.74612605,0.00000000,0.96987291,0.00021899,0.00158797,0.00026491,0.00080899,4.84936457,0.00000000,2.91021008
11.126,3,1,1,-528.697,192.914,46.787,-3.400,-3.570,-3.540,-0.140,10.514,nan,1.351835,-0.087776,0.394577,0.135764,0.259063,0.989770,0.340596,0.508781,0.705359,69.789218,-47.189296,100.000000,22.599922,nan,0.000000,0.000000,0.000000,0.000000,0.000000,0.000000,0.000000,0.000000,0.000000,0.000000,0.000000,0.000000,2.73665354,0.00306993,0.00325118,0.00067723,0.00040672,1.74612650,0.00000000,0.98312198,0.00021928,0.00162559,0.00027089,0.00081344,4.91560990,0.00000000,2.91021083
11.200,3,1,1,-528.572,192.946,46.665,-4.655,-3.620,-3.803,0.852,-21.686,nan,1.526636,-0.057515,-0.235299,0.134399,0.258218,1.046960,0.414277,0.528469,0.708260,69.593094,-40.951467,100.000000,28.641627,nan,0.000000,0.000000,0.000000,0.000000,0.000000,0.000000,0.000000,0.000000,0.000000,0.000000,0.000000,0.000000,2.74472252,0.00307098,0.00330057,0.00068035,0.00040866,1.74613633,0.00000000,0.99112564,0.00021936,0.00165029,0.00027214,0.00081731,4.95562819,0.00000000,2.91022721
11.300,3,1,1,-528.509,192.962,46.604,-5.152,-3.644,-3.910,1.242,11.044,nan,1.412973,-0.039272,0.120104,0.131720,0.257059,1.063997,0.097137,0.539743,0.712331,69.454105,-46.382319,100.000000,23.071787,nan,0.000000,0.000000,0.000000,0.000000,0.000000,0.000000,0.000000,0.000000,0.000000,0.000000,0.000000,0.000000,2.75535340,0.00307164,0.00336954,0.00068145,0.00040880,1.74616453,0.00000000,1.00165745,0.00021940,0.00168477,0.00027258,0.00081760,5.00828725,0.00000000,2.91027422
11.400,3,1,1,-528.447,192.976,46.542,-5.646,-3.666,-4.017,1.630,10.070,nan,1.367143,-0.018154,0.845393,0.130045,0.255894,1.072519,0.101575,0.555774,0.716422,69.344280,-45.916684,100.000000,23.427596,nan,0.000000,0.000000,0.000000,0.000000,0.000000,0.000000,0.000000,0.000000,0.000000,0.000000,0.000000,0.000000,2.76607544,0.00307178,0.00343962,0.00073587,0.00040896,1.74621308,0.00000000,1.01220614,0.00021941,0.00171981,0.00029435,0.00081791,5.06103068,0.00000000,2.91035513
11.500,3,1,1,-528.384,192.990,46.480,-6.272,-3.689,-4.146,2.126,-21.887,nan,1.330949,-0.000094,0.454748,0.128723,0.254738,1.074891,-0.001612,0.573153,0.720448,69.186918,-39.958458,100.000000,29.228460,nan,0.000000,0.000000,0.000000,0.000000,0.000000,0.000000,0.000000,0.000000,0.000000,0.000000,0.000000,0.000000,2.77709949,0.00307178,0.00351001,0.00075162,0.00040896,1.74629570,0.00000000,1.02306142,0.00021941,0.00175501,0.00030065,0.00081791,5.11530712,0.00000000,2.91049283
11.625,3,1,1,-528.384,192.990,46.480,-6.272,-3.689,-4.146,2.126,-21.887,nan,1.330949,-0.000094,0.454748,0.128908,0.253322,1.074891,-0.001612,0.594752,0.725328,69.158617,-39.855153,100.000000,29.303464,nan,0.000000,0.000000,0.000000,0.000000,0.000000,0.000000,0.000000,0.000000,0.000000,0.000000,0.000000,0.000000,2.79082163,0.00307178,0.00359761,0.00077122,0.00040896,1.74639850,0.00000000,1.03657357,0.00021941,0.00179880,0.00030849,0.00081791,5.18286784,0.00000000,2.91066417
11.700,3,1,1,-528.258,193.016,46.356,-7.383,-3.731,-4.379,3.004,12.032,nan,1.420105,0.034391,0.305690,0.127439,0.252490,1.061546,-0.226525,0.610399,0.728091,68.871838,-45.158052,100.000000,23.713786,nan,0.000000,0.000000,0.000000,0.000000,0.000000,0.000000,0.000000,0.000000,0.000000,0.000000,0.000000,0.000000,2.79898341,0.00307216,0.00364947,0.00077660,0.00040955,1.74652307,0.00000000,1.04455256,0.00021944,0.00182473,0.00031064,0.00081909,5.22276282,0.00000000,2.91087179
11.800,3,1,1,-528.195,193.029,46.294,-7.866,-3.751,-4.482,3.384,12.347,nan,1.374511,0.056066,0.690674,0.127220,0.251434,1.048698,-0.204167,0.628058,0.731515,68.745539,-44.850708,100.000000,23.894831,nan,0.000000,0.000000,0.000000,0.000000,0.000000,0.000000,0.000000,0.000000,0.000000,0.000000,0.000000,0.000000,2.80987092,0.00307350,0.00371648,0.00081293,0.00041018,1.74673239,0.00000000,1.05512543,0.00021954,0.00185824,0.00032517,0.00082036,5.27562716,0.00000000,2.91122065
11.900,3,1,1,-528.132,193.040,46.232,-8.487,-3.770,-4.609,3.878,-23.105,nan,1.347790,0.073963,0.365157,0.127632,0.250434,1.033633,-0.295364,0.646582,0.734677,68.574716,-38.211242,100.000000,30.363474,nan,0.000000,0.000000,0.000000,0.000000,0.000000,0.000000,0.000000,0.000000,0.000000,0.000000,0.000000,0.000000,2.82114424,0.00307583,0.00378156,0.00082308,0.00041151,1.74700719,0.00000000,1.06604506,0.00021970,0.00189078,0.00032923,0.00082302,5.33022531,0.00000000,2.91167865
12.000,3,1,1,-528.068,193.051,46.169,-9.108,-3.789,-4.736,4.372,-22.560,nan,1.333290,0.087887,-0.266075,0.128353,0.249485,1.013318,-0.343036,0.664473,0.737531,68.397539,-37.832899,100.000000,30.564640,nan,0.000000,0.000000,0.000000,0.000000,0.000000,0.000000,0.000000,0.000000,0.000000,0.000000,0.000000,0.000000,2.83250600,0.00307913,0.00384414,0.00082848,0.00041330,1.74735667,0.00000000,1.07698428,0.00021994,0.00192207,0.00033139,0.00082661,5.38492142,0.00000000,2.91226111
12.127,3,1,1,-528.068,193.051,46.169,-9.108,-3.789,-4.736,4.372,-22.560,nan,1.333290,0.087887,-0.266075,0.130608,0.248301,1.013318,-0.343036,0.690495,0.741063,68.353156,-37.612810,100.000000,30.740346,nan,0.000000,0.000000,0.000000,0.000000,0.000000,0.000000,0.000000,0.000000,0.000000,0.000000,0.000000,0.000000,2.84692507,0.00308330,0.00392350,0.00083532,0.00041558,1.74779976,0.00000000,1.09086761,0.00022024,0.00196175,0.00033413,0.00083115,5.45433806,0.00000000,2.91299960
12.200,3,1,1,-527.972,193.066,46.074,-10.154,-3.816,-4.946,5.208,-22.460,nan,1.379640,0.117461,0.093571,0.130303,0.247702,0.954600,-0.455976,0.698126,0.742577,68.053851,-36.964895,100.000000,31.088956,nan,0.000000,0.000000,0.000000,0.000000,0.000000,0.000000,0.000000,0.000000,0.000000,0.000000,0.000000,0.000000,2.85536071,0.00308761,0.00396412,0.00083580,0.00041789,1.74816249,0.00000000,1.09889278,0.00022054,0.00198206,0.00033432,0.00083579,5.49446392,0.00000000,2.91360415
12.300,3,1,1,-527.908,193.075,46.011,-10.621,-3.832,-5.044,5.576,13.550,nan,1.338849,0.134098,0.050979,0.131806,0.246966,0.916479,-0.466027,0.712478,0.744207,67.939948,-42.797239,100.000000,25.142708,nan,0.000000,0.000000,0.000000,0.000000,0.000000,0.000000,0.000000,0.000000,0.000000,0.000000,0.000000,0.000000,2.86661896,0.00309528,0.00401527,0.00083600,0.00042120,1.74873061,0.00000000,1.10952060,0.00022109,0.00200764,0.00033440,0.00084240,5.54760299,0.00000000,2.91455101
12.400,3,1,1,-527.844,193.084,45.948,-11.085,-3.848,-5.142,5.944,12.605,nan,1.314055,0.149151,0.251799,0.133618,0.246311,0.877180,-0.501533,0.725410,0.745413,67.798621,-42.161725,100.000000,25.636896,nan,0.000000,0.000000,0.000000,0.000000,0.000000,0.000000,0.000000,0.000000,0.000000,0.000000,0.000000,0.000000,2.87798740,0.00310476,0.00406215,0.00084083,0.00042503,1.74937628,0.00000000,1.12017834,0.00022177,0.00203108,0.00033633,0.00085006,5.60089169,0.00000000,2.91562714
12.500,3,1,1,-527.780,193.092,45.884,-11.698,-3.864,-5.266,6.432,-23.319,nan,1.312176,0.157231,0.228116,0.135308,0.245707,0.838888,-0.530213,0.737129,0.746233,67.625482,-35.319091,100.000000,32.306391,nan,0.000000,0.000000,0.000000,0.000000,0.000000,0.000000,0.000000,0.000000,0.000000,0.000000,0.000000,0.000000,2.88984953,0.00311531,0.00410503,0.00084479,0.00042931,1.75013246,0.00000000,1.13122263,0.00022252,0.00205251,0.00033792,0.00085863,5.65611313,0.00000000,2.91688744
12.600,3,1,1,-527.716,193.099,45.821,-12.309,-3.878,-5.389,6.921,-23.778,nan,1.295026,0.161300,-0.032123,0.136870,0.245134,0.798806,-0.525158,0.747610,0.746679,67.456014,-34.637202,100.000000,32.818812,nan,0.000000,0.000000,0.000000,0.000000,0.000000,0.000000,0.000000,0.000000,0.000000,0.000000,0.000000,0.000000,2.90185425,0.00312640,0.00414390,0.00084487,0.00043351,1.75100770,0.00000000,1.14229787,0.00022331,0.00207195,0.00033795,0.00086703,5.71148936,0.00000000,2.91834616
12.728,3,1,1,-527.716,193.099,45.821,-12.309,-3.878,-5.389,6.921,-23.778,nan,1.295026,0.161300,-0.032123,0.138586,0.244412,0.798806,-0.525158,0.767360,0.747239,67.421949,-34.262522,100.000000,33.159427,nan,0.000000,0.000000,0.000000,0.000000,0.000000,0.000000,0.000000,0.000000,0.000000,0.000000,0.000000,0.000000,2.91723822,0.00314059,0.00419361,0.00084497,0.00043889,1.75212720,0.00000000,1.15649295,0.00022433,0.00209681,0.00033799,0.00087777,5.78246477,0.00000000,2.92021200
12.800,3,1,1,-527.587,193.112,45.693,-13.221,-3.906,-5.578,7.643,14.539,nan,1.369828,0.176738,0.147759,0.139641,0.244072,0.707245,-0.547526,0.765950,0.747012,67.172361,-40.232070,100.000000,26.940291,nan,0.000000,0.000000,0.000000,0.000000,0.000000,0.000000,0.000000,0.000000,0.000000,0.000000,0.000000,0.000000,2.92577800,0.00315020,0.00421559,0.00084617,0.00044218,1.75289699,0.00000000,1.16422688,0.00022501,0.00210779,0.00033847,0.00088436,5.82113440,0.00000000,2.92149498
12.900,3,1,1,-527.522,193.118,45.629,-13.825,-3.918,-5.699,8.126,-24.150,nan,1.342146,0.180940,0.116401,0.140948,0.243632,0.660568,-0.525062,0.772863,0.746360,67.037641,-32.786278,99.823920,34.251363,nan,0.000000,0.000000,0.000000,0.000000,0.000000,0.000000,0.000000,0.000000,0.000000,0.000000,0.000000,0.000000,2.93817052,0.00316416,0.00424217,0.00084720,0.00044638,1.75410398,0.00000000,1.17536663,0.00022601,0.00212109,0.00033888,0.00089276,5.87683316,0.00000000,2.92350663
13.000,3,1,1,-527.457,193.123,45.564,-14.428,-3.930,-5.819,8.609,-24.609,nan,1.313724,0.177176,-0.125420,0.141892,0.243176,0.614997,-0.489832,0.788479,0.745409,66.883249,-31.963770,98.847019,34.919479,nan,0.000000,0.000000,0.000000,0.000000,0.000000,0.000000,0.000000,0.000000,0.000000,0.000000,0.000000,0.000000,2.95055832,0.00317755,0.00426522,0.00084840,0.00045003,1.75545876,0.00000000,1.18635836,0.00022697,0.00213261,0.00033936,0.00090006,5.93179180,0.00000000,2.92576460
13.100,3,1,1,-527.392,193.127,45.500,-14.871,-3.941,-5.910,8.961,14.596,nan,1.305781,0.171535,-0.174645,0.142688,0.242695,0.569287,-0.542751,0.783862,0.744185,66.748169,-38.110445,100.000000,28.637724,nan,0.000000,0.000000,0.000000,0.000000,0.000000,0.000000,0.000000,0.000000,0.000000,0.000000,0.000000,0.000000,2.96288324,0.00319010,0.00428496,0.00085072,0.00045452,1.75692625,0.00000000,1.19717669,0.00022786,0.00214248,0.00034029,0.00090904,5.98588346,0.00000000,2.92821041
13.226,3,1,1,-527.392,193.127,45.500,-14.871,-3.941,-5.910,8.961,14.596,nan,1.305781,0.171535,-0.174645,0.142193,0.242098,0.569287,-0.542751,0.798598,0.742669,66.752259,-37.539892,100.000000,29.212366,nan,0.000000,0.000000,0.000000,0.000000,0.000000,0.000000,0.000000,0.000000,0.000000,0.000000,0.000000,0.000000,2.97844007,0.00320589,0.00430981,0.00085365,0.00046017,1.75877357,0.00000000,1.21083699,0.00022899,0.00215491,0.00034146,0.00092033,6.05418494,0.00000000,2.93128928
