t,controller_id,state_code,wp_idx,x,y,dist,yaw_deg,yaw_to_wp_deg,yaw_ref_deg,yaw_err_deg,yaw_rate_deg_s,speed_ref,speed_meas,roll_deg,roll_rate_deg_s,roll_rms_window_deg,roll_rms_total_deg,pitch_deg,pitch_rate_deg_s,pitch_rms_window_deg,pitch_rms_total_deg,base_cmd,diff_cmd,T_left,T_right,J_inst,J_goal,J_wave_roll,J_progress,J_smooth,J_mpc_distance,J_mpc_final,J_mpc_heading,J_mpc_wrong_way,J_mpc_pitch,J_mpc_control,J_mpc_slew,J_mpc_turn,J_total,J_roll,J_pitch,J_roll_rate,J_pitch_rate,J_goal_heading,J_no_progress,J_control,I_roll,I_pitch,I_roll_rate,I_pitch_rate,I_control,I_no_progress,I_goal_heading
0.200,3,1,1,-531.995,189.990,49.995,55.963,0.011,9.337,-46.626,0.358,nan,0.045873,0.114891,2.448006,0.114891,0.114891,0.476948,2.308762,0.476948,0.476948,58.944721,-55.478607,8.000000,3.466113,nan,0.000000,0.000000,0.000000,0.000000,0.000000,0.000000,0.000000,0.000000,0.000000,0.000000,0.000000,0.000000,0.03923248,0.00000547,0.00001347,0.00044355,0.00007890,0.03861721,0.00000000,0.00007388,0.00000039,0.00000673,0.00017742,0.00015781,0.00036939,0.00000000,0.06436201
0.444,3,1,1,-531.995,189.990,49.995,55.963,0.011,9.337,-46.626,0.358,nan,0.045873,0.114891,2.448006,0.114891,0.114891,0.476948,2.308762,0.476948,0.476948,57.351394,-59.869928,16.000000,-2.518533,nan,0.000000,0.000000,0.000000,0.000000,0.000000,0.000000,0.000000,0.000000,0.000000,0.000000,0.000000,0.000000,0.13824874,0.00001922,0.00004731,0.00155784,0.00027713,0.13563282,0.00000000,0.00071442,0.00000137,0.00002365,0.00062314,0.00055426,0.00357211,0.00000000,0.22605471
0.500,3,1,1,-531.988,189.980,49.988,55.802,0.023,9.322,-46.480,-0.201,nan,0.168320,0.801854,2.626361,0.472359,0.318911,1.182742,2.921366,0.786095,0.626180,57.391145,-60.686527,24.000000,-3.295382,nan,0.000000,0.000000,0.000000,0.000000,0.000000,0.000000,0.000000,0.000000,0.000000,0.000000,0.000000,0.000000,0.16118187,0.00017226,0.00009488,0.00185103,0.00034968,0.15767203,0.00000000,0.00104198,0.00001230,0.00004744,0.00074041,0.00069937,0.00520990,0.00000000,0.26278672
0.600,3,1,1,-531.984,189.976,49.984,55.727,0.027,9.313,-46.414,-0.501,nan,0.139104,1.040064,2.361685,0.661646,0.546671,1.462903,2.869491,0.999240,0.862398,54.641703,-62.385547,32.000000,-7.743844,nan,0.000000,0.000000,0.000000,0.000000,0.000000,0.000000,0.000000,0.000000,0.000000,0.000000,0.000000,0.000000,0.20278773,0.00063365,0.00022528,0.00227585,0.00047511,0.19705173,0.00000000,0.00212610,0.00004526,0.00011264,0.00091034,0.00095023,0.01063052,0.00000000,0.32841955
0.700,3,1,1,-531.980,189.974,49.980,55.629,0.030,9.300,-46.330,-1.561,nan,0.116084,1.252333,2.075762,0.814793,0.715089,1.721179,2.480210,1.179523,1.055996,53.130631,-63.936578,40.000000,-10.805947,nan,0.000000,0.000000,0.000000,0.000000,0.000000,0.000000,0.000000,0.000000,0.000000,0.000000,0.000000,0.000000,0.24498788,0.00130220,0.00040568,0.00260384,0.00056876,0.23626526,0.00000000,0.00384213,0.00009301,0.00020284,0.00104154,0.00113753,0.01921063,0.00000000,0.39377543
0.800,3,1,1,-531.978,189.972,49.978,55.517,0.032,9.283,-46.234,-1.762,nan,0.098166,1.415207,2.936593,0.941829,0.851687,1.902887,3.026037,1.327740,1.214375,51.912370,-65.628813,48.000000,-13.716443,nan,0.000000,0.000000,0.000000,0.000000,0.000000,0.000000,0.000000,0.000000,0.000000,0.000000,0.000000,0.000000,0.28843792,0.00215669,0.00062638,0.00326084,0.00070829,0.27535039,0.00000000,0.00633533,0.00015405,0.00031319,0.00130434,0.00141658,0.03167664,0.00000000,0.45891732
0.924,3,1,1,-531.978,189.972,49.978,55.517,0.032,9.283,-46.234,-1.762,nan,0.098166,1.415207,2.936593,1.022955,0.958353,1.902887,3.026037,1.424196,1.341303,50.892284,-67.842497,56.000000,-16.950214,nan,0.000000,0.000000,0.000000,0.000000,0.000000,0.000000,0.000000,0.000000,0.000000,0.000000,0.000000,0.000000,0.34350648,0.00321694,0.00090022,0.00407605,0.00088142,0.32384708,0.00000000,0.01058477,0.00022978,0.00045011,0.00163042,0.00176283,0.05292384,0.00000000,0.53974514
1.000,3,1,1,-531.974,189.968,49.974,55.172,0.036,9.230,-45.942,-2.392,nan,0.070440,1.726073,1.249262,1.134922,1.045279,2.169758,1.010311,1.537294,1.430004,50.311237,-68.903002,64.000000,-18.591765,nan,0.000000,0.000000,0.000000,0.000000,0.000000,0.000000,0.000000,0.000000,0.000000,0.000000,0.000000,0.000000,0.37740471,0.00418025,0.00111767,0.00416616,0.00089320,0.35309513,0.00000000,0.01395229,0.00029859,0.00055884,0.00166646,0.00178640,0.06976143,0.00000000,0.58849189
1.100,3,1,1,-531.972,189.968,49.972,54.929,0.037,9.190,-45.739,-2.850,nan,0.054907,1.859479,1.059023,1.236575,1.153174,2.293472,1.136319,1.638638,1.538626,49.497356,-70.466836,72.000000,-20.000000,nan,0.000000,0.000000,0.000000,0.000000,0.000000,0.000000,0.000000,0.000000,0.000000,0.000000,0.000000,0.000000,0.42312922,0.00565494,0.00143816,0.00425158,0.00091287,0.39133496,0.00000000,0.01953672,0.00040392,0.00071908,0.00170063,0.00182574,0.09768358,0.00000000,0.65222494
1.200,3,1,1,-531.971,189.969,49.971,54.638,0.035,9.140,-45.498,-2.707,nan,0.046787,1.954348,0.608038,1.325954,1.247696,2.422122,1.018029,1.733000,1.639004,48.776612,-71.812391,80.000000,-20.000000,nan,0.000000,0.000000,0.000000,0.000000,0.000000,0.000000,0.000000,0.000000,0.000000,0.000000,0.000000,0.000000,0.46979667,0.00728390,0.00179560,0.00427973,0.00092866,0.42917169,0.00000000,0.02633710,0.00052028,0.00089780,0.00171189,0.00185731,0.13168551,0.00000000,0.71528614
1.300,3,1,1,-531.970,189.973,49.970,54.298,0.031,9.080,-45.217,-2.994,nan,0.052542,2.005833,0.505243,1.401457,1.327693,2.533585,1.421758,1.820388,1.731505,48.152007,-71.595881,88.000000,-20.000000,nan,0.000000,0.000000,0.000000,0.000000,0.000000,0.000000,0.000000,0.000000,0.000000,0.000000,0.000000,0.000000,0.51746236,0.00899955,0.00218663,0.00429917,0.00095944,0.46653728,0.00000000,0.03448029,0.00064282,0.00109331,0.00171967,0.00191888,0.17240143,0.00000000,0.77756214
1.400,3,1,1,-531.970,189.977,49.970,53.908,0.026,9.011,-44.897,-3.538,nan,0.067762,2.022024,0.054155,1.463258,1.393595,2.601121,0.652013,1.897757,1.813458,47.632235,-71.310553,96.000000,-20.000000,nan,0.000000,0.000000,0.000000,0.000000,0.000000,0.000000,0.000000,0.000000,0.000000,0.000000,0.000000,0.000000,0.56609219,0.01074355,0.00259891,0.00429939,0.00096592,0.50338611,0.00000000,0.04409831,0.00076740,0.00129946,0.00171976,0.00193183,0.22049154,0.00000000,0.83897685
1.525,3,1,1,-531.970,189.977,49.970,53.908,0.026,9.011,-44.897,-3.538,nan,0.067762,2.022024,0.054155,1.513581,1.459737,2.601121,0.652013,1.960839,1.895879,47.139952,-71.310553,100.000000,-20.000000,nan,0.000000,0.000000,0.000000,0.000000,0.000000,0.000000,0.000000,0.000000,0.000000,0.000000,0.000000,0.000000,0.62786837,0.01292386,0.00311434,0.00429967,0.00097401,0.54945362,0.00000000,0.05710287,0.00092313,0.00155717,0.00171987,0.00194803,0.28551433,0.00000000,0.91575603
1.600,3,1,1,-531.970,189.990,49.970,52.978,0.011,8.843,-44.135,-5.200,nan,0.574373,1.972652,-0.533897,1.550885,1.489621,2.585546,-0.446138,2.011905,1.936256,46.908037,-70.568749,100.000000,-20.000000,nan,0.000000,0.000000,0.000000,0.000000,0.000000,0.000000,0.000000,0.000000,0.000000,0.000000,0.000000,0.000000,0.66391656,0.01416774,0.00341961,0.00431594,0.00097629,0.57613889,0.00000000,0.06489809,0.00101198,0.00170981,0.00172638,0.00195257,0.32449044,0.00000000,0.96023148
1.700,3,1,1,-531.971,190.000,49.971,52.445,0.000,8.745,-43.700,-4.841,nan,0.400165,1.897321,-1.204521,1.576351,1.518355,2.525652,-0.925439,2.050164,1.978307,46.700133,-70.372968,100.000000,-20.000000,nan,0.000000,0.000000,0.000000,0.000000,0.000000,0.000000,0.000000,0.000000,0.000000,0.000000,0.000000,0.000000,0.71125216,0.01570244,0.00380811,0.00442640,0.00098933,0.61103113,0.00000000,0.07529475,0.00112160,0.00190406,0.00177056,0.00197865,0.37647377,0.00000000,1.01838522
1.800,3,1,1,-531.971,190.011,49.971,51.873,-0.013,8.639,-43.234,-5.944,nan,0.320407,1.783535,-1.489616,1.590091,1.535250,2.439799,-1.135801,2.076659,2.008439,46.589364,-69.904110,100.000000,-20.000000,nan,0.000000,0.000000,0.000000,0.000000,0.000000,0.000000,0.000000,0.000000,0.000000,0.000000,0.000000,0.000000,0.75771966,0.01705891,0.00417074,0.00459537,0.00100897,0.64519177,0.00000000,0.08569390,0.00121849,0.00208537,0.00183815,0.00201795,0.42846948,0.00000000,1.07531962
1.900,3,1,1,-531.972,190.024,49.972,51.268,-0.027,8.526,-42.742,-5.987,nan,0.289315,1.639590,-1.879302,1.593045,1.541242,2.323635,-1.585582,2.091994,2.027269,46.572606,-69.604554,100.000000,-20.000000,nan,0.000000,0.000000,0.000000,0.000000,0.000000,0.000000,0.000000,0.000000,0.000000,0.000000,0.000000,0.000000,0.80329971,0.01820554,0.00449973,0.00486437,0.00104727,0.67858722,0.00000000,0.09609557,0.00130040,0.00224987,0.00194575,0.00209454,0.48047784,0.00000000,1.13097870
2.000,3,1,1,-531.973,190.038,49.973,50.633,-0.044,8.406,-42.227,-5.873,nan,0.285962,1.475949,-2.070361,1.586767,1.537867,2.174163,-1.959904,2.096643,2.035284,46.642808,-69.318783,100.000000,-20.000000,nan,0.000000,0.000000,0.000000,0.000000,0.000000,0.000000,0.000000,0.000000,0.000000,0.000000,0.000000,0.000000,0.84793507,0.01913547,0.00478800,0.00519112,0.00110583,0.71120892,0.00000000,0.10650573,0.00136682,0.00239400,0.00207645,0.00221167,0.53252864,0.00000000,1.18534821
2.124,3,1,1,-531.973,190.038,49.973,50.633,-0.044,8.406,-42.227,-5.873,nan,0.285962,1.475949,-2.070361,1.581128,1.534155,2.174163,-1.959904,2.100795,2.044041,46.673386,-69.318783,100.000000,-20.000000,nan,0.000000,0.000000,0.000000,0.000000,0.000000,0.000000,0.000000,0.000000,0.000000,0.000000,0.000000,0.000000,0.90299695,0.02028263,0.00514360,0.00559419,0.00117807,0.75145084,0.00000000,0.11934763,0.00144876,0.00257180,0.00223768,0.00235615,0.59673815,0.00000000,1.25241806
2.200,3,1,1,-531.973,190.071,49.973,49.373,-0.082,8.164,-41.209,-6.575,nan,0.819986,1.119597,-3.470458,1.561295,1.521020,1.816331,-3.466041,2.087492,2.036183,46.922141,-68.592040,100.000000,-20.000000,nan,0.000000,0.000000,0.000000,0.000000,0.000000,0.000000,0.000000,0.000000,0.000000,0.000000,0.000000,0.000000,0.93609893,0.02069155,0.00529735,0.00629582,0.00131804,0.77519295,0.00000000,0.12730321,0.00147797,0.00264867,0.00251833,0.00263609,0.63651605,0.00000000,1.29198826
2.300,3,1,1,-531.973,190.090,49.973,48.673,-0.103,8.030,-40.643,-6.875,nan,0.620758,0.902548,-2.835987,1.536344,1.498435,1.591786,-2.977120,2.066585,2.018090,47.186290,-68.204169,100.000000,-20.000000,nan,0.000000,0.000000,0.000000,0.000000,0.000000,0.000000,0.000000,0.000000,0.000000,0.000000,0.000000,0.000000,0.97792452,0.02103882,0.00545166,0.00690809,0.00145299,0.80537354,0.00000000,0.13769942,0.00150277,0.00272583,0.00276324,0.00290598,0.68849709,0.00000000,1.34228924
2.400,3,1,1,-531.973,190.110,49.973,47.957,-0.126,7.891,-40.065,-7.491,nan,0.520041,0.672772,-3.106537,1.507859,1.472157,1.341346,-3.546102,2.039223,1.993412,47.497316,-67.753709,100.000000,-20.000000,nan,0.000000,0.000000,0.000000,0.000000,0.000000,0.000000,0.000000,0.000000,0.000000,0.000000,0.000000,0.000000,1.01890459,0.02123190,0.00556131,0.00764324,0.00164457,0.83472113,0.00000000,0.14810244,0.00151656,0.00278065,0.00305729,0.00328914,0.74051220,0.00000000,1.39120189
2.500,3,1,1,-531.972,190.131,49.972,47.226,-0.150,7.749,-39.476,-6.775,nan,0.472864,0.439675,-3.293797,1.477562,1.443932,1.064174,-4.073154,2.006706,1.963472,47.843961,-67.528976,100.000000,-19.685015,nan,0.000000,0.000000,0.000000,0.000000,0.000000,0.000000,0.000000,0.000000,0.000000,0.000000,0.000000,0.000000,1.05898672,0.02131431,0.00563027,0.00846907,0.00189715,0.86319064,0.00000000,0.15848529,0.00152245,0.00281513,0.00338763,0.00379429,0.79242644,0.00000000,1.43865106
2.600,3,1,1,-531.970,190.153,49.970,46.482,-0.175,7.605,-38.878,-6.976,nan,0.454253,0.208460,-3.923322,1.447078,1.415330,0.766715,-5.226180,1.970679,1.929853,48.213506,-67.138869,100.000000,-18.925363,nan,0.000000,0.000000,0.000000,0.000000,0.000000,0.000000,0.000000,0.000000,0.000000,0.000000,0.000000,0.000000,1.09862631,0.02133285,0.00566610,0.00964168,0.00231329,0.89082539,0.00000000,0.16884701,0.00152377,0.00283305,0.00385667,0.00462658,0.84423504,0.00000000,1.48470898
2.720,3,1,1,-531.970,190.153,49.970,46.482,-0.175,7.605,-38.878,-6.976,nan,0.454253,0.208460,-3.923322,1.418454,1.383224,0.766715,-5.226180,1.936942,1.892229,48.458735,-67.138869,100.000000,-18.680134,nan,0.000000,0.000000,0.000000,0.000000,0.000000,0.000000,0.000000,0.000000,0.000000,0.000000,0.000000,0.000000,1.14616424,0.02135508,0.00570907,0.01104826,0.00281247,0.92397419,0.00000000,0.18126517,0.00152536,0.00285454,0.00441930,0.00562493,0.90632585,0.00000000,1.53995699
2.800,3,1,1,-531.964,190.200,49.964,44.967,-0.230,7.308,-37.659,-7.004,nan,0.762479,-0.247837,-2.902634,1.391757,1.363229,0.158856,-3.873509,1.899584,1.864162,48.961073,-66.410803,100.000000,-17.449730,nan,0.000000,0.000000,0.000000,0.000000,0.000000,0.000000,0.000000,0.000000,0.000000,0.000000,0.000000,0.000000,1.17585606,0.02137604,0.00571030,0.01156144,0.00299524,0.94470614,0.00000000,0.18950690,0.00152686,0.00285515,0.00462457,0.00599049,0.94753452,0.00000000,1.57451023
2.900,3,1,1,-531.959,190.225,49.960,44.198,-0.259,7.156,-37.042,-7.119,nan,0.657970,-0.466602,-2.512030,1.368690,1.341546,-0.135764,-3.439922,1.864258,1.830721,49.325574,-66.024570,100.000000,-16.698996,nan,0.000000,0.000000,0.000000,0.000000,0.000000,0.000000,0.000000,0.000000,0.000000,0.000000,0.000000,0.000000,1.21196295,0.02146887,0.00571142,0.01204193,0.00317545,0.96978091,0.00000000,0.19978437,0.00153349,0.00285571,0.00481677,0.00635090,0.99892187,0.00000000,1.61630151
3.000,3,1,1,-531.953,190.252,49.954,43.424,-0.289,7.002,-36.421,-7.635,nan,0.598249,-0.670612,-2.640543,1.349989,1.324066,-0.423533,-3.849418,1.832413,1.800570,49.666583,-65.566217,100.000000,-15.899634,nan,0.000000,0.000000,0.000000,0.000000,0.000000,0.000000,0.000000,0.000000,0.000000,0.000000,0.000000,0.000000,1.24741770,0.02166065,0.00572235,0.01257288,0.00340113,0.99402414,0.00000000,0.21003655,0.00154719,0.00286118,0.00502915,0.00680225,1.05018277,0.00000000,1.65670690
3.100,3,1,1,-531.946,190.279,49.947,42.646,-0.320,6.847,-35.798,-8.623,nan,0.577580,-0.855925,-2.283716,1.335997,1.311141,-0.704628,-3.579978,1.805291,1.774944,49.976427,-65.024137,100.000000,-15.047710,nan,0.000000,0.000000,0.000000,0.000000,0.000000,0.000000,0.000000,0.000000,0.000000,0.000000,0.000000,0.000000,1.28201020,0.02197316,0.00575261,0.01297015,0.00359638,1.01745244,0.00000000,0.22026547,0.00156951,0.00287630,0.00518806,0.00719275,1.10132736,0.00000000,1.69575407
3.200,3,1,1,-531.938,190.307,49.939,41.866,-0.352,6.692,-35.174,-6.732,nan,0.576298,-1.022619,-1.688658,1.326744,1.302826,-0.974472,-2.791505,1.783842,1.754816,50.250355,-64.983679,100.000000,-14.733324,nan,0.000000,0.000000,0.000000,0.000000,0.000000,0.000000,0.000000,0.000000,0.000000,0.000000,0.000000,0.000000,1.31567382,0.02241905,0.00581045,0.01318727,0.00371504,1.04006126,0.00000000,0.23048074,0.00160136,0.00290522,0.00527491,0.00743008,1.15240370,0.00000000,1.73343544
3.329,3,1,1,-531.938,190.307,49.939,41.866,-0.352,6.692,-35.174,-6.732,nan,0.576298,-1.022619,-1.688658,1.318029,1.292766,-0.974472,-2.791505,1.763541,1.730328,50.344231,-64.983679,100.000000,-14.639448,nan,0.000000,0.000000,0.000000,0.000000,0.000000,0.000000,0.000000,0.000000,0.000000,0.000000,0.000000,0.000000,1.35920167,0.02299565,0.00588525,0.01346804,0.00386849,1.06929740,0.00000000,0.24368684,0.00164255,0.00294262,0.00538721,0.00773698,1.21843420,0.00000000,1.78216233
3.400,3,1,1,-531.917,190.365,49.919,40.298,-0.419,6.377,-33.922,-7.807,nan,2.005617,-1.299565,-1.278109,1.317456,1.292912,-1.447110,-2.263831,1.754517,1.724742,50.717481,-64.052890,100.000000,-13.335409,nan,0.000000,0.000000,0.000000,0.000000,0.000000,0.000000,0.000000,0.000000,0.000000,0.000000,0.000000,0.000000,1.38200916,0.02350487,0.00597545,0.01355599,0.00392368,1.08416651,0.00000000,0.25088267,0.00167892,0.00298772,0.00542240,0.00784736,1.25441333,0.00000000,1.80694418
3.500,3,1,1,-531.905,190.395,49.906,39.514,-0.454,6.218,-33.296,-7.047,nan,1.408803,-1.404390,-1.000799,1.320175,1.296330,-1.637527,-1.882580,1.751086,1.722238,50.878510,-63.813967,100.000000,-12.935457,nan,0.000000,0.000000,0.000000,0.000000,0.000000,0.000000,0.000000,0.000000,0.000000,0.000000,0.000000,0.000000,1.41357141,0.02434594,0.00613880,0.01363226,0.00397766,1.10442735,0.00000000,0.26104940,0.00173900,0.00306940,0.00545290,0.00795531,1.30524698,0.00000000,1.84071225
3.600,3,1,1,-531.890,190.426,49.892,38.729,-0.489,6.059,-32.670,-7.377,nan,1.086252,-1.482967,-0.723378,1.325248,1.302040,-1.794255,-1.513468,1.752371,1.724340,51.009165,-63.385279,100.000000,-12.376114,nan,0.000000,0.000000,0.000000,0.000000,0.000000,0.000000,0.000000,0.000000,0.000000,0.000000,0.000000,0.000000,1.44445025,0.02528409,0.00633500,0.01367212,0.00401255,1.12394095,0.00000000,0.27120554,0.00180601,0.00316750,0.00546885,0.00802511,1.35602771,0.00000000,1.87323491
3.700,3,1,1,-531.875,190.457,49.877,37.943,-0.526,5.899,-32.044,-7.420,nan,0.913838,-1.536350,-0.458645,1.331744,1.309119,-1.915383,-1.126635,1.757238,1.729935,51.116901,-63.006196,100.000000,-11.889296,nan,0.000000,0.000000,0.000000,0.000000,0.000000,0.000000,0.000000,0.000000,0.000000,0.000000,0.000000,0.000000,1.47461605,0.02629043,0.00655844,0.01368814,0.00403188,1.14270304,0.00000000,0.28134412,0.00187789,0.00327922,0.00547525,0.00806376,1.40672059,0.00000000,1.90450507
3.800,3,1,1,-531.857,190.490,49.860,37.157,-0.563,5.739,-31.419,-7.735,nan,0.829425,-1.567189,-0.205855,1.338844,1.316765,-1.997756,-0.652824,1.764362,1.737722,51.209125,-62.580007,100.000000,-11.370882,nan,0.000000,0.000000,0.000000,0.000000,0.000000,0.000000,0.000000,0.000000,0.000000,0.000000,0.000000,0.000000,1.50408929,0.02733793,0.00680161,0.01369136,0.00403837,1.16074593,0.00000000,0.29147408,0.00195271,0.00340080,0.00547655,0.00807674,1.45737042,0.00000000,1.93457655
3.919,3,1,1,-531.857,190.490,49.860,37.157,-0.563,5.739,-31.419,-7.735,nan,0.829425,-1.567189,-0.205855,1.345525,1.325303,-1.997756,-0.652824,1.771075,1.746430,51.151639,-62.580007,100.000000,-11.428368,nan,0.000000,0.000000,0.000000,0.000000,0.000000,0.000000,0.000000,0.000000,0.000000,0.000000,0.000000,0.000000,1.53921937,0.02858643,0.00709143,0.01369521,0.00404611,1.18225086,0.00000000,0.30354933,0.00204189,0.00354571,0.00547808,0.00809222,1.51774667,0.00000000,1.97041811
4.000,3,1,1,-531.818,190.556,49.821,35.591,-0.639,5.417,-30.173,-7.004,nan,0.930631,-1.563715,0.245972,1.351718,1.330679,-2.036332,0.239451,1.778562,1.752926,51.379465,-61.968475,100.000000,-10.589009,nan,0.000000,0.000000,0.000000,0.000000,0.000000,0.000000,0.000000,0.000000,0.000000,0.000000,0.000000,0.000000,1.56188333,0.02942890,0.00729553,0.01369893,0.00404681,1.19569419,0.00000000,0.31171897,0.00210206,0.00364776,0.00547957,0.00809363,1.55859483,0.00000000,1.99282364
4.100,3,1,1,-531.796,190.589,49.799,34.806,-0.678,5.256,-29.550,-7.692,nan,0.867734,-1.528193,0.474941,1.356530,1.335978,-1.993074,0.637333,1.784384,1.759336,51.467807,-61.478755,100.000000,-10.010948,nan,0.000000,0.000000,0.000000,0.000000,0.000000,0.000000,0.000000,0.000000,0.000000,0.000000,0.000000,0.000000,1.58921315,0.03042517,0.00753761,0.01371612,0.00405300,1.21165887,0.00000000,0.32182237,0.00217323,0.00376881,0.00548645,0.00810601,1.60911184,0.00000000,2.01943146
4.200,3,1,1,-531.772,190.623,49.776,34.087,-0.717,5.105,-28.982,-6.331,nan,0.840700,-1.477193,0.695965,1.359677,1.339603,-1.918514,1.073088,1.787860,1.763393,51.555240,-61.379127,100.000000,-9.823887,nan,0.000000,0.000000,0.000000,0.000000,0.000000,0.000000,0.000000,0.000000,0.000000,0.000000,0.000000,0.000000,1.61587405,0.03135587,0.00776188,0.01375301,0.00407054,1.22701264,0.00000000,0.33192011,0.00223971,0.00388094,0.00550120,0.00814109,1.65960054,0.00000000,2.04502106
4.300,3,1,1,-531.747,190.658,49.751,33.304,-0.757,4.943,-28.361,-7.520,nan,0.837739,-1.404766,0.867206,1.377579,1.341191,-1.800490,1.485824,1.808812,1.764285,51.669229,-60.803096,100.000000,-9.133866,nan,0.000000,0.000000,0.000000,0.000000,0.000000,0.000000,0.000000,0.000000,0.000000,0.000000,0.000000,0.000000,1.64177840,0.03219712,0.00795930,0.01381026,0.00410416,1.24170795,0.00000000,0.34199962,0.00229979,0.00397965,0.00552410,0.00820831,1.70999811,0.00000000,2.06951324
4.400,3,1,1,-531.720,190.692,49.725,32.522,-0.798,4.781,-27.741,-8.480,nan,0.853376,-1.318011,0.959608,1.376157,1.340656,-1.643777,1.789000,1.804967,1.761574,51.657070,-60.267707,100.000000,-8.610637,nan,0.000000,0.000000,0.000000,0.000000,0.000000,0.000000,0.000000,0.000000,0.000000,0.000000,0.000000,0.000000,1.66694651,0.03293808,0.00812395,0.01388040,0.00415291,1.25577568,0.00000000,0.35207549,0.00235272,0.00406197,0.00555216,0.00830582,1.76037746,0.00000000,2.09295947
4.520,3,1,1,-531.720,190.692,49.725,32.522,-0.798,4.781,-27.741,-8.480,nan,0.853376,-1.318011,0.959608,1.402918,1.340047,-1.643777,1.789000,1.834732,1.758482,51.672886,-60.267707,100.000000,-8.594821,nan,0.000000,0.000000,0.000000,0.000000,0.000000,0.000000,0.000000,0.000000,0.000000,0.000000,0.000000,0.000000,1.69710378,0.03382593,0.00832123,0.01396444,0.00421133,1.27263230,0.00000000,0.36414854,0.00241614,0.00416062,0.00558578,0.00842266,1.82074271,0.00000000,2.12105383
4.600,3,1,1,-531.662,190.762,49.667,30.967,-0.879,4.458,-26.509,-7.563,nan,0.952232,-1.106157,1.259020,1.396430,1.336238,-1.219576,2.627257,1.822201,1.750334,51.724599,-59.696729,100.000000,-7.972130,nan,0.000000,0.000000,0.000000,0.000000,0.000000,0.000000,0.000000,0.000000,0.000000,0.000000,0.000000,0.000000,1.71612842,0.03424400,0.00839383,0.01406115,0.00429556,1.28292262,0.00000000,0.37221126,0.00244600,0.00419692,0.00562446,0.00859112,1.86105632,0.00000000,2.13820436
4.700,3,1,1,-531.630,190.797,49.637,30.189,-0.921,4.296,-25.893,-7.907,nan,0.945223,-0.983754,1.329537,1.398825,1.329564,-0.960041,2.865195,1.816289,1.736969,51.926846,-59.270902,100.000000,-7.344056,nan,0.000000,0.000000,0.000000,0.000000,0.000000,0.000000,0.000000,0.000000,0.000000,0.000000,0.000000,0.000000,1.73917050,0.03465683,0.00845000,0.01419581,0.00442063,1.29517938,0.00000000,0.38226786,0.00247549,0.00422500,0.00567832,0.00884126,1.91133932,0.00000000,2.15863230
4.800,3,1,1,-531.597,190.833,49.604,29.411,-0.962,4.134,-25.277,-7.606,nan,0.951987,-0.854539,1.353245,1.388091,1.321233,-0.675869,3.017528,1.797105,1.721211,52.059504,-58.958263,100.000000,-6.898759,nan,0.000000,0.000000,0.000000,0.000000,0.000000,0.000000,0.000000,0.000000,0.000000,0.000000,0.000000,0.000000,1.76150793,0.03496817,0.00847782,0.01433523,0.00455928,1.30685450,0.00000000,0.39231293,0.00249773,0.00423891,0.00573409,0.00911856,1.96156467,0.00000000,2.17809083
4.900,3,1,1,-531.563,190.868,49.571,28.639,-1.003,3.973,-24.666,-7.004,nan,0.961608,-0.721635,1.369396,1.375009,1.311534,-0.371564,3.187492,1.773312,1.704021,52.300612,-58.700441,100.000000,-6.399828,nan,0.000000,0.000000,0.000000,0.000000,0.000000,0.000000,0.000000,0.000000,0.000000,0.000000,0.000000,0.000000,1.78319797,0.03519027,0.00848623,0.01447804,0.00471403,1.31797500,0.00000000,0.40235440,0.00251359,0.00424312,0.00579122,0.00942807,2.01177198,0.00000000,2.19662500
5.000,3,1,1,-531.528,190.903,49.536,27.868,-1.045,3.812,-24.056,-8.981,nan,0.975082,-0.587021,1.383920,1.360222,1.300782,-0.051129,3.348296,1.748252,1.686548,52.565551,-57.993485,100.000000,-5.427935,nan,0.000000,0.000000,0.000000,0.000000,0.000000,0.000000,0.000000,0.000000,0.000000,0.000000,0.000000,0.000000,1.80426834,0.03533723,0.00848639,0.01462390,0.00488479,1.32855198,0.00000000,0.41238405,0.00252409,0.00424320,0.00584956,0.00976958,2.06192023,0.00000000,2.21425331
5.123,3,1,1,-531.528,190.903,49.536,27.868,-1.045,3.812,-24.056,-8.981,nan,0.975082,-0.587021,1.383920,1.320663,1.288066,-0.051129,3.348296,1.698135,1.665837,52.706879,-57.993485,100.000000,-5.286606,nan,0.000000,0.000000,0.000000,0.000000,0.000000,0.000000,0.000000,0.000000,0.000000,0.000000,0.000000,0.000000,1.83010671,0.03551745,0.00848659,0.01480278,0.00509420,1.34152337,0.00000000,0.42468233,0.00253696,0.00424329,0.00592111,0.01018841,2.12341164,0.00000000,2.23587228
5.200,3,1,1,-531.454,190.973,49.463,26.324,-1.127,3.489,-22.835,-7.663,nan,1.109929,-0.318216,1.288221,1.284988,1.278852,0.619392,3.330731,1.657283,1.654904,53.334065,-57.498930,100.000000,-4.164865,nan,0.000000,0.000000,0.000000,0.000000,0.000000,0.000000,0.000000,0.000000,0.000000,0.000000,0.000000,0.000000,1.84551408,0.03555087,0.00850467,0.01490058,0.00522496,1.34889859,0.00000000,0.43243440,0.00253935,0.00425234,0.00596023,0.01044993,2.16217202,0.00000000,2.24816432
5.300,3,1,1,-531.415,191.008,49.426,25.559,-1.168,3.329,-22.230,-7.477,nan,1.075663,-0.187586,1.316298,1.245588,1.266756,0.958429,3.472561,1.615263,1.644290,53.782324,-57.172238,100.000000,-3.389914,nan,0.000000,0.000000,0.000000,0.000000,0.000000,0.000000,0.000000,0.000000,0.000000,0.000000,0.000000,0.000000,1.86494289,0.03556588,0.00856063,0.01503252,0.00540862,1.35792991,0.00000000,0.44244533,0.00254042,0.00428032,0.00601301,0.01081723,2.21222664,0.00000000,2.26321652
5.400,3,1,1,-531.396,191.024,49.407,24.886,-1.188,3.201,-21.685,-7.047,nan,1.077397,-0.077507,1.246090,1.203921,1.254775,1.252786,3.359568,1.574537,1.637759,54.245968,-56.923938,100.000000,-2.677970,nan,0.000000,0.000000,0.000000,0.000000,0.000000,0.000000,0.000000,0.000000,0.000000,0.000000,0.000000,0.000000,1.88395316,0.03556844,0.00865635,0.01515089,0.00558071,1.36653361,0.00000000,0.45246315,0.00254060,0.00432818,0.00606036,0.01116141,2.26231574,0.00000000,2.27755602
5.500,3,1,1,-531.357,191.059,49.368,24.122,-1.229,3.041,-21.081,-7.878,nan,1.072680,0.040771,1.065672,1.189165,1.243109,1.578361,3.057800,1.574630,1.636678,54.738681,-56.420245,100.000000,-1.681564,nan,0.000000,0.000000,0.000000,0.000000,0.000000,0.000000,0.000000,0.000000,0.000000,0.000000,0.000000,0.000000,1.90245864,0.03556915,0.00880812,0.01523737,0.00572311,1.37465536,0.00000000,0.46246553,0.00254065,0.00440406,0.00609495,0.01144622,2.31232764,0.00000000,2.29109227
5.622,3,1,1,-531.357,191.059,49.368,24.122,-1.229,3.041,-21.081,-7.878,nan,1.072680,0.040771,1.065672,1.118039,1.229343,1.578361,3.057800,1.505807,1.635415,54.837867,-56.420245,100.000000,-1.582377,nan,0.000000,0.000000,0.000000,0.000000,0.000000,0.000000,0.000000,0.000000,0.000000,0.000000,0.000000,0.000000,1.92497841,0.03557001,0.00899281,0.01534261,0.00589641,1.38453908,0.00000000,0.47463748,0.00254072,0.00449641,0.00613705,0.01179282,2.37318739,0.00000000,2.30756513
5.700,3,1,1,-531.276,191.126,49.288,22.608,-1.310,2.725,-19.884,-5.171,nan,1.167492,0.254909,0.911639,1.077794,1.221093,2.182913,2.665879,1.492350,1.644325,55.723005,-56.182514,100.000000,-0.459509,nan,0.000000,0.000000,0.000000,0.000000,0.000000,0.000000,0.000000,0.000000,0.000000,0.000000,0.000000,0.000000,1.93883924,0.03559170,0.00921995,0.01539213,0.00598110,1.39019273,0.00000000,0.48246163,0.00254226,0.00460997,0.00615685,0.01196220,2.41230816,0.00000000,2.31698788
5.800,3,1,1,-531.234,191.160,49.248,21.852,-1.349,2.567,-19.286,-7.978,nan,1.132522,0.348331,0.839416,1.041704,1.211200,2.452396,2.427292,1.492867,1.661913,56.161925,-55.337544,100.000000,0.824381,nan,0.000000,0.000000,0.000000,0.000000,0.000000,0.000000,0.000000,0.000000,0.000000,0.000000,0.000000,0.000000,1.95621336,0.03564348,0.00958666,0.01544584,0.00607091,1.39699607,0.00000000,0.49247041,0.00254596,0.00479333,0.00617833,0.01214182,2.46235205,0.00000000,2.32832678
5.900,3,1,1,-531.193,191.193,49.207,21.099,-1.389,2.409,-18.690,-7.964,nan,1.110544,0.429493,0.715369,1.011213,1.202034,2.693764,2.279641,1.508336,1.685072,56.547743,-54.986551,100.000000,1.561192,nan,0.000000,0.000000,0.000000,0.000000,0.000000,0.000000,0.000000,0.000000,0.000000,0.000000,0.000000,0.000000,1.97323559,0.03572213,0.01002865,0.01548480,0.00615004,1.40337916,0.00000000,0.50247081,0.00255158,0.00501432,0.00619392,0.01230009,2.51235404,0.00000000,2.33896526
6.000,3,1,1,-531.151,191.225,49.166,20.354,-1.428,2.254,-18.100,-6.790,nan,1.099402,0.503726,0.646688,0.987135,1.193602,2.903481,1.771789,1.538720,1.712975,56.867281,-54.841372,100.000000,2.025909,nan,0.000000,0.000000,0.000000,0.000000,0.000000,0.000000,0.000000,0.000000,0.000000,0.000000,0.000000,0.000000,1.98993107,0.03583036,0.01054232,0.01551665,0.00619786,1.40936760,0.00000000,0.51247628,0.00255931,0.00527116,0.00620666,0.01239573,2.56238139,0.00000000,2.34894600
6.122,3,1,1,-531.151,191.225,49.166,20.354,-1.428,2.254,-18.100,-6.790,nan,1.099402,0.503726,0.646688,0.978191,1.183622,2.903481,1.771789,1.586041,1.745174,56.974986,-54.841372,100.000000,2.133614,nan,0.000000,0.000000,0.000000,0.000000,0.000000,0.000000,0.000000,0.000000,0.000000,0.000000,0.000000,0.000000,2.01028937,0.03596233,0.01116866,0.01555549,0.00625617,1.41666965,0.00000000,0.52467707,0.00256874,0.00558433,0.00622220,0.01251234,2.62338533,0.00000000,2.36111608
6.200,3,1,1,-531.067,191.288,49.084,18.868,-1.504,1.944,-16.924,-7.176,nan,1.154167,0.624738,0.463581,0.951177,1.178144,3.219051,1.160198,1.623829,1.771806,57.227457,-54.076311,100.000000,3.151146,nan,0.000000,0.000000,0.000000,0.000000,0.000000,0.000000,0.000000,0.000000,0.000000,0.000000,0.000000,0.000000,2.02284003,0.03609224,0.01166141,0.01556827,0.00627217,1.42075586,0.00000000,0.53249008,0.00257802,0.00583071,0.00622731,0.01254435,2.66245040,0.00000000,2.36792643
6.300,3,1,1,-531.026,191.319,49.043,18.129,-1.541,1.790,-16.339,-8.265,nan,1.107183,0.666318,0.280934,0.946294,1.171663,3.321044,0.798804,1.687960,1.807371,57.480935,-53.538776,100.000000,3.942159,nan,0.000000,0.000000,0.000000,0.000000,0.000000,0.000000,0.000000,0.000000,0.000000,0.000000,0.000000,0.000000,2.03860909,0.03628155,0.01233324,0.01557428,0.00628189,1.42563421,0.00000000,0.54250392,0.00259154,0.00616662,0.00622971,0.01256378,2.71251958,0.00000000,2.37605702
6.400,3,1,1,-530.984,191.350,49.003,17.396,-1.578,1.637,-15.759,-6.217,nan,1.084311,0.698377,0.278385,0.946758,1.165645,3.383227,0.424124,1.757949,1.842979,57.531271,-53.551957,100.000000,3.979314,nan,0.000000,0.000000,0.000000,0.000000,0.000000,0.000000,0.000000,0.000000,0.000000,0.000000,0.000000,0.000000,2.05408862,0.03648970,0.01303108,0.01558018,0.00628463,1.43017623,0.00000000,0.55252680,0.00260641,0.00651554,0.00623207,0.01256927,2.76263399,0.00000000,2.38362705
6.500,3,1,1,-530.943,191.380,48.962,16.667,-1.615,1.486,-15.181,-7.105,nan,1.067624,0.724246,0.283008,0.951121,1.160043,3.404704,0.020964,1.830812,1.877386,57.532631,-53.054078,100.000000,4.478553,nan,0.000000,0.000000,0.000000,0.000000,0.000000,0.000000,0.000000,0.000000,0.000000,0.000000,0.000000,0.000000,2.06924461,0.03671321,0.01373673,0.01558628,0.00628464,1.43438497,0.00000000,0.56253878,0.00262237,0.00686837,0.00623451,0.01256928,2.81269390,0.00000000,2.39064161
6.600,3,1,1,-530.902,191.409,48.922,15.937,-1.651,1.334,-14.603,-7.105,nan,1.050753,0.743228,0.150219,0.957786,1.154769,3.385618,-0.357643,1.903611,1.909643,57.501271,-52.710827,100.000000,4.790444,nan,0.000000,0.000000,0.000000,0.000000,0.000000,0.000000,0.000000,0.000000,0.000000,0.000000,0.000000,0.000000,2.08410075,0.03694876,0.01443498,0.01558800,0.00628659,1.43828183,0.00000000,0.57256060,0.00263920,0.00721749,0.00623520,0.01257318,2.86280298,0.00000000,2.39713639
6.722,3,1,1,-530.902,191.409,48.922,15.937,-1.651,1.334,-14.603,-7.105,nan,1.050753,0.743228,0.150219,0.964405,1.148511,3.385618,-0.357643,1.973727,1.947038,57.316906,-52.710827,100.000000,4.606078,nan,0.000000,0.000000,0.000000,0.000000,0.000000,0.000000,0.000000,0.000000,0.000000,0.000000,0.000000,0.000000,2.10224666,0.03723650,0.01528796,0.01559009,0.00628897,1.44304218,0.00000000,0.58480096,0.00265975,0.00764398,0.00623604,0.01257793,2.92400481,0.00000000,2.40507030
6.800,3,1,1,-530.821,191.467,48.843,14.489,-1.721,1.034,-13.455,-6.188,nan,1.054471,0.755759,-0.013776,0.970990,1.144719,3.229580,-0.774678,2.038559,1.966762,57.408564,-52.189624,100.000000,5.218940,nan,0.000000,0.000000,0.000000,0.000000,0.000000,0.000000,0.000000,0.000000,0.000000,0.000000,0.000000,0.000000,2.11332334,0.03742618,0.01578279,0.01559011,0.00629609,1.44561878,0.00000000,0.59260940,0.00267330,0.00789139,0.00623604,0.01259217,2.96304699,0.00000000,2.40936463
6.900,3,1,1,-530.781,191.495,48.803,13.770,-1.755,0.885,-12.885,-6.775,nan,1.024520,0.750439,-0.007037,0.975427,1.139910,3.095889,-1.042933,2.096396,1.988016,57.373372,-51.748930,100.000000,5.624442,nan,0.000000,0.000000,0.000000,0.000000,0.000000,0.000000,0.000000,0.000000,0.000000,0.000000,0.000000,0.000000,2.12722227,0.03766622,0.01636638,0.01559011,0.00631264,1.44865152,0.00000000,0.60263540,0.00269044,0.00818319,0.00623604,0.01262529,3.01317698,0.00000000,2.41441920
7.000,3,1,1,-530.740,191.523,48.764,13.050,-1.789,0.736,-12.314,-7.663,nan,1.005073,0.740564,-0.086137,0.976691,1.135122,2.927707,-1.464560,2.145851,2.004795,57.365977,-51.255130,100.000000,6.110847,nan,0.000000,0.000000,0.000000,0.000000,0.000000,0.000000,0.000000,0.000000,0.000000,0.000000,0.000000,0.000000,2.14082506,0.03790018,0.01688876,0.01559067,0.00634532,1.45142401,0.00000000,0.61267610,0.00270716,0.00844438,0.00623627,0.01269065,3.06338050,0.00000000,2.41904002
7.100,3,1,1,-530.701,191.550,48.725,12.333,-1.823,0.588,-11.745,-7.606,nan,0.991711,0.727848,-0.152576,0.974092,1.130337,2.727520,-1.592422,2.185921,2.016946,57.395523,-50.927372,100.000000,6.468151,nan,0.000000,0.000000,0.000000,0.000000,0.000000,0.000000,0.000000,0.000000,0.000000,0.000000,0.000000,0.000000,2.15410485,0.03812606,0.01734189,0.01559245,0.00638394,1.45394481,0.00000000,0.62271571,0.00272329,0.00867095,0.00623698,0.01276787,3.11357854,0.00000000,2.42324135
7.200,3,1,1,-530.661,191.577,48.686,11.621,-1.856,0.440,-11.181,-6.417,nan,0.980801,0.711629,-0.139082,0.967146,1.125512,2.498389,-1.791929,2.215978,2.024537,57.468201,-50.799795,100.000000,6.668406,nan,0.000000,0.000000,0.000000,0.000000,0.000000,0.000000,0.000000,0.000000,0.000000,0.000000,0.000000,0.000000,2.16710251,0.03834239,0.01772281,0.01559392,0.00643293,1.45623347,0.00000000,0.63277699,0.00273874,0.00886141,0.00623757,0.01286585,3.16388496,0.00000000,2.42705579
7.325,3,1,1,-530.661,191.577,48.686,11.621,-1.856,0.440,-11.181,-6.417,nan,0.980801,0.711629,-0.139082,0.961722,1.119684,2.498389,-1.791929,2.223293,2.033626,57.457966,-50.799795,100.000000,6.658171,nan,0.000000,0.000000,0.000000,0.000000,0.000000,0.000000,0.000000,0.000000,0.000000,0.000000,0.000000,0.000000,2.18322871,0.03861079,0.01819542,0.01559575,0.00649371,1.45907305,0.00000000,0.64525999,0.00275791,0.00909771,0.00623830,0.01298741,3.22629995,0.00000000,2.43178841
7.400,3,1,1,-530.581,191.629,48.608,10.345,-1.921,0.172,-10.173,-6.603,nan,0.873426,0.669955,-0.196690,0.943868,1.115955,2.024756,-2.703773,2.256769,2.033534,57.716666,-50.168867,100.000000,7.547799,nan,0.000000,0.000000,0.000000,0.000000,0.000000,0.000000,0.000000,0.000000,0.000000,0.000000,0.000000,0.000000,2.19267939,0.03875547,0.01838420,0.01559798,0.00657786,1.46050263,0.00000000,0.65286126,0.00276825,0.00919210,0.00623919,0.01315572,3.26430629,0.00000000,2.43417105
7.500,3,1,1,-530.541,191.655,48.569,9.636,-1.953,0.026,-9.610,-7.792,nan,0.894198,0.642151,-0.262522,0.922978,1.110900,1.734597,-2.795841,2.258581,2.029788,57.906407,-49.627165,100.000000,8.279242,nan,0.000000,0.000000,0.000000,0.000000,0.000000,0.000000,0.000000,0.000000,0.000000,0.000000,0.000000,0.000000,2.20491472,0.03893125,0.01856744,0.01560323,0.00669687,1.46218991,0.00000000,0.66292602,0.00278080,0.00928372,0.00624129,0.01339374,3.31463009,0.00000000,2.43698318
7.600,3,1,1,-530.501,191.680,48.530,8.929,-1.984,-0.120,-9.049,-7.663,nan,0.906878,0.613774,-0.342925,0.916678,1.105741,1.430208,-3.142667,2.242021,2.022961,58.178637,-49.316498,100.000000,8.862139,nan,0.000000,0.000000,0.000000,0.000000,0.000000,0.000000,0.000000,0.000000,0.000000,0.000000,0.000000,0.000000,2.21693255,0.03909189,0.01869204,0.01561218,0.00684727,1.46368623,0.00000000,0.67300294,0.00279228,0.00934602,0.00624487,0.01369455,3.36501471,0.00000000,2.43947706
7.700,3,1,1,-530.460,191.705,48.490,8.229,-2.015,-0.264,-8.492,-6.474,nan,0.906922,0.585177,-0.300752,0.869412,1.100489,1.116074,-3.238348,2.238586,2.013677,58.385293,-49.193554,100.000000,9.191739,nan,0.000000,0.000000,0.000000,0.000000,0.000000,0.000000,0.000000,0.000000,0.000000,0.000000,0.000000,0.000000,2.22872549,0.03923794,0.01876794,0.01561907,0.00700702,1.46500459,0.00000000,0.68308892,0.00280271,0.00938397,0.00624763,0.01401404,3.41544461,0.00000000,2.44167432
7.800,3,1,1,-530.419,191.730,48.450,7.530,-2.046,-0.407,-7.938,-6.861,nan,0.936142,0.554486,-0.255190,0.863099,1.095144,0.797068,-3.021076,2.214618,2.002620,58.850913,-48.796689,100.000000,10.054223,nan,0.000000,0.000000,0.000000,0.000000,0.000000,0.000000,0.000000,0.000000,0.000000,0.000000,0.000000,0.000000,2.24028767,0.03936901,0.01880663,0.01562403,0.00714598,1.46615579,0.00000000,0.69318624,0.00281207,0.00940331,0.00624961,0.01429196,3.46593118,0.00000000,2.44359298
7.922,3,1,1,-530.419,191.730,48.450,7.530,-2.046,-0.407,-7.938,-6.861,nan,0.936142,0.554486,-0.255190,0.805262,1.088801,0.797068,-3.021076,2.200791,1.989488,58.942236,-48.796689,100.000000,10.145546,nan,0.000000,0.000000,0.000000,0.000000,0.000000,0.000000,0.000000,0.000000,0.000000,0.000000,0.000000,0.000000,2.25433599,0.03952824,0.01885363,0.01563005,0.00731479,1.46755430,0.00000000,0.70545498,0.00282345,0.00942682,0.00625202,0.01462958,3.52727491,0.00000000,2.44592383
8.000,3,1,1,-530.335,191.777,48.368,6.135,-2.106,-0.694,-6.829,-7.405,nan,2.200989,0.485360,-0.314195,0.798985,1.084453,0.163180,-2.960824,2.173936,1.979636,59.636394,-48.043134,100.000000,11.593260,nan,0.000000,0.000000,0.000000,0.000000,0.000000,0.000000,0.000000,0.000000,0.000000,0.000000,0.000000,0.000000,2.26315732,0.03960716,0.01885490,0.01563596,0.00741967,1.46822388,0.00000000,0.71341575,0.00282908,0.00942745,0.00625438,0.01483935,3.56707874,0.00000000,2.44703980
8.100,3,1,1,-530.292,191.801,48.325,5.445,-2.135,-0.836,-6.281,-5.343,nan,1.668798,0.449305,-0.339888,0.734757,1.078820,-0.143074,-2.900960,2.154456,1.967279,59.864981,-48.077201,100.000000,11.787780,nan,0.000000,0.000000,0.000000,0.000000,0.000000,0.000000,0.000000,0.000000,0.000000,0.000000,0.000000,0.000000,2.27424628,0.03969329,0.01885615,0.01564476,0.00754791,1.46894516,0.00000000,0.72355902,0.00283523,0.00942808,0.00625790,0.01509581,3.61779510,0.00000000,2.44824193
8.200,3,1,1,-530.248,191.823,48.282,4.758,-2.164,-0.977,-5.734,-6.016,nan,1.370530,0.413307,-0.401698,0.699704,1.073119,-0.436802,-2.802383,2.134112,1.955691,60.486338,-47.635045,100.000000,12.851293,nan,0.000000,0.000000,0.000000,0.000000,0.000000,0.000000,0.000000,0.000000,0.000000,0.000000,0.000000,0.000000,2.28523358,0.03976617,0.01886778,0.01565705,0.00766757,1.46954641,0.00000000,0.73372860,0.00284044,0.00943389,0.00626282,0.01533514,3.66864298,0.00000000,2.44924402
8.300,3,1,1,-530.203,191.846,48.239,4.070,-2.193,-1.117,-5.188,-7.248,nan,1.199224,0.376205,-0.375519,0.666176,1.067365,-0.713988,-2.627641,2.118050,1.945331,60.906457,-47.095121,100.000000,13.811336,nan,0.000000,0.000000,0.000000,0.000000,0.000000,0.000000,0.000000,0.000000,0.000000,0.000000,0.000000,0.000000,2.29611713,0.03982649,0.01889882,0.01566778,0.00777267,1.47003800,0.00000000,0.74391337,0.00284475,0.00944941,0.00626711,0.01554534,3.71956684,0.00000000,2.45006334
8.426,3,1,1,-530.203,191.846,48.239,4.070,-2.193,-1.117,-5.188,-7.248,nan,1.199224,0.376205,-0.375519,0.635531,1.060255,-0.713988,-2.627641,2.105072,1.932528,61.175870,-47.095121,100.000000,14.080748,nan,0.000000,0.000000,0.000000,0.000000,0.000000,0.000000,0.000000,0.000000,0.000000,0.000000,0.000000,0.000000,2.30986949,0.03990266,0.01893801,0.01568134,0.00790538,1.47065874,0.00000000,0.75678336,0.00285019,0.00946901,0.00627253,0.01581077,3.78391681,0.00000000,2.45109790
8.500,3,1,1,-530.111,191.889,48.148,2.709,-2.249,-1.396,-4.105,-6.890,nan,4.327949,0.294329,-0.396183,0.629414,1.055945,-1.204488,-2.041433,2.087734,1.927325,61.682766,-46.513817,100.000000,15.168949,nan,0.000000,0.000000,0.000000,0.000000,0.000000,0.000000,0.000000,0.000000,0.000000,0.000000,0.000000,0.000000,2.31779795,0.03992993,0.01900327,0.01569016,0.00795225,1.47088612,0.00000000,0.76433621,0.00285214,0.00950164,0.00627606,0.01590449,3.82168106,0.00000000,2.45147687
8.600,3,1,1,-530.063,191.910,48.101,2.035,-2.276,-1.534,-3.569,-6.388,nan,2.895181,0.250804,-0.326973,0.577598,1.050053,-1.411342,-1.413200,2.100634,1.922048,61.892762,-46.282495,100.000000,15.610267,nan,0.000000,0.000000,0.000000,0.000000,0.000000,0.000000,0.000000,0.000000,0.000000,0.000000,0.000000,0.000000,2.32848370,0.03995682,0.01912488,0.01569832,0.00798273,1.47111943,0.00000000,0.77460153,0.00285406,0.00956244,0.00627933,0.01596546,3.87300764,0.00000000,2.45186571
8.700,3,1,1,-530.014,191.931,48.053,1.362,-2.303,-1.671,-3.033,-6.661,nan,2.089692,0.206396,-0.412597,0.557217,1.044179,-1.589104,-1.511029,2.110154,1.918515,62.365925,-45.916001,100.000000,16.449923,nan,0.000000,0.000000,0.000000,0.000000,0.000000,0.000000,0.000000,0.000000,0.000000,0.000000,0.000000,0.000000,2.33911695,0.03997494,0.01927836,0.01571125,0.00801742,1.47128716,0.00000000,0.78484781,0.00285535,0.00963918,0.00628450,0.01603484,3.92423903,0.00000000,2.45214527
8.800,3,1,1,-529.965,191.951,48.004,0.692,-2.329,-1.808,-2.500,-6.388,nan,1.656910,0.160125,-0.441382,0.541180,1.038300,-1.735799,-1.265615,2.125243,1.916513,62.622358,-45.645976,100.000000,16.976381,nan,0.000000,0.000000,0.000000,0.000000,0.000000,0.000000,0.000000,0.000000,0.000000,0.000000,0.000000,0.000000,2.34975470,0.03998588,0.01946195,0.01572609,0.00804182,1.47140138,0.00000000,0.79513758,0.00285613,0.00973098,0.00629044,0.01608364,3.97568789,0.00000000,2.45233563
8.919,3,1,1,-529.965,191.951,48.004,0.692,-2.329,-1.808,-2.500,-6.388,nan,1.656910,0.160125,-0.441382,0.529620,1.031441,-1.735799,-1.265615,2.142086,1.914189,62.705121,-45.645976,100.000000,17.059144,nan,0.000000,0.000000,0.000000,0.000000,0.000000,0.000000,0.000000,0.000000,0.000000,0.000000,0.000000,0.000000,2.36240707,0.03999888,0.01968025,0.01574374,0.00807083,1.47153719,0.00000000,0.80737617,0.00285706,0.00984013,0.00629749,0.01614167,4.03688087,0.00000000,2.45256199
9.000,3,1,1,-529.862,191.989,47.903,-0.581,-2.379,-2.069,-1.488,-6.618,nan,1.735369,0.063752,-0.526311,0.521521,1.026746,-1.925287,-0.693334,2.163593,1.914290,63.001482,-45.003245,100.000000,17.998236,nan,0.000000,0.000000,0.000000,0.000000,0.000000,0.000000,0.000000,0.000000,0.000000,0.000000,0.000000,0.000000,2.37102231,0.04000029,0.01986345,0.01576085,0.00807677,1.47157002,0.00000000,0.81575094,0.00285716,0.00993172,0.00630434,0.01615355,4.07875470,0.00000000,2.45261670
9.100,3,1,1,-529.808,192.007,47.850,-1.288,-2.404,-2.211,-0.922,-6.503,nan,1.483122,0.005686,-0.506034,0.515123,1.021021,-1.976956,-0.288528,2.159233,1.914999,63.153434,-44.685983,100.000000,18.467451,nan,0.000000,0.000000,0.000000,0.000000,0.000000,0.000000,0.000000,0.000000,0.000000,0.000000,0.000000,0.000000,2.38164469,0.04000030,0.02010171,0.01578036,0.00807804,1.47158558,0.00000000,0.82609870,0.00285716,0.01005086,0.00631214,0.01615608,4.13049349,0.00000000,2.45264263
9.200,3,1,1,-529.754,192.024,47.797,-1.888,-2.427,-2.334,-0.446,-5.987,nan,1.350665,-0.045029,-0.553940,0.510773,1.015404,-1.989781,-0.004331,2.206392,1.915837,63.325976,-44.491923,100.000000,18.834053,nan,0.000000,0.000000,0.000000,0.000000,0.000000,0.000000,0.000000,0.000000,0.000000,0.000000,0.000000,0.000000,2.39226885,0.04000117,0.02034293,0.01580373,0.00807804,1.47158922,0.00000000,0.83645377,0.00285723,0.01017146,0.00632149,0.01615609,4.18226883,0.00000000,2.45264869
9.300,3,1,1,-529.699,192.041,47.742,-2.540,-2.450,-2.466,0.074,-6.990,nan,1.267710,-0.101095,-0.467457,0.510162,1.009928,-1.971562,0.267833,2.223146,1.916451,63.348756,-44.003290,100.000000,19.345466,nan,0.000000,0.000000,0.000000,0.000000,0.000000,0.000000,0.000000,0.000000,0.000000,0.000000,0.000000,0.000000,2.40289532,0.04000552,0.02057959,0.01582036,0.00807913,1.47158932,0.00000000,0.84682140,0.00285754,0.01028980,0.00632814,0.01615827,4.23410699,0.00000000,2.45264886
9.421,3,1,1,-529.699,192.041,47.742,-2.540,-2.450,-2.466,0.074,-6.990,nan,1.267710,-0.101095,-0.467457,0.510265,1.003434,-1.971562,0.267833,2.236139,1.917175,63.317521,-43.999814,100.000000,19.317707,nan,0.000000,0.000000,0.000000,0.000000,0.000000,0.000000,0.000000,0.000000,0.000000,0.000000,0.000000,0.000000,2.41572233,0.04001078,0.02086529,0.01584044,0.00808045,1.47158944,0.00000000,0.85933593,0.00285791,0.01043264,0.00633617,0.01616091,4.29667964,0.00000000,2.45264906
9.500,3,1,1,-529.584,192.073,47.629,-3.830,-2.494,-2.726,1.104,-6.016,nan,1.593392,-0.218206,-0.589133,0.511390,0.999387,-1.838312,0.950784,2.241098,1.916522,63.035565,-43.519854,100.000000,19.515711,nan,0.000000,0.000000,0.000000,0.000000,0.000000,0.000000,0.000000,0.000000,0.000000,0.000000,0.000000,0.000000,2.42419550,0.04002691,0.02102879,0.01586143,0.00809139,1.47160714,0.00000000,0.86757985,0.00285906,0.01051440,0.00634457,0.01618277,4.33789926,0.00000000,2.45267856
9.600,3,1,1,-529.526,192.087,47.572,-4.468,-2.515,-2.854,1.614,-4.584,nan,1.440349,-0.278395,-0.511086,0.506982,0.994524,-1.726213,1.046998,2.229955,1.914617,62.891547,-43.401663,100.000000,19.489884,nan,0.000000,0.000000,0.000000,0.000000,0.000000,0.000000,0.000000,0.000000,0.000000,0.000000,0.000000,0.000000,2.43486809,0.04005994,0.02121023,0.01588131,0.00810807,1.47165473,0.00000000,0.87795381,0.00286142,0.01060511,0.00635252,0.01621615,4.38976906,0.00000000,2.45275788
9.700,3,1,1,-529.466,192.101,47.513,-5.108,-2.535,-2.982,2.126,-6.861,nan,1.352470,-0.338089,-0.536045,0.514440,0.989932,-1.586550,1.354820,2.231264,1.911490,62.820367,-42.614003,100.000000,20.206364,nan,0.000000,0.000000,0.000000,0.000000,0.000000,0.000000,0.000000,0.000000,0.000000,0.000000,0.000000,0.000000,2.44560992,0.04010868,0.02136357,0.01590319,0.00813603,1.47173735,0.00000000,0.88836111,0.00286491,0.01068178,0.00636128,0.01627206,4.44180553,0.00000000,2.45289558
9.800,3,1,1,-529.406,192.114,47.453,-5.746,-2.554,-3.109,2.637,-6.618,nan,1.307252,-0.396857,-0.515890,0.511894,0.985638,-1.421924,1.565923,2.215045,1.907082,62.638858,-42.246532,100.000000,20.392326,nan,0.000000,0.000000,0.000000,0.000000,0.000000,0.000000,0.000000,0.000000,0.000000,0.000000,0.000000,0.000000,2.45640110,0.04017585,0.02148675,0.01592346,0.00817338,1.47186443,0.00000000,0.89877724,0.00286970,0.01074337,0.00636938,0.01634675,4.49388619,0.00000000,2.45310738
9.900,3,1,1,-529.344,192.127,47.392,-6.376,-2.572,-3.235,3.142,-4.884,nan,1.291458,-0.454256,-0.490906,0.513915,0.981668,-1.235102,1.764969,2.190192,1.901423,62.566764,-42.121863,100.000000,20.444902,nan,0.000000,0.000000,0.000000,0.000000,0.000000,0.000000,0.000000,0.000000,0.000000,0.000000,0.000000,0.000000,2.46724676,0.04026385,0.02157969,0.01594181,0.00822082,1.47204482,0.00000000,0.90919576,0.00287599,0.01078985,0.00637672,0.01644165,4.54597881,0.00000000,2.45340803
10.021,3,1,1,-529.344,192.127,47.392,-6.376,-2.572,-3.235,3.142,-4.884,nan,1.291458,-0.454256,-0.490906,0.514699,0.976965,-1.235102,1.764969,2.136080,1.894726,62.604622,-41.973124,100.000000,20.631498,nan,0.000000,0.000000,0.000000,0.000000,0.000000,0.000000,0.000000,0.000000,0.000000,0.000000,0.000000,0.000000,2.48034063,0.04037003,0.02169182,0.01596395,0.00827807,1.47226244,0.00000000,0.92177432,0.00288357,0.01084591,0.00638558,0.01655614,4.60887160,0.00000000,2.45377074
10.100,3,1,1,-529.219,192.149,47.268,-7.635,-2.605,-3.483,4.151,-6.732,nan,1.647571,-0.562575,-0.443073,0.515919,0.974372,-0.806272,1.912131,2.113624,1.888563,62.463421,-40.909346,100.000000,21.554075,nan,0.000000,0.000000,0.000000,0.000000,0.000000,0.000000,0.000000,0.000000,0.000000,0.000000,0.000000,0.000000,2.48908140,0.04047704,0.02172322,0.01597580,0.00832222,1.47251214,0.00000000,0.93007097,0.00289122,0.01086161,0.00639032,0.01664444,4.65035486,0.00000000,2.45418690
10.200,3,1,1,-529.155,192.158,47.204,-8.263,-2.621,-3.607,4.656,-5.944,nan,1.496196,-0.612157,-0.438143,0.518772,0.971445,-0.570517,2.157847,2.066332,1.880039,62.376973,-40.554499,100.000000,21.822474,nan,0.000000,0.000000,0.000000,0.000000,0.000000,0.000000,0.000000,0.000000,0.000000,0.000000,0.000000,0.000000,2.50022782,0.04063697,0.02174307,0.01599044,0.00839319,1.47290870,0.00000000,0.94055545,0.00290264,0.01087153,0.00639617,0.01678639,4.70277727,0.00000000,2.45484783
10.300,3,1,1,-529.091,192.167,47.141,-8.884,-2.635,-3.728,5.155,-5.371,nan,1.408923,-0.656431,-0.329672,0.519725,0.968855,-0.324965,1.950650,2.004885,1.871083,62.331968,-40.143194,100.000000,22.188774,nan,0.000000,0.000000,0.000000,0.000000,0.000000,0.000000,0.000000,0.000000,0.000000,0.000000,0.000000,0.000000,2.51145148,0.04082056,0.02174949,0.01599870,0.00845109,1.47339400,0.00000000,0.95103764,0.00291575,0.01087475,0.00639948,0.01690219,4.75518818,0.00000000,2.45565666
10.400,3,1,1,-529.026,192.175,47.076,-9.502,-2.648,-3.849,5.653,-5.615,nan,1.366243,-0.695051,-0.296060,0.520642,0.966570,-0.072971,2.154264,1.936669,1.861991,62.329753,-39.566198,100.000000,22.763555,nan,0.000000,0.000000,0.000000,0.000000,0.000000,0.000000,0.000000,0.000000,0.000000,0.000000,0.000000,0.000000,2.52283524,0.04102654,0.02174982,0.01600538,0.00852176,1.47397802,0.00000000,0.96155372,0.00293047,0.01087491,0.00640215,0.01704353,4.80776859,0.00000000,2.45663004
10.500,3,1,1,-528.961,192.182,47.011,-10.052,-2.660,-3.956,6.095,-6.331,nan,1.342960,-0.724742,-0.334307,0.515432,0.964530,0.151339,2.531023,1.808057,1.853065,62.355225,-38.918384,100.000000,23.436842,nan,0.000000,0.000000,0.000000,0.000000,0.000000,0.000000,0.000000,0.000000,0.000000,0.000000,0.000000,0.000000,2.53440844,0.04125080,0.02175122,0.01601390,0.00861945,1.47465786,0.00000000,0.97211522,0.00294649,0.01087561,0.00640556,0.01723889,4.86057608,0.00000000,2.45776310
10.619,3,1,1,-528.961,192.182,47.011,-10.052,-2.660,-3.956,6.095,-6.331,nan,1.342960,-0.724742,-0.334307,0.514773,0.962152,0.151339,2.531023,1.727161,1.842624,62.659009,-38.622072,100.000000,24.036936,nan,0.000000,0.000000,0.000000,0.000000,0.000000,0.000000,0.000000,0.000000,0.000000,0.000000,0.000000,0.000000,2.54819433,0.04151728,0.02175288,0.01602402,0.00873552,1.47546568,0.00000000,0.98469895,0.00296552,0.01087644,0.00640961,0.01747104,4.92349475,0.00000000,2.45910947
10.700,3,1,1,-528.829,192.192,46.880,-11.276,-2.680,-4.192,7.085,-5.959,nan,1.510483,-0.771730,-0.074215,0.522546,0.960839,0.658091,1.709691,1.709061,1.836466,62.584013,-37.818033,100.000000,24.765980,nan,0.000000,0.000000,0.000000,0.000000,0.000000,0.000000,0.000000,0.000000,0.000000,0.000000,0.000000,0.000000,2.55780257,0.04172312,0.02177426,0.01602436,0.00877160,1.47620910,0.00000000,0.99330013,0.00298022,0.01088713,0.00640975,0.01754320,4.96650064,0.00000000,2.46034851
10.800,3,1,1,-528.763,192.196,46.814,-11.889,-2.689,-4.308,7.581,-6.374,nan,1.406860,-0.783797,-0.053838,0.523990,0.959336,0.903496,1.693800,1.631327,1.829950,62.442024,-37.099851,99.541875,25.342173,nan,0.000000,0.000000,0.000000,0.000000,0.000000,0.000000,0.000000,0.000000,0.000000,0.000000,0.000000,0.000000,2.56975701,0.04198506,0.02182398,0.01602458,0.00881529,1.47725930,0.00000000,1.00384880,0.00299893,0.01091199,0.00640983,0.01763057,5.01924402,0.00000000,2.46209883
10.901,3,1,1,-528.728,192.198,46.780,-12.446,-2.693,-4.411,8.035,-4.985,nan,1.359038,-0.786672,0.019931,0.518211,0.957872,1.121365,2.340855,1.502939,1.824623,62.478156,-36.687301,99.165456,25.790855,nan,0.000000,0.000000,0.000000,0.000000,0.000000,0.000000,0.000000,0.000000,0.000000,0.000000,0.000000,0.000000,2.58192278,0.04225035,0.02190099,0.01602462,0.00889918,1.47844539,0.00000000,1.01440226,0.00301788,0.01095049,0.00640985,0.01779836,5.07201130,0.00000000,2.46407565
11.000,3,1,1,-528.662,192.200,46.714,-13.052,-2.700,-4.525,8.527,-6.546,nan,1.331411,-0.781743,0.111324,0.519721,0.956408,1.347152,2.184614,1.445652,1.820824,62.659439,-35.693534,98.352974,26.965905,nan,0.000000,0.000000,0.000000,0.000000,0.000000,0.000000,0.000000,0.000000,0.000000,0.000000,0.000000,0.000000,2.59405373,0.04251004,0.02201116,0.01602556,0.00897161,1.47976958,0.00000000,1.02476579,0.00303643,0.01100558,0.00641022,0.01794322,5.12382893,0.00000000,2.46628263
11.118,3,1,1,-528.662,192.200,46.714,-13.052,-2.700,-4.525,8.527,-6.546,nan,1.331411,-0.781743,0.111324,0.521674,0.954714,1.347152,2.184614,1.396172,1.816423,62.766389,-35.229171,97.995560,27.537218,nan,0.000000,0.000000,0.000000,0.000000,0.000000,0.000000,0.000000,0.000000,0.000000,0.000000,0.000000,0.000000,2.60831353,0.04281629,0.02214108,0.01602666,0.00905703,1.48133115,0.00000000,1.03694131,0.00305831,0.01107054,0.00641067,0.01811406,5.18470654,0.00000000,2.46888526
11.200,3,1,1,-528.529,192.202,46.581,-14.247,-2.710,-4.749,9.498,-5.515,nan,1.250372,-0.744837,0.244146,0.528240,0.953327,1.755202,1.820541,1.406020,1.815977,62.608631,-34.300988,96.909620,28.307643,nan,0.000000,0.000000,0.000000,0.000000,0.000000,0.000000,0.000000,0.000000,0.000000,0.000000,0.000000,0.000000,2.61845393,0.04301102,0.02229555,0.01603040,0.00909857,1.48268814,0.00000000,1.04533024,0.00307222,0.01114778,0.00641216,0.01819715,5.22665121,0.00000000,2.47114690
11.300,3,1,1,-528.463,192.202,46.515,-14.833,-2.713,-4.857,9.976,-4.612,nan,1.278920,-0.712491,0.345567,0.528268,0.951447,1.933191,1.636858,1.384125,1.817056,62.421138,-33.549989,95.971127,28.871150,nan,0.000000,0.000000,0.000000,0.000000,0.000000,0.000000,0.000000,0.000000,0.000000,0.000000,0.000000,0.000000,2.63080550,0.04322741,0.02252314,0.01603949,0.00913937,1.48450624,0.00000000,1.05536984,0.00308767,0.01126157,0.00641580,0.01827873,5.27684922,0.00000000,2.47417707
11.400,3,1,1,-528.397,192.200,46.449,-15.352,-2.715,-4.953,10.399,-6.790,nan,1.272453,-0.676005,0.422237,0.523055,0.949358,2.073536,1.563170,1.346346,1.819487,62.358748,-32.211255,94.570003,30.147494,nan,0.000000,0.000000,0.000000,0.000000,0.000000,0.000000,0.000000,0.000000,0.000000,0.000000,0.000000,0.000000,2.64315186,0.04342246,0.02278530,0.01605308,0.00917661,1.48648420,0.00000000,1.06523021,0.00310160,0.01139265,0.00642123,0.01835322,5.32615105,0.00000000,2.47747367
11.500,3,1,1,-528.332,192.198,46.384,-15.927,-2.716,-5.059,10.868,-4.326,nan,1.286788,-0.626096,0.559515,0.522569,0.947002,2.213446,1.342089,1.363785,1.823313,62.353834,-31.514345,93.868179,30.839489,nan,0.000000,0.000000,0.000000,0.000000,0.000000,0.000000,0.000000,0.000000,0.000000,0.000000,0.000000,0.000000,2.65558649,0.04358959,0.02308370,0.01607691,0.00920404,1.48864239,0.00000000,1.07498986,0.00311354,0.01154185,0.00643077,0.01840808,5.37494931,0.00000000,2.48107065
11.600,3,1,1,-528.267,192.194,46.319,-16.493,-2.715,-5.162,11.332,-5.414,nan,1.297167,-0.567984,0.638024,0.521273,0.944361,2.331276,1.111167,1.394505,1.828340,62.204469,-30.033861,92.238330,32.170609,nan,0.000000,0.000000,0.000000,0.000000,0.000000,0.000000,0.000000,0.000000,0.000000,0.000000,0.000000,0.000000,2.66799455,0.04372716,0.02341480,0.01610791,0.00922284,1.49098926,0.00000000,1.08453256,0.00312337,0.01170740,0.00644317,0.01844569,5.42266281,0.00000000,2.48498210
11.723,3,1,1,-528.267,192.194,46.319,-16.493,-2.715,-5.162,11.332,-5.414,nan,1.297167,-0.567984,0.638024,0.520797,0.941174,2.331276,1.111167,1.431563,1.834370,62.151236,-28.944977,91.096213,33.206259,nan,0.000000,0.000000,0.000000,0.000000,0.000000,0.000000,0.000000,0.000000,0.000000,0.000000,0.000000,0.000000,2.68304308,0.04389595,0.02382101,0.01614594,0.00924591,1.49386843,0.00000000,1.09606584,0.00313542,0.01191050,0.00645838,0.01849183,5.48032922,0.00000000,2.48978071
11.800,3,1,1,-528.138,192.185,46.190,-17.611,-2.711,-5.363,12.248,-5.200,nan,1.199769,-0.428428,0.823982,0.517814,0.938704,2.497843,0.634269,1.479686,1.839544,61.847846,-26.842859,88.690705,35.004986,nan,0.000000,0.000000,0.000000,0.000000,0.000000,0.000000,0.000000,0.000000,0.000000,0.000000,0.000000,0.000000,2.69259636,0.04395650,0.02411505,0.01618594,0.00925065,1.49598951,0.00000000,1.10309870,0.00313975,0.01205753,0.00647438,0.01850131,5.51549348,0.00000000,2.49331586
11.900,3,1,1,-528.075,192.179,46.126,-18.150,-2.708,-5.459,12.691,-4.154,nan,1.233650,-0.348623,0.854136,0.514350,0.935265,2.546268,0.389472,1.514663,1.846676,61.659791,-24.907588,86.567379,36.752203,nan,0.000000,0.000000,0.000000,0.000000,0.000000,0.000000,0.000000,0.000000,0.000000,0.000000,0.000000,0.000000,2.70489723,0.04400837,0.02451031,0.01624154,0.00925297,1.49893500,0.00000000,1.11194905,0.00314345,0.01225515,0.00649661,0.01850593,5.55974527,0.00000000,2.49822500
12.000,3,1,1,-528.012,192.173,46.063,-18.676,-2.703,-5.552,13.123,-5.357,nan,1.242954,-0.263029,0.929570,0.509239,0.931638,2.571667,0.159298,1.581248,1.853954,61.504284,-22.153748,83.658032,39.350536,nan,0.000000,0.000000,0.000000,0.000000,0.000000,0.000000,0.000000,0.000000,0.000000,0.000000,0.000000,0.000000,2.71709424,0.04403788,0.02491334,0.01630736,0.00925335,1.50208363,0.00000000,1.12049869,0.00314556,0.01245667,0.00652294,0.01850670,5.60249343,0.00000000,2.50347271
12.100,3,1,1,-527.949,192.165,46.000,-19.192,-2.698,-5.643,13.549,-5.672,nan,1.249702,-0.173403,0.941164,0.505004,0.927886,2.574341,-0.078643,1.632641,1.861103,61.298485,-19.043717,80.342203,42.254768,nan,0.000000,0.000000,0.000000,0.000000,0.000000,0.000000,0.000000,0.000000,0.000000,0.000000,0.000000,0.000000,2.72915976,0.04405069,0.02531663,0.01637474,0.00925345,1.50543479,0.00000000,1.12872947,0.00314648,0.01265831,0.00654990,0.01850689,5.64364737,0.00000000,2.50905799
12.224,3,1,1,-527.949,192.165,46.000,-19.192,-2.698,-5.643,13.549,-5.672,nan,1.249702,-0.173403,0.941164,0.501508,0.923305,2.574341,-0.078643,1.681198,1.869757,61.224290,-16.095068,77.319358,45.129222,nan,0.000000,0.000000,0.000000,0.000000,0.000000,0.000000,0.000000,0.000000,0.000000,0.000000,0.000000,0.000000,2.74382374,0.04406655,0.02581608,0.01645819,0.00925356,1.50958512,0.00000000,1.13864424,0.00314761,0.01290804,0.00658327,0.01850713,5.69322120,0.00000000,2.51597520
12.300,3,1,1,-527.827,192.148,45.877,-20.164,-2.684,-5.812,14.352,-3.724,nan,1.145915,0.014178,1.004701,0.497973,0.920413,2.513714,-0.537005,1.723848,1.874474,60.948946,-11.728016,72.676962,49.220930,nan,0.000000,0.000000,0.000000,0.000000,0.000000,0.000000,0.000000,0.000000,0.000000,0.000000,0.000000,0.000000,2.75293408,0.04406661,0.02610992,0.01651686,0.00925692,1.51245866,0.00000000,1.14452511,0.00314762,0.01305496,0.00660674,0.01851383,5.72262554,0.00000000,2.52076443
12.400,3,1,1,-527.767,192.139,45.816,-20.615,-2.676,-5.890,14.725,-3.581,nan,1.176038,0.109603,1.057138,0.492160,0.916714,2.452082,-0.727709,1.745229,1.879890,60.793987,-7.106208,67.900195,53.687778,nan,0.000000,0.000000,0.000000,0.000000,0.000000,0.000000,0.000000,0.000000,0.000000,0.000000,0.000000,0.000000,2.76486046,0.04407174,0.02647642,0.01660201,0.00926499,1.51642364,0.00000000,1.15202167,0.00314798,0.01323821,0.00664080,0.01852997,5.76010836,0.00000000,2.52737273
12.500,3,1,1,-527.707,192.129,45.756,-21.043,-2.666,-5.962,15.080,-3.996,nan,1.172476,0.203909,0.934436,0.493571,0.913196,2.371178,-0.891646,1.792628,1.884361,60.701945,-2.040188,62.742133,58.661757,nan,0.000000,0.000000,0.000000,0.000000,0.000000,0.000000,0.000000,0.000000,0.000000,0.000000,0.000000,0.000000,2.77682264,0.04408946,0.02681865,0.01666844,0.00927708,1.52057633,0.00000000,1.15939269,0.00314925,0.01340932,0.00666738,0.01855417,5.79696343,0.00000000,2.53429388
12.600,3,1,1,-527.648,192.118,45.697,-21.438,-2.656,-6.028,15.410,-4.627,nan,1.168272,0.296328,0.596618,0.489707,0.909924,2.272373,-0.717616,1.805846,1.887780,60.514709,3.172466,57.342244,63.687175,nan,0.000000,0.000000,0.000000,0.000000,0.000000,0.000000,0.000000,0.000000,0.000000,0.000000,0.000000,0.000000,2.78888459,0.04412688,0.02713299,0.01669553,0.00928492,1.52491305,0.00000000,1.16673122,0.00315192,0.01356650,0.00667821,0.01856984,5.83365608,0.00000000,2.54152175
