t,controller_id,state_code,wp_idx,x,y,dist,yaw_deg,yaw_to_wp_deg,yaw_ref_deg,yaw_err_deg,yaw_rate_deg_s,speed_ref,speed_meas,roll_deg,roll_rate_deg_s,roll_rms_window_deg,roll_rms_total_deg,pitch_deg,pitch_rate_deg_s,pitch_rms_window_deg,pitch_rms_total_deg,base_cmd,diff_cmd,T_left,T_right,J_inst,J_goal,J_wave_roll,J_progress,J_smooth,J_mpc_distance,J_mpc_final,J_mpc_heading,J_mpc_wrong_way,J_mpc_pitch,J_mpc_control,J_mpc_slew,J_mpc_turn,J_total,J_roll,J_pitch,J_roll_rate,J_pitch_rate,J_goal_heading,J_no_progress,J_control,I_roll,I_pitch,I_roll_rate,I_pitch_rate,I_control,I_no_progress,I_goal_heading
0.200,3,1,1,-532.006,189.988,50.006,52.582,0.014,8.774,-43.808,-0.587,nan,0.000000,0.385111,-0.248982,0.385111,0.385111,0.791620,-0.331989,0.791620,0.791620,59.733843,-53.418165,8.000000,6.315679,nan,0.000000,0.000000,0.000000,0.000000,0.000000,0.000000,0.000000,0.000000,0.000000,0.000000,0.000000,0.000000,0.03184983,0.00005709,0.00003446,0.00000426,0.00000152,0.03165874,0.00000000,0.00009377,0.00000408,0.00001723,0.00000170,0.00000303,0.00046884,0.00000000,0.05276457
0.437,3,1,1,-532.006,189.988,50.006,52.582,0.014,8.774,-43.808,-0.587,nan,0.000000,0.385111,-0.248982,0.385111,0.385111,0.791620,-0.331989,0.791620,0.791620,55.852383,-57.422526,16.000000,-1.570144,nan,0.000000,0.000000,0.000000,0.000000,0.000000,0.000000,0.000000,0.000000,0.000000,0.000000,0.000000,0.000000,0.11583247,0.00020696,0.00012493,0.00001545,0.00000549,0.11477342,0.00000000,0.00070622,0.00001478,0.00006246,0.00000618,0.00001099,0.00353110,0.00000000,0.19128904
0.500,3,1,1,-532.019,189.965,50.019,52.431,0.040,8.769,-43.662,-0.057,nan,0.143760,0.265022,-0.257153,0.349694,0.368351,0.633236,-0.417640,0.742588,0.768219,55.890527,-58.491925,24.000000,-2.601398,nan,0.000000,0.000000,0.000000,0.000000,0.000000,0.000000,0.000000,0.000000,0.000000,0.000000,0.000000,0.000000,0.13823880,0.00022587,0.00014035,0.00001863,0.00000717,0.13677261,0.00000000,0.00107417,0.00001613,0.00007018,0.00000745,0.00001434,0.00537085,0.00000000,0.22795435
0.600,3,1,1,-532.022,189.958,50.022,52.362,0.048,8.764,-43.598,-0.573,nan,0.147820,0.221365,-0.407031,0.322436,0.343540,0.579410,-0.413912,0.705342,0.733698,56.216697,-60.044031,32.000000,-3.827333,nan,0.000000,0.000000,0.000000,0.000000,0.000000,0.000000,0.000000,0.000000,0.000000,0.000000,0.000000,0.000000,0.17403850,0.00024675,0.00016078,0.00003123,0.00000978,0.17147820,0.00000000,0.00211176,0.00001762,0.00008039,0.00001249,0.00001955,0.01055879,0.00000000,0.28579700
0.700,3,1,1,-532.026,189.952,50.026,52.270,0.055,8.753,-43.516,-0.673,nan,0.141523,0.160229,-0.679153,0.297164,0.319947,0.528104,-0.516806,0.673635,0.703093,56.476127,-61.657445,40.000000,-5.181318,nan,0.000000,0.000000,0.000000,0.000000,0.000000,0.000000,0.000000,0.000000,0.000000,0.000000,0.000000,0.000000,0.21036548,0.00025771,0.00017778,0.00006638,0.00001385,0.20611015,0.00000000,0.00373961,0.00001841,0.00008889,0.00002655,0.00002770,0.01869805,0.00000000,0.34351692
0.823,3,1,1,-532.026,189.952,50.026,52.270,0.055,8.753,-43.516,-0.673,nan,0.141523,0.160229,-0.679153,0.279048,0.298652,0.528104,-0.516806,0.651641,0.676264,56.691898,-63.712383,48.000000,-7.020485,nan,0.000000,0.000000,0.000000,0.000000,0.000000,0.000000,0.000000,0.000000,0.000000,0.000000,0.000000,0.000000,0.25570128,0.00027111,0.00019859,0.00010938,0.00001883,0.24848271,0.00000000,0.00662066,0.00001936,0.00009929,0.00004375,0.00003766,0.03310331,0.00000000,0.41413785
0.900,3,1,1,-532.032,189.943,50.032,52.019,0.065,8.719,-43.300,-1.776,nan,0.113576,0.045156,-0.477685,0.258911,0.283968,0.438107,-0.429792,0.625614,0.656719,56.903070,-64.687083,56.000000,-7.784013,nan,0.000000,0.000000,0.000000,0.000000,0.000000,0.000000,0.000000,0.000000,0.000000,0.000000,0.000000,0.000000,0.28479122,0.00027178,0.00020766,0.00012286,0.00002101,0.27506730,0.00000000,0.00910061,0.00001941,0.00010383,0.00004915,0.00004202,0.04550303,0.00000000,0.45844550
1.000,3,1,1,-532.035,189.941,50.035,51.836,0.068,8.691,-43.145,-1.404,nan,0.096864,-0.000900,-0.417699,0.242190,0.267543,0.393763,-0.413010,0.601540,0.632653,57.118223,-66.324790,64.000000,-9.206567,nan,0.000000,0.000000,0.000000,0.000000,0.000000,0.000000,0.000000,0.000000,0.000000,0.000000,0.000000,0.000000,0.32302551,0.00027178,0.00021711,0.00013615,0.00002361,0.30909489,0.00000000,0.01328197,0.00001941,0.00010855,0.00005446,0.00004722,0.06640983,0.00000000,0.51515815
1.100,3,1,1,-532.036,189.939,50.036,51.614,0.069,8.655,-42.959,-3.194,nan,0.075083,-0.047053,-0.495898,0.228877,0.254114,0.352290,-0.395984,0.579167,0.610214,57.317155,-67.559329,72.000000,-10.242174,nan,0.000000,0.000000,0.000000,0.000000,0.000000,0.000000,0.000000,0.000000,0.000000,0.000000,0.000000,0.000000,0.36208323,0.00027273,0.00022467,0.00015488,0.00002600,0.34283284,0.00000000,0.01857211,0.00001948,0.00011233,0.00006195,0.00005200,0.09286054,0.00000000,0.57138807
1.200,3,1,1,-532.037,189.940,50.037,51.350,0.069,8.610,-42.740,-1.662,nan,0.052302,-0.101801,-0.556374,0.219505,0.244133,0.314828,-0.336649,0.558393,0.589319,57.500844,-69.345417,80.000000,-11.844573,nan,0.000000,0.000000,0.000000,0.000000,0.000000,0.000000,0.000000,0.000000,0.000000,0.000000,0.000000,0.000000,0.40205201,0.00027715,0.00023071,0.00017846,0.00002772,0.37622451,0.00000000,0.02511345,0.00001980,0.00011535,0.00007138,0.00005545,0.12556725,0.00000000,0.62704086
1.321,3,1,1,-532.037,189.940,50.037,51.350,0.069,8.610,-42.740,-1.662,nan,0.052302,-0.101801,-0.556374,0.211528,0.233846,0.314828,-0.336649,0.540803,0.567902,57.598089,-70.358126,88.000000,-12.760037,nan,0.000000,0.000000,0.000000,0.000000,0.000000,0.000000,0.000000,0.000000,0.000000,0.000000,0.000000,0.000000,0.45204767,0.00028250,0.00023801,0.00020698,0.00002981,0.41661202,0.00000000,0.03467835,0.00002018,0.00011901,0.00008279,0.00005962,0.17339173,0.00000000,0.69435337
1.400,3,1,1,-532.036,189.946,50.036,50.688,0.061,8.494,-42.194,-3.452,nan,0.053588,-0.209798,-0.425424,0.211385,0.232446,0.256554,-0.219655,0.523049,0.553894,57.827594,-69.721727,96.000000,-11.894133,nan,0.000000,0.000000,0.000000,0.000000,0.000000,0.000000,0.000000,0.000000,0.000000,0.000000,0.000000,0.000000,0.48517143,0.00029732,0.00024118,0.00021787,0.00003039,0.44231480,0.00000000,0.04206987,0.00002124,0.00012059,0.00008715,0.00006079,0.21034936,0.00000000,0.73719133
1.500,3,1,1,-532.034,189.953,50.034,50.287,0.054,8.421,-41.865,-3.610,nan,0.082680,-0.248341,-0.339591,0.214454,0.233626,0.236228,-0.167483,0.506782,0.537340,57.949636,-69.499138,100.000000,-11.549503,nan,0.000000,0.000000,0.000000,0.000000,0.000000,0.000000,0.000000,0.000000,0.000000,0.000000,0.000000,0.000000,0.52740619,0.00032364,0.00024458,0.00022665,0.00003082,0.47437038,0.00000000,0.05221011,0.00002312,0.00012229,0.00009066,0.00006164,0.26105056,0.00000000,0.79061730
1.600,3,1,1,-532.031,189.961,50.031,49.839,0.045,8.339,-41.500,-3.939,nan,0.121429,-0.280916,-0.306350,0.219868,0.237092,0.221282,-0.116466,0.491916,0.522167,58.058434,-69.224851,100.000000,-11.166418,nan,0.000000,0.000000,0.000000,0.000000,0.000000,0.000000,0.000000,0.000000,0.000000,0.000000,0.000000,0.000000,0.56901959,0.00035727,0.00024756,0.00023380,0.00003103,0.50582305,0.00000000,0.06232688,0.00002552,0.00012378,0.00009352,0.00006205,0.31163439,0.00000000,0.84303842
1.700,3,1,1,-532.026,189.972,50.026,49.349,0.032,8.248,-41.101,-5.758,nan,0.167931,-0.314822,-0.340884,0.227435,0.242714,0.213155,-0.041229,0.478412,0.508302,58.158662,-68.670800,100.000000,-10.512138,nan,0.000000,0.000000,0.000000,0.000000,0.000000,0.000000,0.000000,0.000000,0.000000,0.000000,0.000000,0.000000,0.61005916,0.00039954,0.00025033,0.00024265,0.00003105,0.53669829,0.00000000,0.07243730,0.00002854,0.00012517,0.00009706,0.00006211,0.36218650,0.00000000,0.89449715
1.800,3,1,1,-532.020,189.985,50.020,48.823,0.018,8.149,-40.674,-5.830,nan,0.214788,-0.348891,-0.216404,0.236858,0.250251,0.212993,0.022740,0.466271,0.495753,58.250197,-68.404878,100.000000,-10.154681,nan,0.000000,0.000000,0.000000,0.000000,0.000000,0.000000,0.000000,0.000000,0.000000,0.000000,0.000000,0.000000,0.65045272,0.00045144,0.00025309,0.00024621,0.00003106,0.56693174,0.00000000,0.08253916,0.00003225,0.00012655,0.00009848,0.00006212,0.41269582,0.00000000,0.94488624
1.922,3,1,1,-532.020,189.985,50.020,48.823,0.018,8.149,-40.674,-5.830,nan,0.214788,-0.348891,-0.216404,0.244871,0.258082,0.212993,0.022740,0.455289,0.481947,58.212333,-68.404878,100.000000,-10.192545,nan,0.000000,0.000000,0.000000,0.000000,0.000000,0.000000,0.000000,0.000000,0.000000,0.000000,0.000000,0.000000,0.69976976,0.00051481,0.00025647,0.00025057,0.00003107,0.60384347,0.00000000,0.09487337,0.00003677,0.00012823,0.00010023,0.00006214,0.47436686,0.00000000,1.00640579
2.000,3,1,1,-532.004,190.016,50.004,47.681,-0.019,7.931,-39.750,-6.245,nan,0.250136,-0.392950,-0.086174,0.255361,0.265002,0.233396,0.114108,0.445868,0.474281,58.429620,-67.784144,100.000000,-9.354524,nan,0.000000,0.000000,0.000000,0.000000,0.000000,0.000000,0.000000,0.000000,0.000000,0.000000,0.000000,0.000000,0.73019102,0.00056613,0.00025905,0.00025101,0.00003122,0.62634903,0.00000000,0.10273457,0.00004044,0.00012953,0.00010040,0.00006245,0.51367283,0.00000000,1.04391506
2.100,3,1,1,-531.994,190.035,49.994,47.073,-0.040,7.813,-39.260,-5.787,nan,0.320747,-0.401517,-0.066438,0.265070,0.273493,0.250504,0.137614,0.437765,0.465610,58.511376,-67.572984,100.000000,-9.061608,nan,0.000000,0.000000,0.000000,0.000000,0.000000,0.000000,0.000000,0.000000,0.000000,0.000000,0.000000,0.000000,0.76852134,0.00063489,0.00026288,0.00025134,0.00003151,0.65452289,0.00000000,0.11281782,0.00004535,0.00013144,0.00010054,0.00006303,0.56408912,0.00000000,1.09087148
2.200,3,1,1,-531.983,190.054,49.983,46.444,-0.062,7.691,-38.753,-6.303,nan,0.382871,-0.408018,-0.041336,0.273994,0.281394,0.270212,0.139034,0.430937,0.458168,58.599602,-67.182667,100.000000,-8.583066,nan,0.000000,0.000000,0.000000,0.000000,0.000000,0.000000,0.000000,0.000000,0.000000,0.000000,0.000000,0.000000,0.80610363,0.00070586,0.00026732,0.00025147,0.00003181,0.68196004,0.00000000,0.12288712,0.00005042,0.00013366,0.00010059,0.00006361,0.61443562,0.00000000,1.13660007
2.300,3,1,1,-531.971,190.076,49.971,45.799,-0.087,7.564,-38.234,-6.446,nan,0.436335,-0.414136,-0.063439,0.282250,0.288789,0.292254,0.204742,0.425360,0.451919,58.693764,-66.849654,100.000000,-8.155891,nan,0.000000,0.000000,0.000000,0.000000,0.000000,0.000000,0.000000,0.000000,0.000000,0.000000,0.000000,0.000000,0.84298296,0.00077903,0.00027253,0.00025178,0.00003245,0.70868948,0.00000000,0.13295769,0.00005564,0.00013627,0.00010071,0.00006489,0.66478845,0.00000000,1.18114914
2.416,3,1,1,-531.971,190.076,49.971,45.799,-0.087,7.564,-38.234,-6.446,nan,0.436335,-0.414136,-0.063439,0.289551,0.296380,0.292254,0.204742,0.420225,0.445243,58.650637,-66.849654,100.000000,-8.199018,nan,0.000000,0.000000,0.000000,0.000000,0.000000,0.000000,0.000000,0.000000,0.000000,0.000000,0.000000,0.000000,0.88585018,0.00086408,0.00027858,0.00025214,0.00003319,0.73975824,0.00000000,0.14466396,0.00006172,0.00013929,0.00010085,0.00006638,0.72331978,0.00000000,1.23293040
2.500,3,1,1,-531.942,190.123,49.942,44.466,-0.141,7.301,-37.165,-5.916,nan,0.880429,-0.406982,0.221928,0.295628,0.300947,0.345724,0.404953,0.417263,0.442132,58.899188,-66.307561,100.000000,-7.408373,nan,0.000000,0.000000,0.000000,0.000000,0.000000,0.000000,0.000000,0.000000,0.000000,0.000000,0.000000,0.000000,0.91551227,0.00092329,0.00028469,0.00025528,0.00003528,0.76092086,0.00000000,0.15309287,0.00006595,0.00014234,0.00010211,0.00007056,0.76546434,0.00000000,1.26820144
2.600,3,1,1,-531.925,190.148,49.926,43.782,-0.170,7.165,-36.617,-7.620,nan,0.764159,-0.392104,0.175246,0.300268,0.305126,0.378391,0.350306,0.415716,0.439755,59.011674,-65.685091,100.000000,-6.673416,nan,0.000000,0.000000,0.000000,0.000000,0.000000,0.000000,0.000000,0.000000,0.000000,0.000000,0.000000,0.000000,0.95008145,0.00098875,0.00029339,0.00025761,0.00003715,0.78538465,0.00000000,0.16311990,0.00007062,0.00014670,0.00010305,0.00007430,0.81559951,0.00000000,1.30897442
2.700,3,1,1,-531.908,190.174,49.908,43.089,-0.200,7.026,-36.063,-6.231,nan,0.711932,-0.374324,0.178416,0.303577,0.308086,0.414602,0.419024,0.415671,0.438810,59.132466,-65.598806,100.000000,-6.466340,nan,0.000000,0.000000,0.000000,0.000000,0.000000,0.000000,0.000000,0.000000,0.000000,0.000000,0.000000,0.000000,0.98397880,0.00104852,0.00030387,0.00026004,0.00003982,0.80916195,0.00000000,0.17316460,0.00007489,0.00015193,0.00010402,0.00007965,0.86582298,0.00000000,1.34860325
2.800,3,1,1,-531.889,190.201,49.890,42.389,-0.231,6.885,-35.504,-6.288,nan,0.692223,-0.355811,0.252872,0.305751,0.309992,0.453304,0.510686,0.417181,0.439357,59.260399,-65.256975,100.000000,-5.996576,nan,0.000000,0.000000,0.000000,0.000000,0.000000,0.000000,0.000000,0.000000,0.000000,0.000000,0.000000,0.000000,1.01712828,0.00110251,0.00031639,0.00026491,0.00004380,0.83220039,0.00000000,0.18320029,0.00007875,0.00015819,0.00010596,0.00008759,0.91600146,0.00000000,1.38700064
2.900,3,1,1,-531.870,190.230,49.870,41.683,-0.264,6.743,-34.941,-5.887,nan,0.693193,-0.334925,0.284001,0.306881,0.310920,0.493209,0.547656,0.420243,0.441400,59.393948,-64.992523,100.000000,-5.598574,nan,0.000000,0.000000,0.000000,0.000000,0.000000,0.000000,0.000000,0.000000,0.000000,0.000000,0.000000,0.000000,1.04954056,0.00115034,0.00033120,0.00027105,0.00004836,0.85450976,0.00000000,0.19322984,0.00008217,0.00016560,0.00010842,0.00009673,0.96614919,0.00000000,1.42418294
3.025,3,1,1,-531.870,190.230,49.870,41.683,-0.264,6.743,-34.941,-5.887,nan,0.693193,-0.334925,0.284001,0.307926,0.311987,0.493209,0.547656,0.423065,0.443747,59.380758,-64.992523,100.000000,-5.611764,nan,0.000000,0.000000,0.000000,0.000000,0.000000,0.000000,0.000000,0.000000,0.000000,0.000000,0.000000,0.000000,1.09008004,0.00121016,0.00034974,0.00027873,0.00005408,0.88241297,0.00000000,0.20577436,0.00008644,0.00017487,0.00011149,0.00010815,1.02887182,0.00000000,1.47068828
3.100,3,1,1,-531.827,190.288,49.828,40.255,-0.331,6.453,-33.803,-7.320,nan,2.138651,-0.275843,0.505855,0.306876,0.311133,0.572379,0.512337,0.429080,0.447422,59.672603,-64.067271,100.000000,-4.394667,nan,0.000000,0.000000,0.000000,0.000000,0.000000,0.000000,0.000000,0.000000,0.000000,0.000000,0.000000,0.000000,1.11329321,0.00123448,0.00036469,0.00029333,0.00005707,0.89806158,0.00000000,0.21328206,0.00008818,0.00018235,0.00011733,0.00011414,1.06641030,0.00000000,1.49676929
3.200,3,1,1,-531.804,190.318,49.805,39.535,-0.366,6.306,-33.230,-6.875,nan,1.538947,-0.242353,0.385731,0.304945,0.309147,0.610616,0.428996,0.436350,0.453624,59.821204,-63.804881,100.000000,-3.983677,nan,0.000000,0.000000,0.000000,0.000000,0.000000,0.000000,0.000000,0.000000,0.000000,0.000000,0.000000,0.000000,1.14355601,0.00125953,0.00038741,0.00030466,0.00005987,0.91824558,0.00000000,0.22329895,0.00008997,0.00019371,0.00012187,0.00011975,1.11649476,0.00000000,1.53040930
3.300,3,1,1,-531.781,190.349,49.782,38.813,-0.402,6.158,-32.656,-7.062,nan,1.206594,-0.208839,0.357809,0.302322,0.306502,0.647702,0.416778,0.444738,0.460949,59.973652,-63.431583,100.000000,-3.457932,nan,0.000000,0.000000,0.000000,0.000000,0.000000,0.000000,0.000000,0.000000,0.000000,0.000000,0.000000,0.000000,1.17311103,0.00127812,0.00041297,0.00031441,0.00006252,0.93773341,0.00000000,0.23330960,0.00009129,0.00020648,0.00012577,0.00012504,1.16654799,0.00000000,1.56288901
3.400,3,1,1,-531.756,190.381,49.757,38.089,-0.438,6.009,-32.080,-7.162,nan,1.028966,-0.174804,0.333735,0.299161,0.303342,0.683734,0.335588,0.454115,0.469281,60.128889,-63.072566,100.000000,-2.943677,nan,0.000000,0.000000,0.000000,0.000000,0.000000,0.000000,0.000000,0.000000,0.000000,0.000000,0.000000,0.000000,1.20198300,0.00129116,0.00044145,0.00032290,0.00006423,0.95654426,0.00000000,0.24331901,0.00009223,0.00022072,0.00012916,0.00012847,1.21659505,0.00000000,1.59424043
3.500,3,1,1,-531.730,190.412,49.732,37.363,-0.475,5.859,-31.504,-7.363,nan,0.945213,-0.138629,0.332718,0.295580,0.299782,0.718551,0.322272,0.464346,0.478498,60.286021,-62.695618,100.000000,-2.409596,nan,0.000000,0.000000,0.000000,0.000000,0.000000,0.000000,0.000000,0.000000,0.000000,0.000000,0.000000,0.000000,1.23018281,0.00129935,0.00047291,0.00033133,0.00006582,0.97468697,0.00000000,0.25332643,0.00009281,0.00023646,0.00013253,0.00013163,1.26663216,0.00000000,1.62447828
3.622,3,1,1,-531.730,190.412,49.732,37.363,-0.475,5.859,-31.504,-7.363,nan,0.945213,-0.138629,0.332718,0.292170,0.295679,0.718551,0.322272,0.473773,0.488770,60.290357,-62.695618,100.000000,-2.405261,nan,0.000000,0.000000,0.000000,0.000000,0.000000,0.000000,0.000000,0.000000,0.000000,0.000000,0.000000,0.000000,1.26442081,0.00130931,0.00051111,0.00034156,0.00006774,0.99671444,0.00000000,0.26547665,0.00009352,0.00025555,0.00013663,0.00013548,1.32738323,0.00000000,1.66119074
3.700,3,1,1,-531.677,190.477,49.679,35.910,-0.550,5.559,-30.351,-7.133,nan,1.677372,-0.059815,1.157134,0.288143,0.292560,0.782297,0.775287,0.485318,0.497050,60.603229,-62.051303,100.000000,-1.448074,nan,0.000000,0.000000,0.000000,0.000000,0.000000,0.000000,0.000000,0.000000,0.000000,0.000000,0.000000,0.000000,1.28561874,0.00131050,0.00054039,0.00042166,0.00007493,1.00993842,0.00000000,0.27333284,0.00009361,0.00027020,0.00016866,0.00014986,1.36666418,0.00000000,1.68323071
3.800,3,1,1,-531.648,190.510,49.651,35.240,-0.589,5.418,-29.822,-6.933,nan,1.319543,-0.025588,0.236726,0.284145,0.288600,0.807675,0.168944,0.497103,0.507977,60.749194,-61.772817,100.000000,-1.023623,nan,0.000000,0.000000,0.000000,0.000000,0.000000,0.000000,0.000000,0.000000,0.000000,0.000000,0.000000,0.000000,1.31191717,0.00131078,0.00058013,0.00042592,0.00007536,1.02619201,0.00000000,0.28333295,0.00009363,0.00029007,0.00017037,0.00015073,1.41666477,0.00000000,1.71032002
3.900,3,1,1,-531.620,190.543,49.623,34.600,-0.627,5.281,-29.319,-6.933,nan,1.095867,0.006066,0.244921,0.280281,0.284766,0.828880,0.152175,0.508921,0.519007,60.887907,-61.473982,100.000000,-0.586076,nan,0.000000,0.000000,0.000000,0.000000,0.000000,0.000000,0.000000,0.000000,0.000000,0.000000,0.000000,0.000000,1.33769745,0.00131080,0.00062203,0.00043050,0.00007572,1.04191643,0.00000000,0.29334199,0.00009363,0.00031101,0.00017220,0.00015143,1.46670994,0.00000000,1.73652738
4.000,3,1,1,-531.590,190.577,49.593,33.873,-0.666,5.130,-28.743,-5.658,nan,0.998540,0.041617,0.300930,0.276651,0.281160,0.849149,0.173482,0.520731,0.530080,61.044937,-61.354825,100.000000,-0.309888,nan,0.000000,0.000000,0.000000,0.000000,0.000000,0.000000,0.000000,0.000000,0.000000,0.000000,0.000000,0.000000,1.36286255,0.00131154,0.00066598,0.00043740,0.00007617,1.05702413,0.00000000,0.30334733,0.00009368,0.00033299,0.00017496,0.00015235,1.51673666,0.00000000,1.76170689
4.124,3,1,1,-531.590,190.577,49.593,33.873,-0.666,5.130,-28.743,-5.658,nan,0.998540,0.041617,0.300930,0.273162,0.276900,0.849149,0.173482,0.531692,0.542693,61.046514,-61.354825,100.000000,-0.308311,nan,0.000000,0.000000,0.000000,0.000000,0.000000,0.000000,0.000000,0.000000,0.000000,0.000000,0.000000,0.000000,1.39390261,0.00131245,0.00072019,0.00044591,0.00007674,1.07565883,0.00000000,0.31568849,0.00009375,0.00036010,0.00017836,0.00015348,1.57844245,0.00000000,1.79276472
4.200,3,1,1,-531.544,190.627,49.548,32.478,-0.726,4.850,-27.628,-6.847,nan,0.961529,0.110721,0.317725,0.266700,0.274716,0.877212,0.107979,0.535125,0.550815,61.346927,-60.485365,100.000000,0.861562,nan,0.000000,0.000000,0.000000,0.000000,0.000000,0.000000,0.000000,0.000000,0.000000,0.000000,0.000000,0.000000,1.41226730,0.00131645,0.00075605,0.00045179,0.00007688,1.08632870,0.00000000,0.32333744,0.00009403,0.00037802,0.00018071,0.00015375,1.61668721,0.00000000,1.81054783
4.300,3,1,1,-531.512,190.661,49.517,31.840,-0.765,4.713,-27.126,-6.904,nan,0.919080,0.137987,0.446377,0.264248,0.272253,0.885566,0.103717,0.546631,0.561139,61.518020,-60.177964,100.000000,1.340056,nan,0.000000,0.000000,0.000000,0.000000,0.000000,0.000000,0.000000,0.000000,0.000000,0.000000,0.000000,0.000000,1.43579899,0.00132457,0.00080384,0.00046697,0.00007704,1.09978320,0.00000000,0.33334337,0.00009461,0.00040192,0.00018679,0.00015408,1.66671684,0.00000000,1.83297200
4.400,3,1,1,-531.480,190.695,49.485,31.115,-0.805,4.561,-26.554,-6.833,nan,0.909484,0.167338,0.338618,0.262310,0.270273,0.891490,0.047960,0.557586,0.571014,61.665294,-59.850658,100.000000,1.814636,nan,0.000000,0.000000,0.000000,0.000000,0.000000,0.000000,0.000000,0.000000,0.000000,0.000000,0.000000,0.000000,1.45874893,0.00133651,0.00085224,0.00047569,0.00007708,1.11266494,0.00000000,0.34334247,0.00009546,0.00042612,0.00019028,0.00015415,1.71671235,0.00000000,1.85444157
4.500,3,1,1,-531.447,190.729,49.453,30.392,-0.844,4.410,-25.982,-7.405,nan,0.914304,0.196195,0.254423,0.257154,0.268812,0.893621,0.004198,0.561333,0.580363,61.809763,-59.411598,100.000000,2.398165,nan,0.000000,0.000000,0.000000,0.000000,0.000000,0.000000,0.000000,0.000000,0.000000,0.000000,0.000000,0.000000,1.48116747,0.00135293,0.00090090,0.00048063,0.00007708,1.12500580,0.00000000,0.35335013,0.00009664,0.00045045,0.00019225,0.00015415,1.76675066,0.00000000,1.87500967
4.600,3,1,1,-531.414,190.762,49.420,29.671,-0.884,4.258,-25.412,-6.174,nan,0.927486,0.223228,0.320359,0.256185,0.267882,0.891938,-0.043287,0.569840,0.589095,61.989978,-59.288415,100.000000,2.701563,nan,0.000000,0.000000,0.000000,0.000000,0.000000,0.000000,0.000000,0.000000,0.000000,0.000000,0.000000,0.000000,1.50304427,0.00137417,0.00094935,0.00048844,0.00007710,1.13680293,0.00000000,0.36335229,0.00009815,0.00047467,0.00019537,0.00015421,1.81676145,0.00000000,1.89467155
4.723,3,1,1,-531.414,190.762,49.420,29.671,-0.884,4.258,-25.412,-6.174,nan,0.927486,0.223228,0.320359,0.258167,0.266787,0.891938,-0.043287,0.580826,0.599174,61.979823,-59.288415,100.000000,2.691408,nan,0.000000,0.000000,0.000000,0.000000,0.000000,0.000000,0.000000,0.000000,0.000000,0.000000,0.000000,0.000000,1.53001005,0.00140035,0.00100906,0.00049807,0.00007714,1.15134433,0.00000000,0.37568111,0.00010002,0.00050453,0.00019923,0.00015428,1.87840555,0.00000000,1.91890721
4.800,3,1,1,-531.346,190.830,49.353,28.232,-0.964,3.955,-24.277,-7.090,nan,0.840999,0.264610,0.168200,0.258326,0.266751,0.877525,-0.104721,0.589841,0.604779,62.248220,-58.454457,100.000000,3.793763,nan,0.000000,0.000000,0.000000,0.000000,0.000000,0.000000,0.000000,0.000000,0.000000,0.000000,0.000000,0.000000,1.54607587,0.00142334,0.00104518,0.00049972,0.00007727,1.15963836,0.00000000,0.38339199,0.00010167,0.00052259,0.00019989,0.00015454,1.91695996,0.00000000,1.93273060
4.900,3,1,1,-531.310,190.864,49.318,27.515,-1.004,3.804,-23.711,-7.377,nan,0.898508,0.279342,0.097861,0.260786,0.267020,0.865123,-0.138707,0.599471,0.611339,62.380483,-58.068667,100.000000,4.311816,nan,0.000000,0.000000,0.000000,0.000000,0.000000,0.000000,0.000000,0.000000,0.000000,0.000000,0.000000,0.000000,1.56642052,0.00145657,0.00109071,0.00050045,0.00007756,1.16989905,0.00000000,0.39339617,0.00010404,0.00054536,0.00020018,0.00015512,1.96698087,0.00000000,1.94983174
5.000,3,1,1,-531.275,190.898,49.283,26.800,-1.044,3.653,-23.147,-6.503,nan,0.929783,0.292637,0.125603,0.264667,0.267568,0.849443,-0.171725,0.610150,0.617127,62.495120,-57.886402,100.000000,4.608717,nan,0.000000,0.000000,0.000000,0.000000,0.000000,0.000000,0.000000,0.000000,0.000000,0.000000,0.000000,0.000000,1.58631107,0.00149308,0.00113466,0.00050165,0.00007801,1.17968884,0.00000000,0.40341482,0.00010665,0.00056733,0.00020066,0.00015602,2.01707409,0.00000000,1.96614807
5.100,3,1,1,-531.238,190.931,49.247,26.086,-1.084,3.502,-22.584,-6.904,nan,0.953401,0.303751,0.142505,0.268884,0.268341,0.830956,-0.204278,0.620759,0.622132,62.597265,-57.482593,100.000000,5.114672,nan,0.000000,0.000000,0.000000,0.000000,0.000000,0.000000,0.000000,0.000000,0.000000,0.000000,0.000000,0.000000,1.60573699,0.00153242,0.00117672,0.00050320,0.00007865,1.18900813,0.00000000,0.41343788,0.00010946,0.00058836,0.00020128,0.00015729,2.06718940,0.00000000,1.98168022
5.200,3,1,1,-531.201,190.965,49.211,25.375,-1.124,3.352,-22.023,-7.663,nan,0.971325,0.310319,0.046053,0.273118,0.269228,0.810150,-0.223444,0.631129,0.626370,62.696587,-57.017209,100.000000,5.679378,nan,0.000000,0.000000,0.000000,0.000000,0.000000,0.000000,0.000000,0.000000,0.000000,0.000000,0.000000,0.000000,1.62471695,0.00157349,0.00121670,0.00050336,0.00007941,1.19787338,0.00000000,0.42347061,0.00011239,0.00060835,0.00020134,0.00015881,2.11735305,0.00000000,1.99645564
5.325,3,1,1,-531.201,190.965,49.211,25.375,-1.124,3.352,-22.023,-7.663,nan,0.971325,0.310319,0.046053,0.279906,0.270288,0.810150,-0.223444,0.647869,0.631409,62.646594,-57.017209,100.000000,5.629386,nan,0.000000,0.000000,0.000000,0.000000,0.000000,0.000000,0.000000,0.000000,0.000000,0.000000,0.000000,0.000000,1.64848019,0.00162491,0.00126677,0.00050356,0.00008036,1.20897316,0.00000000,0.43603143,0.00011606,0.00063339,0.00020143,0.00016072,2.18015716,0.00000000,2.01495527
5.400,3,1,1,-531.126,191.032,49.136,24.014,-1.203,3.061,-20.953,-7.090,nan,0.880151,0.310146,-0.017635,0.280683,0.270893,0.765017,-0.253901,0.650977,0.633496,62.850944,-56.482320,100.000000,6.368625,nan,0.000000,0.000000,0.000000,0.000000,0.000000,0.000000,0.000000,0.000000,0.000000,0.000000,0.000000,0.000000,1.66206287,0.00165562,0.00129347,0.00050358,0.00008109,1.21498074,0.00000000,0.44354837,0.00011826,0.00064673,0.00020143,0.00016219,2.21774187,0.00000000,2.02496790
5.500,3,1,1,-531.087,191.065,49.098,23.308,-1.243,2.911,-20.397,-7.649,nan,0.939558,0.305315,-0.098771,0.282812,0.271571,0.739443,-0.369647,0.659926,0.635622,62.987322,-56.054712,100.000000,6.932610,nan,0.000000,0.000000,0.000000,0.000000,0.000000,0.000000,0.000000,0.000000,0.000000,0.000000,0.000000,0.000000,1.67978331,0.00169536,0.00132676,0.00050432,0.00008317,1.22258155,0.00000000,0.45359214,0.00012110,0.00066338,0.00020173,0.00016635,2.26796072,0.00000000,2.03763591
5.600,3,1,1,-531.048,191.098,49.060,22.604,-1.283,2.762,-19.843,-6.102,nan,0.975502,0.298428,-0.134656,0.283991,0.272084,0.712662,-0.381207,0.668228,0.637108,63.101997,-55.995611,100.000000,7.106386,nan,0.000000,0.000000,0.000000,0.000000,0.000000,0.000000,0.000000,0.000000,0.000000,0.000000,0.000000,0.000000,1.69710174,0.00173334,0.00135770,0.00050570,0.00008539,1.22977742,0.00000000,0.46364219,0.00012381,0.00067885,0.00020228,0.00017077,2.31821096,0.00000000,2.04962903
5.700,3,1,1,-531.008,191.131,49.021,21.903,-1.322,2.613,-19.290,-7.520,nan,0.988867,0.288374,-0.123534,0.284173,0.272384,0.684992,-0.328177,0.675854,0.637996,63.224048,-55.419968,100.000000,7.804080,nan,0.000000,0.000000,0.000000,0.000000,0.000000,0.000000,0.000000,0.000000,0.000000,0.000000,0.000000,0.000000,1.71403161,0.00176880,0.00138629,0.00050687,0.00008703,1.23657869,0.00000000,0.47370393,0.00012634,0.00069315,0.00020275,0.00017405,2.36851964,0.00000000,2.06096448
5.826,3,1,1,-531.008,191.131,49.021,21.903,-1.322,2.613,-19.290,-7.520,nan,0.988867,0.288374,-0.123534,0.281658,0.272747,0.684992,-0.328177,0.691128,0.639072,63.207386,-55.419968,100.000000,7.787418,nan,0.000000,0.000000,0.000000,0.000000,0.000000,0.000000,0.000000,0.000000,0.000000,0.000000,0.000000,0.000000,1.73540363,0.00181358,0.00142238,0.00050833,0.00008910,1.24516465,0.00000000,0.48640559,0.00012954,0.00071119,0.00020333,0.00017820,2.43202793,0.00000000,2.07527442
5.900,3,1,1,-530.926,191.196,48.941,20.504,-1.401,2.316,-18.189,-7.047,nan,0.888993,0.255397,-0.212443,0.281047,0.272533,0.628570,-0.287127,0.689670,0.638939,63.486644,-54.849080,100.000000,8.637564,nan,0.000000,0.000000,0.000000,0.000000,0.000000,0.000000,0.000000,0.000000,0.000000,0.000000,0.000000,0.000000,1.74733477,0.00183409,0.00144013,0.00051087,0.00009002,1.24962399,0.00000000,0.49383565,0.00013101,0.00072007,0.00020435,0.00018005,2.46917827,0.00000000,2.08270666
6.000,3,1,1,-530.884,191.229,48.900,19.808,-1.440,2.168,-17.641,-6.732,nan,0.951986,0.234734,-0.238326,0.278141,0.271935,0.600660,-0.287182,0.695225,0.638308,63.639522,-54.578819,100.000000,9.060704,nan,0.000000,0.000000,0.000000,0.000000,0.000000,0.000000,0.000000,0.000000,0.000000,0.000000,0.000000,0.000000,1.76315834,0.00185760,0.00146212,0.00051520,0.00009128,1.25531262,0.00000000,0.50391953,0.00013269,0.00073106,0.00020608,0.00018256,2.51959764,0.00000000,2.09218769
6.100,3,1,1,-530.842,191.261,48.858,19.114,-1.478,2.020,-17.094,-7.234,nan,0.991840,0.212374,-0.304314,0.273306,0.271049,0.573324,-0.376725,0.700019,0.637278,63.793869,-54.167043,100.000000,9.626826,nan,0.000000,0.000000,0.000000,0.000000,0.000000,0.000000,0.000000,0.000000,0.000000,0.000000,0.000000,0.000000,1.77862733,0.00187681,0.00148213,0.00052224,0.00009344,1.26064890,0.00000000,0.51400380,0.00013406,0.00074106,0.00020890,0.00018688,2.57001901,0.00000000,2.10108150
6.200,3,1,1,-530.799,191.292,48.816,18.422,-1.517,1.873,-16.549,-6.732,nan,1.021133,0.187661,-0.336884,0.267625,0.269887,0.546854,-0.361112,0.704123,0.635897,63.963209,-53.930738,100.000000,10.032470,nan,0.000000,0.000000,0.000000,0.000000,0.000000,0.000000,0.000000,0.000000,0.000000,0.000000,0.000000,0.000000,1.79378646,0.00189184,0.00150036,0.00053089,0.00009543,1.26565724,0.00000000,0.52411070,0.00013513,0.00075018,0.00021236,0.00019085,2.62055352,0.00000000,2.10942873
6.300,3,1,1,-530.756,191.324,48.774,17.733,-1.555,1.727,-16.007,-6.145,nan,1.045836,0.160382,-0.304135,0.261132,0.268473,0.521479,-0.252458,0.707560,0.634212,64.139022,-53.711723,100.000000,10.427299,nan,0.000000,0.000000,0.000000,0.000000,0.000000,0.000000,0.000000,0.000000,0.000000,0.000000,0.000000,0.000000,1.80861433,0.00190281,0.00151693,0.00053793,0.00009640,1.27034035,0.00000000,0.53421991,0.00013592,0.00075846,0.00021517,0.00019280,2.67109955,0.00000000,2.11723392
6.424,3,1,1,-530.756,191.324,48.774,17.733,-1.555,1.727,-16.007,-6.145,nan,1.045836,0.160382,-0.304135,0.248922,0.266769,0.521479,-0.252458,0.718112,0.632187,64.177909,-53.711723,100.000000,10.466186,nan,0.000000,0.000000,0.000000,0.000000,0.000000,0.000000,0.000000,0.000000,0.000000,0.000000,0.000000,0.000000,1.82704400,0.00191645,0.00153752,0.00054669,0.00009760,1.27616071,0.00000000,0.54678504,0.00013689,0.00076876,0.00021868,0.00019521,2.73392519,0.00000000,2.12693451
6.500,3,1,1,-530.667,191.386,48.687,16.361,-1.631,1.435,-14.926,-7.549,nan,0.903979,0.100082,-0.304724,0.246364,0.265408,0.474980,-0.223917,0.713169,0.630555,64.530497,-52.825404,100.000000,11.705093,nan,0.000000,0.000000,0.000000,0.000000,0.000000,0.000000,0.000000,0.000000,0.000000,0.000000,0.000000,0.000000,1.83781899,0.00191968,0.00154792,0.00055204,0.00009818,1.27924296,0.00000000,0.55445820,0.00013712,0.00077396,0.00022082,0.00019637,2.77229099,0.00000000,2.13207161
6.600,3,1,1,-530.622,191.416,48.642,15.673,-1.668,1.289,-14.384,-8.064,nan,0.997580,0.068015,-0.312677,0.233118,0.263490,0.454081,-0.204778,0.721050,0.628212,64.703434,-52.413489,100.000000,12.289945,nan,0.000000,0.000000,0.000000,0.000000,0.000000,0.000000,0.000000,0.000000,0.000000,0.000000,0.000000,0.000000,1.85177530,0.00192165,0.00156049,0.00055949,0.00009882,1.28302471,0.00000000,0.56461015,0.00013726,0.00078024,0.00022380,0.00019764,2.82305073,0.00000000,2.13837452
6.700,3,1,1,-530.576,191.446,48.597,14.998,-1.705,1.145,-13.853,-5.658,nan,1.035672,0.035879,-0.330189,0.225551,0.261520,0.434648,-0.182243,0.721345,0.625721,64.923119,-52.518359,100.000000,12.404760,nan,0.000000,0.000000,0.000000,0.000000,0.000000,0.000000,0.000000,0.000000,0.000000,0.000000,0.000000,0.000000,1.86546257,0.00192220,0.00157200,0.00056779,0.00009933,1.28653342,0.00000000,0.57476782,0.00013730,0.00078600,0.00022712,0.00019865,2.87383911,0.00000000,2.14422237
6.800,3,1,1,-530.529,191.476,48.552,14.328,-1.742,1.003,-13.326,-4.340,nan,1.064135,0.003842,-0.332074,0.218423,0.259559,0.416995,-0.166598,0.720797,0.623116,65.117307,-52.435413,100.000000,12.681894,nan,0.000000,0.000000,0.000000,0.000000,0.000000,0.000000,0.000000,0.000000,0.000000,0.000000,0.000000,0.000000,1.87888777,0.00192221,0.00158259,0.00057619,0.00009975,1.28977878,0.00000000,0.58492825,0.00013730,0.00079130,0.00023048,0.00019950,2.92464124,0.00000000,2.14963130
6.926,3,1,1,-530.529,191.476,48.552,14.328,-1.742,1.003,-13.326,-4.340,nan,1.064135,0.003842,-0.332074,0.211907,0.257146,0.416995,-0.166598,0.719593,0.619924,65.169412,-52.435413,100.000000,12.733999,nan,0.000000,0.000000,0.000000,0.000000,0.000000,0.000000,0.000000,0.000000,0.000000,0.000000,0.000000,0.000000,1.89582829,0.00192222,0.00159596,0.00058679,0.00010028,1.29387351,0.00000000,0.59774953,0.00013730,0.00079798,0.00023471,0.00020057,2.98874765,0.00000000,2.15645585
7.000,3,1,1,-530.434,191.534,48.459,12.962,-1.814,0.714,-12.248,-9.053,nan,0.937812,-0.062003,-0.305804,0.209530,0.255846,0.388137,-0.118846,0.713343,0.617903,65.506687,-50.973435,100.000000,14.533252,nan,0.000000,0.000000,0.000000,0.000000,0.000000,0.000000,0.000000,0.000000,0.000000,0.000000,0.000000,0.000000,1.90539669,0.00192343,0.00160273,0.00059204,0.00010044,1.29589612,0.00000000,0.60528193,0.00013739,0.00080136,0.00023682,0.00020088,3.02640966,0.00000000,2.15982686
7.100,3,1,1,-530.386,191.562,48.411,12.393,-1.849,0.589,-11.804,-3.739,nan,1.010908,-0.090400,-0.313856,0.201242,0.254238,0.378076,-0.109273,0.714760,0.615129,65.655772,-51.637135,100.000000,14.018637,nan,0.000000,0.000000,0.000000,0.000000,0.000000,0.000000,0.000000,0.000000,0.000000,0.000000,0.000000,0.000000,1.91817089,0.00192691,0.00161144,0.00059955,0.00010062,1.29844492,0.00000000,0.61548744,0.00013764,0.00080572,0.00023982,0.00020125,3.07743719,0.00000000,2.16407487
7.200,3,1,1,-530.337,191.590,48.363,11.714,-1.884,0.446,-11.268,-9.411,nan,1.018647,-0.120609,-0.255361,0.199663,0.252846,0.368265,-0.090290,0.708328,0.612342,65.856001,-50.328962,100.000000,15.527039,nan,0.000000,0.000000,0.000000,0.000000,0.000000,0.000000,0.000000,0.000000,0.000000,0.000000,0.000000,0.000000,1.93074116,0.00193311,0.00161970,0.00060451,0.00010075,1.30076346,0.00000000,0.62571964,0.00013808,0.00080985,0.00024180,0.00020150,3.12859819,0.00000000,2.16793909
7.300,3,1,1,-530.313,191.603,48.340,11.114,-1.901,0.330,-10.784,-2.893,nan,1.056108,-0.147110,-0.316063,0.197089,0.251679,0.360885,-0.078344,0.705492,0.609554,66.010506,-51.179369,100.000000,14.831137,nan,0.000000,0.000000,0.000000,0.000000,0.000000,0.000000,0.000000,0.000000,0.000000,0.000000,0.000000,0.000000,1.94312297,0.00194235,0.00162764,0.00061212,0.00010084,1.30289104,0.00000000,0.63594898,0.00013874,0.00081382,0.00024485,0.00020168,3.17974489,0.00000000,2.17148506
7.419,3,1,1,-530.287,191.618,48.314,11.114,-1.919,0.316,-10.798,-2.893,nan,0.869810,-0.147110,-0.316063,0.196523,0.250327,0.360885,-0.078344,0.699491,0.606323,66.031394,-51.187555,100.000000,14.843840,nan,0.000000,0.000000,0.000000,0.000000,0.000000,0.000000,0.000000,0.000000,0.000000,0.000000,0.000000,0.000000,1.95785255,0.00195333,0.00163709,0.00062118,0.00010095,1.30542732,0.00000000,0.64811267,0.00013952,0.00081854,0.00024847,0.00020191,3.24056336,0.00000000,2.17571221
7.500,3,1,1,-530.213,191.657,48.241,9.909,-1.969,0.071,-9.838,-10.328,nan,1.027789,-0.194533,-0.227478,0.197704,0.249782,0.351247,-0.030148,0.692433,0.604108,66.305443,-49.320309,100.000000,16.985134,nan,0.000000,0.000000,0.000000,0.000000,0.000000,0.000000,0.000000,0.000000,0.000000,0.000000,0.000000,0.000000,1.96765587,0.00196643,0.00164318,0.00062438,0.00010096,1.30686240,0.00000000,0.65645852,0.00014046,0.00082159,0.00024975,0.00020193,3.28229262,0.00000000,2.17810400
7.600,3,1,1,-530.162,191.683,48.191,9.234,-2.002,-0.071,-9.305,-10.872,nan,1.049675,-0.219185,-0.199029,0.198256,0.249399,0.348560,-0.022279,0.686100,0.601418,66.454807,-48.908679,100.000000,17.546128,nan,0.000000,0.000000,0.000000,0.000000,0.000000,0.000000,0.000000,0.000000,0.000000,0.000000,0.000000,0.000000,1.97955195,0.00198687,0.00165057,0.00062739,0.00010097,1.30844159,0.00000000,0.66674456,0.00014192,0.00082528,0.00025095,0.00020194,3.33372281,0.00000000,2.18073598
7.700,3,1,1,-530.110,191.709,48.141,8.691,-2.034,-0.189,-8.881,-2.206,nan,1.078439,-0.237686,-0.178318,0.202807,0.249248,0.347524,0.010751,0.676249,0.598771,66.578106,-50.169046,100.000000,16.409060,nan,0.000000,0.000000,0.000000,0.000000,0.000000,0.000000,0.000000,0.000000,0.000000,0.000000,0.000000,0.000000,1.99130599,0.00201098,0.00165793,0.00062981,0.00010097,1.30988416,0.00000000,0.67702213,0.00014364,0.00082897,0.00025192,0.00020195,3.38511065,0.00000000,2.18314027
7.800,3,1,1,-530.058,191.734,48.089,8.021,-2.066,-0.330,-8.351,-11.674,nan,1.101033,-0.254773,-0.112037,0.206729,0.249321,0.347781,0.013324,0.666355,0.596187,66.707993,-48.201776,100.000000,18.506217,nan,0.000000,0.000000,0.000000,0.000000,0.000000,0.000000,0.000000,0.000000,0.000000,0.000000,0.000000,0.000000,2.00295027,0.00203864,0.00166530,0.00063076,0.00010098,1.31115769,0.00000000,0.68735690,0.00014562,0.00083265,0.00025231,0.00020195,3.43678449,0.00000000,2.18526282
7.900,3,1,1,-530.005,191.758,48.038,7.351,-2.097,-0.469,-7.821,-11.201,nan,1.101376,-0.269454,-0.167178,0.208484,0.249590,0.349863,0.005776,0.660442,0.593674,66.842474,-47.969531,100.000000,18.872943,nan,0.000000,0.000000,0.000000,0.000000,0.000000,0.000000,0.000000,0.000000,0.000000,0.000000,0.000000,0.000000,2.01446079,0.00206960,0.00167275,0.00063289,0.00010098,1.31227514,0.00000000,0.69770943,0.00014783,0.00083638,0.00025316,0.00020195,3.48854717,0.00000000,2.18712524
8.035,3,1,1,-530.005,191.758,48.038,7.351,-2.097,-0.469,-7.821,-11.201,nan,1.101376,-0.269454,-0.167178,0.215228,0.249940,0.349863,0.005776,0.644163,0.590371,66.842234,-47.969531,100.000000,18.872703,nan,0.000000,0.000000,0.000000,0.000000,0.000000,0.000000,0.000000,0.000000,0.000000,0.000000,0.000000,0.000000,2.02997622,0.00211132,0.00168280,0.00063576,0.00010098,1.31378140,0.00000000,0.71166396,0.00015081,0.00084140,0.00025430,0.00020196,3.55831981,0.00000000,2.18963567
8.100,3,1,1,-529.898,191.805,47.932,6.110,-2.158,-0.731,-6.841,-11.860,nan,0.975805,-0.289152,-0.104772,0.217330,0.250286,0.358147,0.074237,0.638713,0.588845,67.090190,-47.272410,100.000000,19.817781,nan,0.000000,0.000000,0.000000,0.000000,0.000000,0.000000,0.000000,0.000000,0.000000,0.000000,0.000000,0.000000,2.03734737,0.00213459,0.00168790,0.00063631,0.00010103,1.31433967,0.00000000,0.71844787,0.00015247,0.00084395,0.00025452,0.00020206,3.59223934,0.00000000,2.19056612
8.200,3,1,1,-529.844,191.827,47.879,5.490,-2.187,-0.861,-6.351,-0.702,nan,1.059357,-0.294197,-0.077576,0.222039,0.250875,0.364798,0.084339,0.627386,0.586598,67.217580,-48.929064,100.000000,18.288517,nan,0.000000,0.000000,0.000000,0.000000,0.000000,0.000000,0.000000,0.000000,0.000000,0.000000,0.000000,0.000000,2.04846475,0.00217150,0.00169601,0.00063676,0.00010114,1.31507691,0.00000000,0.72878242,0.00015511,0.00084800,0.00025471,0.00020228,3.64391210,0.00000000,2.19179485
8.300,3,1,1,-529.789,191.849,47.825,4.875,-2.216,-0.989,-5.865,-0.802,nan,1.116523,-0.294213,0.015791,0.226083,0.251450,0.373151,0.124080,0.615013,0.584462,67.337425,-48.622625,100.000000,18.714801,nan,0.000000,0.000000,0.000000,0.000000,0.000000,0.000000,0.000000,0.000000,0.000000,0.000000,0.000000,0.000000,2.05948996,0.00220842,0.00170449,0.00063678,0.00010138,1.31570562,0.00000000,0.73913327,0.00015774,0.00085225,0.00025471,0.00020275,3.69566636,0.00000000,2.19284270
8.400,3,1,1,-529.734,191.870,47.770,4.215,-2.244,-1.126,-5.340,-11.645,nan,1.149798,-0.291062,0.083746,0.229598,0.251964,0.383003,0.133847,0.602239,0.582447,67.474671,-46.418293,100.000000,21.056378,nan,0.000000,0.000000,0.000000,0.000000,0.000000,0.000000,0.000000,0.000000,0.000000,0.000000,0.000000,0.000000,2.07049952,0.00224455,0.00171343,0.00063732,0.00010165,1.31622680,0.00000000,0.74957578,0.00016032,0.00085671,0.00025493,0.00020330,3.74787889,0.00000000,2.19371134
8.529,3,1,1,-529.734,191.870,47.770,4.215,-2.244,-1.126,-5.340,-11.645,nan,1.149798,-0.291062,0.083746,0.233428,0.252607,0.383003,0.133847,0.579304,0.579917,67.476080,-46.418293,100.000000,21.057787,nan,0.000000,0.000000,0.000000,0.000000,0.000000,0.000000,0.000000,0.000000,0.000000,0.000000,0.000000,0.000000,2.08465652,0.00229100,0.00172492,0.00063800,0.00010200,1.31689698,0.00000000,0.76300362,0.00016364,0.00086246,0.00025520,0.00020400,3.81501812,0.00000000,2.19482830
8.600,3,1,1,-529.621,191.910,47.660,2.948,-2.297,-1.388,-4.336,-0.301,nan,2.363868,-0.276064,0.088338,0.234837,0.252813,0.404924,0.107351,0.565512,0.578666,67.766203,-47.801091,100.000000,19.965112,nan,0.000000,0.000000,0.000000,0.000000,0.000000,0.000000,0.000000,0.000000,0.000000,0.000000,0.000000,0.000000,2.09235922,0.00231421,0.00173205,0.00063843,0.00010212,1.31714236,0.00000000,0.77043004,0.00016530,0.00086603,0.00025537,0.00020425,3.85215020,0.00000000,2.19523727
8.700,3,1,1,-529.565,191.929,47.604,2.347,-2.323,-1.512,-3.859,0.358,nan,1.847168,-0.261732,0.188324,0.235529,0.252919,0.417158,0.163931,0.562359,0.577046,67.913236,-47.632638,100.000000,20.280598,nan,0.000000,0.000000,0.000000,0.000000,0.000000,0.000000,0.000000,0.000000,0.000000,0.000000,0.000000,0.000000,2.10308573,0.00234343,0.00174265,0.00064113,0.00010253,1.31741458,0.00000000,0.78084140,0.00016739,0.00087133,0.00025645,0.00020507,3.90420702,0.00000000,2.19569096
8.800,3,1,1,-529.508,191.948,47.548,1.691,-2.348,-1.646,-3.337,-13.679,nan,1.570562,-0.244586,0.221657,0.236046,0.252825,0.430648,0.157486,0.548969,0.575573,68.054919,-44.871895,100.000000,23.183024,nan,0.000000,0.000000,0.000000,0.000000,0.000000,0.000000,0.000000,0.000000,0.000000,0.000000,0.000000,0.000000,2.11386878,0.00236894,0.00175395,0.00064487,0.00010291,1.31761812,0.00000000,0.79137998,0.00016921,0.00087698,0.00025795,0.00020582,3.95689992,0.00000000,2.19603020
8.900,3,1,1,-529.450,191.966,47.491,1.035,-2.372,-1.779,-2.815,-14.396,nan,1.405605,-0.225848,0.231960,0.235062,0.252534,0.445090,0.161299,0.536113,0.574256,68.220107,-44.436091,100.000000,23.784016,nan,0.000000,0.000000,0.000000,0.000000,0.000000,0.000000,0.000000,0.000000,0.000000,0.000000,0.000000,0.000000,2.12461665,0.00239069,0.00176602,0.00064897,0.00010331,1.31776291,0.00000000,0.80194474,0.00017076,0.00088301,0.00025959,0.00020662,4.00972372,0.00000000,2.19627152
9.000,3,1,1,-529.392,191.983,47.433,0.444,-2.395,-1.901,-2.345,2.120,nan,1.326966,-0.203700,0.207556,0.233158,0.252038,0.460299,0.149703,0.523766,0.573100,68.381340,-47.039124,100.000000,21.342216,nan,0.000000,0.000000,0.000000,0.000000,0.000000,0.000000,0.000000,0.000000,0.000000,0.000000,0.000000,0.000000,2.13520580,0.00240839,0.00177893,0.00065225,0.00010365,1.31786345,0.00000000,0.81239914,0.00017203,0.00088946,0.00026090,0.00020730,4.06199571,0.00000000,2.19643908
9.122,3,1,1,-529.392,191.983,47.433,0.444,-2.395,-1.901,-2.345,2.120,nan,1.326966,-0.203700,0.207556,0.228717,0.251443,0.460299,0.149703,0.501183,0.571717,68.422486,-47.039124,100.000000,21.383362,nan,0.000000,0.000000,0.000000,0.000000,0.000000,0.000000,0.000000,0.000000,0.000000,0.000000,0.000000,0.000000,2.14816666,0.00243004,0.00179472,0.00065626,0.00010407,1.31798647,0.00000000,0.82519509,0.00017357,0.00089736,0.00026251,0.00020813,4.12597545,0.00000000,2.19664412
9.200,3,1,1,-529.275,192.014,47.318,-0.752,-2.440,-2.146,-1.393,-14.539,nan,1.636643,-0.153939,0.364907,0.224715,0.250771,0.492884,0.295950,0.490764,0.571090,68.760973,-43.564332,100.000000,25.196641,nan,0.000000,0.000000,0.000000,0.000000,0.000000,0.000000,0.000000,0.000000,0.000000,0.000000,0.000000,0.000000,2.15648785,0.00243789,0.00180623,0.00066414,0.00010510,1.31801405,0.00000000,0.83346044,0.00017414,0.00090311,0.00026566,0.00021021,4.16730218,0.00000000,2.19669008
9.300,3,1,1,-529.216,192.029,47.259,-1.334,-2.461,-2.264,-0.930,2.535,nan,1.459278,-0.126126,0.439968,0.222830,0.249749,0.512081,0.347032,0.491295,0.570480,68.938635,-46.268032,100.000000,22.670603,nan,0.000000,0.000000,0.000000,0.000000,0.000000,0.000000,0.000000,0.000000,0.000000,0.000000,0.000000,0.000000,2.16705679,0.00244468,0.00182220,0.00067889,0.00010694,1.31802985,0.00000000,0.84397423,0.00017462,0.00091110,0.00027155,0.00021388,4.21987117,0.00000000,2.19671642
9.400,3,1,1,-529.156,192.044,47.200,-2.021,-2.481,-2.401,-0.380,2.793,nan,1.360180,-0.092725,0.273102,0.217977,0.248589,0.533667,0.196924,0.481984,0.570097,69.099706,-45.984966,100.000000,23.114740,nan,0.000000,0.000000,0.000000,0.000000,0.000000,0.000000,0.000000,0.000000,0.000000,0.000000,0.000000,0.000000,2.17761351,0.00244834,0.00183954,0.00068456,0.00010753,1.31803249,0.00000000,0.85450104,0.00017488,0.00091977,0.00027382,0.00021506,4.27250522,0.00000000,2.19672082
9.500,3,1,1,-529.096,192.057,47.141,-2.559,-2.501,-2.511,0.048,-15.713,nan,1.308233,-0.064934,0.748973,0.209933,0.247351,0.551232,0.423418,0.466275,0.569899,69.246469,-42.497636,100.000000,26.748833,nan,0.000000,0.000000,0.000000,0.000000,0.000000,0.000000,0.000000,0.000000,0.000000,0.000000,0.000000,0.000000,2.18840288,0.00245014,0.00185807,0.00072731,0.00011026,1.31803254,0.00000000,0.86522457,0.00017501,0.00092903,0.00029093,0.00022052,4.32612284,0.00000000,2.19672089
9.624,3,1,1,-529.096,192.057,47.141,-2.559,-2.501,-2.511,0.048,-15.713,nan,1.308233,-0.064934,0.748973,0.204819,0.245845,0.551232,0.423418,0.460773,0.569660,69.342119,-42.495337,100.000000,26.846781,nan,0.000000,0.000000,0.000000,0.000000,0.000000,0.000000,0.000000,0.000000,0.000000,0.000000,0.000000,0.000000,2.20178328,0.00245237,0.00188103,0.00078030,0.00011365,1.31803259,0.00000000,0.87852334,0.00017517,0.00094052,0.00031212,0.00022730,4.39261670,0.00000000,2.19672098
9.700,3,1,1,-528.975,192.082,47.021,-3.772,-2.538,-2.754,1.018,4.111,nan,1.555666,-0.002895,0.314708,0.199680,0.244869,0.590891,0.229929,0.457504,0.569831,69.131219,-45.345217,100.000000,23.786002,nan,0.000000,0.000000,0.000000,0.000000,0.000000,0.000000,0.000000,0.000000,0.000000,0.000000,0.000000,0.000000,2.20985167,0.00245238,0.00189720,0.00078604,0.00011426,1.31804698,0.00000000,0.88655481,0.00017517,0.00094860,0.00031442,0.00022852,4.43277405,0.00000000,2.19674497
9.800,3,1,1,-528.914,192.093,46.961,-4.334,-2.555,-2.867,1.467,4.641,nan,1.419823,0.029196,0.461218,0.197283,0.243621,0.611641,0.235407,0.461876,0.570278,69.056048,-45.111816,100.000000,23.944232,nan,0.000000,0.000000,0.000000,0.000000,0.000000,0.000000,0.000000,0.000000,0.000000,0.000000,0.000000,0.000000,2.22049918,0.00245274,0.00191998,0.00080223,0.00011510,1.31808629,0.00000000,0.89712284,0.00017520,0.00095999,0.00032089,0.00023021,4.48561418,0.00000000,2.19681049
9.900,3,1,1,-528.853,192.104,46.900,-4.976,-2.571,-2.994,1.982,-16.043,nan,1.349895,0.058782,0.353022,0.190447,0.242446,0.634462,0.252014,0.455103,0.570970,68.925505,-41.115764,100.000000,27.809741,nan,0.000000,0.000000,0.000000,0.000000,0.000000,0.000000,0.000000,0.000000,0.000000,0.000000,0.000000,0.000000,2.23138348,0.00245421,0.00194451,0.00081172,0.00011607,1.31815810,0.00000000,0.90789887,0.00017530,0.00097226,0.00032469,0.00023214,4.53949433,0.00000000,2.19693016
10.000,3,1,1,-528.792,192.114,46.839,-5.617,-2.587,-3.120,2.497,-16.143,nan,1.306387,0.085248,0.143067,0.187282,0.241370,0.657940,0.245580,0.457079,0.571915,68.852581,-40.691263,100.000000,28.161318,nan,0.000000,0.000000,0.000000,0.000000,0.000000,0.000000,0.000000,0.000000,0.000000,0.000000,0.000000,0.000000,2.24231709,0.00245731,0.00197087,0.00081328,0.00011699,1.31827200,0.00000000,0.91868664,0.00017552,0.00098544,0.00032531,0.00023398,4.59343319,0.00000000,2.19712000
10.100,3,1,1,-528.730,192.124,46.778,-6.170,-2.602,-3.231,2.940,5.286,nan,1.284510,0.111712,0.229184,0.185091,0.240419,0.680369,0.231912,0.460734,0.573103,68.752369,-44.049643,100.000000,24.702726,nan,0.000000,0.000000,0.000000,0.000000,0.000000,0.000000,0.000000,0.000000,0.000000,0.000000,0.000000,0.000000,2.25312436,0.00246263,0.00199907,0.00081728,0.00011781,1.31842997,0.00000000,0.92929760,0.00017590,0.00099954,0.00032691,0.00023562,4.64648798,0.00000000,2.19738328
10.225,3,1,1,-528.730,192.124,46.778,-6.170,-2.602,-3.231,2.940,5.286,nan,1.284510,0.111712,0.229184,0.183549,0.239250,0.680369,0.231912,0.465158,0.574552,68.760864,-43.905439,100.000000,24.855425,nan,0.000000,0.000000,0.000000,0.000000,0.000000,0.000000,0.000000,0.000000,0.000000,0.000000,0.000000,0.000000,2.26665626,0.00246929,0.00203436,0.00082229,0.00011883,1.31862762,0.00000000,0.94258386,0.00017638,0.00101718,0.00032891,0.00023767,4.71291932,0.00000000,2.19771270
10.300,3,1,1,-528.605,192.141,46.654,-7.357,-2.630,-3.464,3.893,-16.802,nan,1.580362,0.160517,0.262812,0.183552,0.238766,0.725051,0.239719,0.471928,0.575801,68.505040,-39.359363,100.000000,29.145677,nan,0.000000,0.000000,0.000000,0.000000,0.000000,0.000000,0.000000,0.000000,0.000000,0.000000,0.000000,0.000000,2.27502426,0.00247752,0.00205834,0.00082623,0.00011949,1.31883499,0.00000000,0.95070769,0.00017697,0.00102917,0.00033049,0.00023898,4.75353845,0.00000000,2.19805832
10.400,3,1,1,-528.543,192.148,46.592,-7.994,-2.642,-3.588,4.406,-18.206,nan,1.444439,0.177135,0.004397,0.183399,0.238244,0.746832,0.256271,0.480508,0.577707,68.351398,-38.627863,100.000000,29.723535,nan,0.000000,0.000000,0.000000,0.000000,0.000000,0.000000,0.000000,0.000000,0.000000,0.000000,0.000000,0.000000,2.28631072,0.00249090,0.00209232,0.00082623,0.00012049,1.31918985,0.00000000,0.96159094,0.00017792,0.00104616,0.00033049,0.00024098,4.80795468,0.00000000,2.19864975
10.500,3,1,1,-528.480,192.155,46.530,-8.535,-2.654,-3.695,4.840,6.045,nan,1.368623,0.191873,0.094214,0.185749,0.237841,0.766376,0.191599,0.488779,0.579817,68.216630,-42.402767,100.000000,25.813863,nan,0.000000,0.000000,0.000000,0.000000,0.000000,0.000000,0.000000,0.000000,0.000000,0.000000,0.000000,0.000000,2.29746356,0.00250661,0.00212812,0.00082690,0.00012105,1.31961825,0.00000000,0.97226262,0.00017904,0.00106406,0.00033076,0.00024210,4.86131310,0.00000000,2.19936376
10.600,3,1,1,-528.417,192.161,46.467,-9.071,-2.666,-3.800,5.271,6.073,nan,1.311817,0.205891,0.286900,0.186266,0.237557,0.785279,0.149279,0.498115,0.582115,68.064744,-41.932260,100.000000,26.132484,nan,0.000000,0.000000,0.000000,0.000000,0.000000,0.000000,0.000000,0.000000,0.000000,0.000000,0.000000,0.000000,2.30870584,0.00252467,0.00216566,0.00083317,0.00012139,1.32012561,0.00000000,0.98293535,0.00018033,0.00108283,0.00033327,0.00024277,4.91467673,0.00000000,2.20020935
10.700,3,1,1,-528.384,192.164,46.435,-9.658,-2.671,-3.909,5.749,7.305,nan,1.256769,0.214106,0.010663,0.188946,0.237346,0.803346,0.301165,0.508753,0.584596,67.911647,-41.619528,100.000000,26.292118,nan,0.000000,0.000000,0.000000,0.000000,0.000000,0.000000,0.000000,0.000000,0.000000,0.000000,0.000000,0.000000,2.32006081,0.00254422,0.00220497,0.00083317,0.00012277,1.32072966,0.00000000,0.99362602,0.00018173,0.00110249,0.00033327,0.00024554,4.96813009,0.00000000,2.20121610
10.823,3,1,1,-528.384,192.164,46.435,-9.658,-2.671,-3.909,5.749,7.305,nan,1.256769,0.214106,0.010663,0.194181,0.237092,0.803346,0.301165,0.521886,0.587576,67.868828,-41.331950,100.000000,26.536878,nan,0.000000,0.000000,0.000000,0.000000,0.000000,0.000000,0.000000,0.000000,0.000000,0.000000,0.000000,0.000000,2.33407259,0.00256831,0.00225343,0.00083318,0.00012447,1.32147419,0.00000000,1.00681899,0.00018345,0.00112672,0.00033327,0.00024894,5.03409495,0.00000000,2.20245699
10.900,3,1,1,-528.257,192.174,46.308,-10.658,-2.691,-4.105,6.552,6.990,nan,1.108839,0.220069,0.031753,0.194854,0.236975,0.836565,0.134102,0.531781,0.589719,67.585004,-40.563374,100.000000,27.021630,nan,0.000000,0.000000,0.000000,0.000000,0.000000,0.000000,0.000000,0.000000,0.000000,0.000000,0.000000,0.000000,2.34296172,0.00258417,0.00228617,0.00083324,0.00012468,1.32207664,0.00000000,1.01505682,0.00018458,0.00114308,0.00033330,0.00024936,5.07528409,0.00000000,2.20346106
11.000,3,1,1,-528.194,192.178,46.245,-11.293,-2.699,-4.227,7.066,-18.621,nan,1.163179,0.216311,0.027303,0.199976,0.236794,0.852353,0.095882,0.547640,0.592659,67.420329,-35.468373,100.000000,31.951956,nan,0.000000,0.000000,0.000000,0.000000,0.000000,0.000000,0.000000,0.000000,0.000000,0.000000,0.000000,0.000000,2.35495573,0.00260412,0.00233041,0.00083330,0.00012482,1.32298889,0.00000000,1.02607419,0.00018601,0.00116521,0.00033332,0.00024964,5.13037094,0.00000000,2.20498148
11.100,3,1,1,-528.130,192.181,46.182,-11.928,-2.707,-4.348,7.579,-19.194,nan,1.203720,0.208966,-0.112459,0.200200,0.236555,0.864110,0.099633,0.557501,0.595687,67.210333,-34.708228,100.000000,32.502105,nan,0.000000,0.000000,0.000000,0.000000,0.000000,0.000000,0.000000,0.000000,0.000000,0.000000,0.000000,0.000000,2.36712843,0.00262274,0.00237591,0.00083426,0.00012497,1.32403894,0.00000000,1.03713160,0.00018734,0.00118795,0.00033371,0.00024995,5.18565801,0.00000000,2.20673156
11.200,3,1,1,-528.066,192.184,46.118,-12.449,-2.714,-4.449,8.000,8.107,nan,1.228875,0.201225,-0.168098,0.203780,0.236260,0.871139,0.069033,0.574965,0.598737,67.074307,-38.839854,100.000000,28.234453,nan,0.000000,0.000000,0.000000,0.000000,0.000000,0.000000,0.000000,0.000000,0.000000,0.000000,0.000000,0.000000,2.37915856,0.00264001,0.00242213,0.00083641,0.00012505,1.32520848,0.00000000,1.04792648,0.00018857,0.00121107,0.00033457,0.00025009,5.23963242,0.00000000,2.20868080
11.300,3,1,1,-528.002,192.186,46.054,-12.954,-2.720,-4.546,8.408,-18.951,nan,1.219385,0.191945,-0.097372,0.203500,0.235901,0.875951,0.059380,0.584155,0.601782,66.901202,-33.454858,100.000000,33.446344,nan,0.000000,0.000000,0.000000,0.000000,0.000000,0.000000,0.000000,0.000000,0.000000,0.000000,0.000000,0.000000,2.39164122,0.00265573,0.00246891,0.00083714,0.00012510,1.32650135,0.00000000,1.05905299,0.00018969,0.00123446,0.00033485,0.00025020,5.29526493,0.00000000,2.21083559
11.427,3,1,1,-528.002,192.186,46.054,-12.954,-2.720,-4.546,8.408,-18.951,nan,1.219385,0.191945,-0.097372,0.205637,0.235455,0.875951,0.059380,0.602028,0.605534,66.883694,-32.959249,99.842943,33.924445,nan,0.000000,0.000000,0.000000,0.000000,0.000000,0.000000,0.000000,0.000000,0.000000,0.000000,0.000000,0.000000,2.40742595,0.00267561,0.00252806,0.00083805,0.00012517,1.32813612,0.00000000,1.07312294,0.00019112,0.00126403,0.00033522,0.00025033,5.36561469,0.00000000,2.21356020
11.500,3,1,1,-527.874,192.188,45.926,-14.090,-2.731,-4.762,9.329,9.296,nan,3.041843,0.153446,-0.276969,0.204522,0.235017,0.882924,0.015566,0.610419,0.607730,66.582564,-36.860861,100.000000,29.721703,nan,0.000000,0.000000,0.000000,0.000000,0.000000,0.000000,0.000000,0.000000,0.000000,0.000000,0.000000,0.000000,2.41664061,0.00268299,0.00256297,0.00084234,0.00012517,1.32930510,0.00000000,1.08112203,0.00019164,0.00128148,0.00033694,0.00025034,5.40561015,0.00000000,2.21550850
11.600,3,1,1,-527.809,192.188,45.861,-14.594,-2.735,-4.858,9.737,8.738,nan,2.269294,0.132674,0.006497,0.202899,0.234319,0.883637,-0.028824,0.628749,0.610669,66.463241,-35.924146,100.000000,30.539095,nan,0.000000,0.000000,0.000000,0.000000,0.000000,0.000000,0.000000,0.000000,0.000000,0.000000,0.000000,0.000000,2.42936038,0.00269050,0.00261054,0.00084235,0.00012518,1.33103773,0.00000000,1.09205409,0.00019218,0.00130527,0.00033694,0.00025037,5.46027044,0.00000000,2.21839622
11.700,3,1,1,-527.744,192.187,45.797,-15.216,-2.738,-4.974,10.242,-21.042,nan,1.836958,0.108728,-0.171963,0.201128,0.233525,0.882617,-0.022780,0.636147,0.613531,66.300481,-29.706399,96.006880,36.594081,nan,0.000000,0.000000,0.000000,0.000000,0.000000,0.000000,0.000000,0.000000,0.000000,0.000000,0.000000,0.000000,2.44188689,0.00269554,0.00265799,0.00084460,0.00012519,1.33295476,0.00000000,1.10260882,0.00019254,0.00132899,0.00033784,0.00025038,5.51304410,0.00000000,2.22159126
11.800,3,1,1,-527.680,192.186,45.732,-15.836,-2.740,-5.090,10.746,-20.856,nan,1.597066,0.081220,-0.441386,0.196452,0.232646,0.877370,-0.048183,0.654219,0.616266,66.162497,-28.583341,94.745839,37.579156,nan,0.000000,0.000000,0.000000,0.000000,0.000000,0.000000,0.000000,0.000000,0.000000,0.000000,0.000000,0.000000,2.45444870,0.00269835,0.00270488,0.00085943,0.00012523,1.33506487,0.00000000,1.11299595,0.00019274,0.00135244,0.00034377,0.00025045,5.56497973,0.00000000,2.22510812
11.900,3,1,1,-527.615,192.184,45.667,-16.322,-2.741,-5.181,11.141,10.270,nan,1.461799,0.053852,-0.275533,0.191966,0.231710,0.866573,-0.110763,0.666120,0.618814,66.052140,-32.812168,98.864308,33.239972,nan,0.000000,0.000000,0.000000,0.000000,0.000000,0.000000,0.000000,0.000000,0.000000,0.000000,0.000000,0.000000,2.46764617,0.00269959,0.00275062,0.00086521,0.00012541,1.33733289,0.00000000,1.12387246,0.00019283,0.00137531,0.00034609,0.00025083,5.61936229,0.00000000,2.22888814
12.029,3,1,1,-527.615,192.184,45.667,-16.322,-2.741,-5.181,11.141,10.270,nan,1.461799,0.053852,-0.275533,0.189797,0.230526,0.866573,-0.110763,0.671721,0.622010,66.059483,-31.694469,97.753952,34.365014,nan,0.000000,0.000000,0.000000,0.000000,0.000000,0.000000,0.000000,0.000000,0.000000,0.000000,0.000000,0.000000,2.48441394,0.00270118,0.00280936,0.00087264,0.00012565,1.34024586,0.00000000,1.13765925,0.00019294,0.00140468,0.00034906,0.00025131,5.68829625,0.00000000,2.23374309
12.100,3,1,1,-527.485,192.178,45.537,-17.404,-2.741,-5.382,12.023,-21.901,nan,2.924732,-0.002861,-0.193911,0.185073,0.229838,0.831390,-0.161372,0.681969,0.623467,65.826532,-24.082455,89.908986,41.744077,nan,0.000000,0.000000,0.000000,0.000000,0.000000,0.000000,0.000000,0.000000,0.000000,0.000000,0.000000,0.000000,2.49336095,0.00270118,0.00283947,0.00087468,0.00012594,1.34213478,0.00000000,1.14468490,0.00019294,0.00141974,0.00034987,0.00025187,5.72342451,0.00000000,2.23689130
12.200,3,1,1,-527.421,192.174,45.473,-18.002,-2.740,-5.491,12.510,-21.801,nan,2.211411,-0.034314,-0.531991,0.175738,0.228906,0.809128,-0.241479,0.697526,0.625230,65.708073,-21.950549,87.658622,43.757524,nan,0.000000,0.000000,0.000000,0.000000,0.000000,0.000000,0.000000,0.000000,0.000000,0.000000,0.000000,0.000000,2.50589075,0.00270168,0.00287938,0.00089625,0.00012682,1.34499699,0.00000000,1.15428962,0.00019298,0.00143969,0.00035850,0.00025365,5.77144812,0.00000000,2.24166165
12.300,3,1,1,-527.356,192.169,45.408,-18.451,-2.738,-5.574,12.877,11.889,nan,1.807724,-0.062248,-0.248061,0.173854,0.228036,0.784996,-0.196916,0.699790,0.626705,65.643880,-25.484562,91.128441,40.159318,nan,0.000000,0.000000,0.000000,0.000000,0.000000,0.000000,0.000000,0.000000,0.000000,0.000000,0.000000,0.000000,2.51887615,0.00270333,0.00291691,0.00090093,0.00012742,1.34802601,0.00000000,1.16420155,0.00019310,0.00145845,0.00036037,0.00025483,5.82100774,0.00000000,2.24671002
12.400,3,1,1,-527.291,192.163,45.343,-18.885,-2.735,-5.653,13.232,12.132,nan,1.560656,-0.086680,-0.031874,0.168217,0.227240,0.758934,-0.367622,0.707360,0.627894,65.557102,-22.750738,88.307840,42.806363,nan,0.000000,0.000000,0.000000,0.000000,0.000000,0.000000,0.000000,0.000000,0.000000,0.000000,0.000000,0.000000,2.53175182,0.00270654,0.00295201,0.00090101,0.00012947,1.35122734,0.00000000,1.17383545,0.00019332,0.00147600,0.00036040,0.00025895,5.86917727,0.00000000,2.25204556
12.500,3,1,1,-527.227,192.157,45.278,-19.406,-2.730,-5.747,13.660,12.677,nan,1.445226,-0.110630,-0.256809,0.162878,0.226539,0.732510,-0.237020,0.714050,0.628809,65.466741,-19.336078,84.802819,46.130663,nan,0.000000,0.000000,0.000000,0.000000,0.000000,0.000000,0.000000,0.000000,0.000000,0.000000,0.000000,0.000000,2.54453709,0.00271176,0.00298473,0.00090604,0.00013033,1.35464064,0.00000000,1.18316359,0.00019370,0.00149236,0.00036242,0.00026066,5.91581793,0.00000000,2.25773441
12.629,3,1,1,-527.227,192.157,45.278,-19.406,-2.730,-5.747,13.660,12.677,nan,1.445226,-0.110630,-0.256809,0.153217,0.225648,0.732510,-0.237020,0.726816,0.629965,65.490874,-15.842211,81.333085,49.648663,nan,0.000000,0.000000,0.000000,0.000000,0.000000,0.000000,0.000000,0.000000,0.000000,0.000000,0.000000,0.000000,2.56071952,0.00271850,0.00302693,0.00091252,0.00013144,1.35904345,0.00000000,1.19488668,0.00019418,0.00151347,0.00036501,0.00026287,5.97443341,0.00000000,2.26507241
