t,controller_id,state_code,wp_idx,x,y,dist,yaw_deg,yaw_to_wp_deg,yaw_ref_deg,yaw_err_deg,yaw_rate_deg_s,speed_ref,speed_meas,roll_deg,roll_rate_deg_s,roll_rms_window_deg,roll_rms_total_deg,pitch_deg,pitch_rate_deg_s,pitch_rms_window_deg,pitch_rms_total_deg,base_cmd,diff_cmd,T_left,T_right,J_inst,J_goal,J_wave_roll,J_progress,J_smooth,J_mpc_distance,J_mpc_final,J_mpc_heading,J_mpc_wrong_way,J_mpc_pitch,J_mpc_control,J_mpc_slew,J_mpc_turn,J_total,J_roll,J_pitch,J_roll_rate,J_pitch_rate,J_goal_heading,J_no_progress,J_control,I_roll,I_pitch,I_roll_rate,I_pitch_rate,I_control,I_no_progress,I_goal_heading
0.200,3,1,1,-532.028,189.994,50.028,57.521,0.006,9.588,-47.933,-0.329,nan,0.000000,1.434559,-5.171595,1.434559,1.434559,1.758946,-4.626377,1.758946,1.758946,58.578723,-56.108499,8.000000,2.470224,nan,0.000000,0.000000,0.000000,0.000000,0.000000,0.000000,0.000000,0.000000,0.000000,0.000000,0.000000,0.000000,0.04237202,0.00081745,0.00017556,0.00189709,0.00030363,0.03911298,0.00000000,0.00006529,0.00005839,0.00008778,0.00075883,0.00060727,0.00032647,0.00000000,0.06518831
0.449,3,1,1,-532.028,189.994,50.028,57.521,0.006,9.588,-47.933,-0.329,nan,0.000000,1.434559,-5.171595,1.434559,1.434559,1.758946,-4.626377,1.758946,1.758946,46.850017,-60.704453,16.000000,-5.529776,nan,0.000000,0.000000,0.000000,0.000000,0.000000,0.000000,0.000000,0.000000,0.000000,0.000000,0.000000,0.000000,0.15599209,0.00299906,0.00064410,0.00696001,0.00111397,0.14349729,0.00000000,0.00077766,0.00021422,0.00032205,0.00278400,0.00222794,0.00388828,0.00000000,0.23916215
0.500,3,1,1,-532.089,189.983,50.089,57.520,0.019,9.589,-47.932,-0.415,nan,0.372040,-0.057649,-5.674790,1.171785,1.337643,0.390729,-5.257593,1.453783,1.645991,46.850326,-61.639045,24.000000,-13.529776,nan,0.000000,0.000000,0.000000,0.000000,0.000000,0.000000,0.000000,0.000000,0.000000,0.000000,0.000000,0.000000,0.17945066,0.00299979,0.00064889,0.00822070,0.00133040,0.16508303,0.00000000,0.00116786,0.00021427,0.00032444,0.00328828,0.00266079,0.00583928,0.00000000,0.27513838
0.600,3,1,1,-532.109,189.980,50.109,57.495,0.023,9.584,-47.911,-1.089,nan,0.390102,-0.567050,-5.505915,1.053659,1.221308,-0.065830,-4.784490,1.259443,1.469916,48.902374,-63.357392,32.000000,-14.455019,nan,0.000000,0.000000,0.000000,0.000000,0.000000,0.000000,0.000000,0.000000,0.000000,0.000000,0.000000,0.000000,0.22544211,0.00313695,0.00064915,0.01052984,0.00167913,0.20704596,0.00000000,0.00240108,0.00022407,0.00032457,0.00421194,0.00335826,0.01200540,0.00000000,0.34507660
0.700,3,1,1,-532.129,189.978,50.129,57.439,0.025,9.573,-47.866,-0.129,nan,0.397836,-1.084350,-5.778791,1.059868,1.199319,-0.500302,-4.761769,1.148485,1.355966,49.936546,-65.343984,40.000000,-15.407439,nan,0.000000,0.000000,0.000000,0.000000,0.000000,0.000000,0.000000,0.000000,0.000000,0.000000,0.000000,0.000000,0.27254850,0.00363828,0.00066440,0.01307239,0.00202440,0.24891099,0.00000000,0.00423805,0.00025988,0.00033220,0.00522896,0.00404880,0.02119023,0.00000000,0.41485164
0.800,3,1,1,-532.149,189.977,50.149,57.350,0.026,9.556,-47.793,-1.891,nan,0.396112,-1.586537,-5.341278,1.164310,1.262548,-0.912275,-4.406386,1.112605,1.301315,50.096439,-66.837615,48.000000,-16.741176,nan,0.000000,0.000000,0.000000,0.000000,0.000000,0.000000,0.000000,0.000000,0.000000,0.000000,0.000000,0.000000,0.32048392,0.00471195,0.00071511,0.01524546,0.00232019,0.29066835,0.00000000,0.00682285,0.00033657,0.00035755,0.00609819,0.00464038,0.03411423,0.00000000,0.48444725
0.928,3,1,1,-532.149,189.977,50.149,57.350,0.026,9.556,-47.793,-1.891,nan,0.396112,-1.586537,-5.341278,1.233509,1.318224,-0.912275,-4.406386,1.086250,1.248746,49.521565,-69.193383,56.000000,-19.671819,nan,0.000000,0.000000,0.000000,0.000000,0.000000,0.000000,0.000000,0.000000,0.000000,0.000000,0.000000,0.000000,0.38292713,0.00608371,0.00077990,0.01802185,0.00269809,0.34401874,0.00000000,0.01132483,0.00043455,0.00038995,0.00720874,0.00539619,0.05662417,0.00000000,0.57336457
1.000,3,1,1,-532.184,189.979,50.184,57.059,0.024,9.501,-47.558,-2.349,nan,0.360278,-2.471355,-4.308105,1.447342,1.445979,-1.667827,-3.761464,1.174799,1.287689,49.199316,-70.297422,64.000000,-20.000000,nan,0.000000,0.000000,0.000000,0.000000,0.000000,0.000000,0.000000,0.000000,0.000000,0.000000,0.000000,0.000000,0.41918504,0.00796360,0.00090221,0.01904196,0.00285363,0.37385387,0.00000000,0.01456977,0.00056883,0.00045111,0.00761678,0.00570725,0.07284885,0.00000000,0.62308978
1.100,3,1,1,-532.201,189.981,50.201,56.850,0.021,9.461,-47.389,-3.166,nan,0.351272,-2.853936,-3.883801,1.663442,1.643306,-1.998962,-3.322012,1.292589,1.376056,47.801668,-71.882752,72.000000,-20.000000,nan,0.000000,0.000000,0.000000,0.000000,0.000000,0.000000,0.000000,0.000000,0.000000,0.000000,0.000000,0.000000,0.47084705,0.01143706,0.00114565,0.02019064,0.00302171,0.41489835,0.00000000,0.02015365,0.00081693,0.00057282,0.00807625,0.00604341,0.10076823,0.00000000,0.69149725
1.200,3,1,1,-532.216,189.986,50.216,56.597,0.016,9.412,-47.185,-2.994,nan,0.337585,-3.198186,-3.439201,1.874346,1.841032,-2.287254,-2.833532,1.423678,1.482909,46.359207,-72.000000,80.000000,-20.000000,nan,0.000000,0.000000,0.000000,0.000000,0.000000,0.000000,0.000000,0.000000,0.000000,0.000000,0.000000,0.000000,0.52406602,0.01580097,0.00146451,0.02109178,0.00314405,0.45560814,0.00000000,0.02695657,0.00112864,0.00073225,0.00843671,0.00628809,0.13478283,0.00000000,0.75934690
1.300,3,1,1,-532.229,189.993,50.229,56.299,0.008,9.354,-46.944,-4.054,nan,0.325383,-3.490873,-2.755996,2.074037,2.031362,-2.526318,-2.242498,1.556537,1.596718,44.943419,-72.000000,88.000000,-20.000000,nan,0.000000,0.000000,0.000000,0.000000,0.000000,0.000000,0.000000,0.000000,0.000000,0.000000,0.000000,0.000000,0.57870920,0.02099605,0.00185320,0.02167000,0.00322061,0.49587175,0.00000000,0.03509759,0.00149972,0.00092660,0.00866800,0.00644122,0.17548793,0.00000000,0.82645291
1.400,3,1,1,-532.241,190.001,50.241,55.953,-0.002,9.287,-46.667,-3.739,nan,0.314875,-3.717802,-2.033806,2.257211,2.208238,-2.713034,-1.691854,1.683534,1.709271,43.607682,-72.000000,96.000000,-20.000000,nan,0.000000,0.000000,0.000000,0.000000,0.000000,0.000000,0.000000,0.000000,0.000000,0.000000,0.000000,0.000000,0.63483750,0.02689145,0.00230169,0.02198505,0.00326421,0.53568023,0.00000000,0.04471487,0.00192082,0.00115084,0.00879402,0.00652843,0.22357433,0.00000000,0.89280039
1.521,3,1,1,-532.241,190.001,50.241,55.953,-0.002,9.287,-46.667,-3.739,nan,0.314875,-3.717802,-2.033806,2.401314,2.375435,-2.713034,-1.691854,1.783945,1.817110,42.330011,-72.000000,100.000000,-20.000000,nan,0.000000,0.000000,0.000000,0.000000,0.000000,0.000000,0.000000,0.000000,0.000000,0.000000,0.000000,0.000000,0.70378408,0.03403344,0.00284501,0.02236671,0.00331704,0.58390625,0.00000000,0.05731563,0.00243096,0.00142251,0.00894668,0.00663407,0.28657816,0.00000000,0.97317709
1.600,3,1,1,-532.260,190.026,50.260,55.178,-0.030,9.132,-46.046,-5.901,nan,0.280845,-3.958830,-0.831938,2.544383,2.484532,-2.913838,-0.622437,1.887221,1.891079,41.452478,-71.580146,100.000000,-20.000000,nan,0.000000,0.000000,0.000000,0.000000,0.000000,0.000000,0.000000,0.000000,0.000000,0.000000,0.000000,0.000000,0.74831393,0.03930941,0.00325333,0.02240832,0.00332169,0.61449601,0.00000000,0.06552518,0.00280781,0.00162667,0.00896333,0.00664339,0.32762589,0.00000000,1.02416001
1.700,3,1,1,-532.266,190.042,50.266,54.703,-0.048,9.037,-45.666,-5.443,nan,0.306957,-3.999406,-0.171032,2.666204,2.605564,-2.933512,0.117184,1.974300,1.972719,40.530972,-71.434805,100.000000,-20.000000,nan,0.000000,0.000000,0.000000,0.000000,0.000000,0.000000,0.000000,0.000000,0.000000,0.000000,0.000000,0.000000,0.80413416,0.04612556,0.00377721,0.02241054,0.00332190,0.65258178,0.00000000,0.07591717,0.00329468,0.00188860,0.00896422,0.00664380,0.37958586,0.00000000,1.08763631
1.800,3,1,1,-532.271,190.060,50.271,54.191,-0.069,8.934,-45.258,-6.403,nan,0.328247,-3.980866,0.479894,2.766732,2.706287,-2.889709,0.736278,2.043562,2.038376,39.765298,-71.024733,100.000000,-20.000000,nan,0.000000,0.000000,0.000000,0.000000,0.000000,0.000000,0.000000,0.000000,0.000000,0.000000,0.000000,0.000000,0.85926545,0.05288419,0.00428597,0.02242808,0.00333016,0.69001939,0.00000000,0.08631767,0.00377744,0.00214298,0.00897123,0.00666032,0.43158835,0.00000000,1.15003231
1.900,3,1,1,-532.273,190.081,50.273,53.646,-0.092,8.823,-44.823,-6.403,nan,0.358814,-3.898194,1.185005,2.845769,2.786194,-2.785320,1.369084,2.094480,2.087069,39.155470,-70.766963,100.000000,-20.000000,nan,0.000000,0.000000,0.000000,0.000000,0.000000,0.000000,0.000000,0.000000,0.000000,0.000000,0.000000,0.000000,0.91346017,0.05936297,0.00475848,0.02253499,0.00335870,0.72673015,0.00000000,0.09671488,0.00424021,0.00237924,0.00901400,0.00671740,0.48357438,0.00000000,1.21121692
2.021,3,1,1,-532.273,190.081,50.273,53.646,-0.092,8.823,-44.823,-6.403,nan,0.358814,-3.898194,1.185005,2.914225,2.869428,-2.785320,1.369084,2.138722,2.138065,38.618435,-70.766963,100.000000,-20.000000,nan,0.000000,0.000000,0.000000,0.000000,0.000000,0.000000,0.000000,0.000000,0.000000,0.000000,0.000000,0.000000,0.97918272,0.06721985,0.00533151,0.02266464,0.00339331,0.77124972,0.00000000,0.10932369,0.00480142,0.00266576,0.00906586,0.00678662,0.54661843,0.00000000,1.28541620
2.100,3,1,1,-532.272,190.128,50.272,52.595,-0.146,8.604,-43.991,-5.228,nan,0.554244,-3.589983,1.493227,2.953648,2.901339,-2.460902,1.523739,2.156879,2.151758,38.303947,-70.478156,100.000000,-20.000000,nan,0.000000,0.000000,0.000000,0.000000,0.000000,0.000000,0.000000,0.000000,0.000000,0.000000,0.000000,0.000000,1.02006436,0.07155425,0.00562247,0.02279855,0.00342120,0.79914267,0.00000000,0.11752521,0.00511102,0.00281124,0.00911942,0.00684240,0.58762607,0.00000000,1.33190446
2.200,3,1,1,-532.270,190.142,50.271,52.028,-0.162,8.497,-43.531,-6.145,nan,0.515028,-3.366799,2.396331,2.975669,2.925255,-2.232184,2.471909,2.160707,2.155668,38.127744,-70.044910,100.000000,-20.000000,nan,0.000000,0.000000,0.000000,0.000000,0.000000,0.000000,0.000000,0.000000,0.000000,0.000000,0.000000,0.000000,1.07075327,0.07638719,0.00592596,0.02323575,0.00351424,0.83376746,0.00000000,0.12792267,0.00545623,0.00296298,0.00929430,0.00702848,0.63961335,0.00000000,1.38961244
2.300,3,1,1,-532.266,190.169,50.266,51.392,-0.193,8.367,-43.025,-6.374,nan,0.529423,-3.083852,2.823347,2.980909,2.932673,-1.936300,2.981576,2.150552,2.146154,38.081109,-69.705151,100.000000,-20.000000,nan,0.000000,0.000000,0.000000,0.000000,0.000000,0.000000,0.000000,0.000000,0.000000,0.000000,0.000000,0.000000,1.12001258,0.08044281,0.00615437,0.02384278,0.00364964,0.86760062,0.00000000,0.13832237,0.00574591,0.00307719,0.00953711,0.00729928,0.69161184,0.00000000,1.44600103
2.400,3,1,1,-532.259,190.198,50.259,50.738,-0.226,8.231,-42.507,-6.073,nan,0.557217,-2.761360,3.324946,2.971282,2.925408,-1.592650,3.560791,2.128367,2.125016,38.154900,-69.449765,100.000000,-20.000000,nan,0.000000,0.000000,0.000000,0.000000,0.000000,0.000000,0.000000,0.000000,0.000000,0.000000,0.000000,0.000000,1.16790006,0.08369621,0.00630898,0.02468509,0.00384285,0.90063955,0.00000000,0.14872737,0.00597830,0.00315449,0.00987404,0.00768569,0.74363687,0.00000000,1.50106592
2.519,3,1,1,-532.259,190.198,50.259,50.738,-0.226,8.231,-42.507,-6.073,nan,0.557217,-2.761360,3.324946,2.962464,2.917523,-1.592650,3.560791,2.107908,2.101891,38.241126,-69.449765,100.000000,-20.000000,nan,0.000000,0.000000,0.000000,0.000000,0.000000,0.000000,0.000000,0.000000,0.000000,0.000000,0.000000,0.000000,1.22492507,0.08757040,0.00649309,0.02568813,0.00407292,0.93998274,0.00000000,0.16111779,0.00625503,0.00324654,0.01027525,0.00814584,0.80558894,0.00000000,1.56663791
2.600,3,1,1,-532.239,190.261,50.239,49.467,-0.297,7.964,-41.503,-7.692,nan,0.579786,-2.058181,4.067768,2.930362,2.893651,-0.834465,4.419752,2.070545,2.072971,38.499526,-68.571744,100.000000,-20.000000,nan,0.000000,0.000000,0.000000,0.000000,0.000000,0.000000,0.000000,0.000000,0.000000,0.000000,0.000000,0.000000,1.26155857,0.08903170,0.00652740,0.02670741,0.00431358,0.96544825,0.00000000,0.16953022,0.00635941,0.00326370,0.01068297,0.00862717,0.84765108,0.00000000,1.60908042
2.700,3,1,1,-532.226,190.294,50.227,48.772,-0.335,7.819,-40.953,-8.738,nan,0.633208,-1.648578,4.216915,2.890027,2.855718,-0.385393,4.663422,2.030175,2.034015,38.840656,-68.063002,100.000000,-20.000000,nan,0.000000,0.000000,0.000000,0.000000,0.000000,0.000000,0.000000,0.000000,0.000000,0.000000,0.000000,0.000000,1.30546865,0.09019082,0.00653645,0.02806171,0.00464484,0.99610391,0.00000000,0.17993091,0.00644220,0.00326823,0.01122468,0.00928968,0.89965457,0.00000000,1.66017318
2.800,3,1,1,-532.211,190.328,50.212,48.066,-0.374,7.671,-40.395,-6.431,nan,0.679219,-1.227842,4.341959,2.844116,2.812201,0.085121,4.899660,1.990820,1.995991,39.239081,-68.134345,100.000000,-20.000000,nan,0.000000,0.000000,0.000000,0.000000,0.000000,0.000000,0.000000,0.000000,0.000000,0.000000,0.000000,0.000000,1.34810703,0.09083330,0.00653690,0.02949640,0.00501022,1.02590666,0.00000000,0.19032354,0.00648809,0.00326845,0.01179856,0.01002045,0.95161772,0.00000000,1.70984443
2.900,3,1,1,-532.194,190.363,50.196,47.263,-0.415,7.506,-39.758,-6.088,nan,0.718752,-0.751093,4.097749,2.794691,2.765080,0.627838,4.690805,1.957338,1.963549,39.686946,-67.816052,100.000000,-20.000000,nan,0.000000,0.000000,0.000000,0.000000,0.000000,0.000000,0.000000,0.000000,0.000000,0.000000,0.000000,0.000000,1.38925472,0.09107377,0.00656090,0.03077450,0.00534519,1.05478207,0.00000000,0.20071829,0.00650527,0.00328045,0.01230980,0.01069038,1.00359147,0.00000000,1.75797011
3.000,3,1,1,-532.176,190.399,50.178,46.625,-0.456,7.368,-39.258,-6.804,nan,0.753713,-0.375733,4.448659,2.745251,2.717741,1.058777,5.116295,1.932455,1.939316,40.125869,-67.394505,100.000000,-20.000000,nan,0.000000,0.000000,0.000000,0.000000,0.000000,0.000000,0.000000,0.000000,0.000000,0.000000,0.000000,0.000000,1.42988349,0.09113401,0.00662924,0.03228261,0.00574414,1.08296850,0.00000000,0.21112499,0.00650957,0.00331462,0.01291305,0.01148827,1.05562496,0.00000000,1.80494750
3.116,3,1,1,-532.176,190.399,50.178,46.392,-0.456,7.329,-39.063,-7.864,nan,0.753713,-0.239797,1.051126,2.697871,2.665391,1.215226,1.209739,1.912206,1.916537,40.498908,-67.093991,100.000000,-20.000000,nan,0.000000,0.000000,0.000000,0.000000,0.000000,0.000000,0.000000,0.000000,0.000000,0.000000,0.000000,0.000000,1.47444161,0.09116239,0.00673334,0.03237997,0.00576993,1.11523782,0.00000000,0.22315817,0.00651160,0.00336667,0.01295199,0.01153985,1.11579084,0.00000000,1.85872970
3.200,3,1,1,-532.137,190.474,50.139,45.155,-0.541,7.057,-38.098,-8.279,nan,0.716883,0.456104,4.022994,2.653832,2.629889,2.021365,4.700356,1.915945,1.919470,40.998380,-66.448444,100.000000,-20.000000,nan,0.000000,0.000000,0.000000,0.000000,0.000000,0.000000,0.000000,0.000000,0.000000,0.000000,0.000000,0.000000,1.50718705,0.09123720,0.00694323,0.03341923,0.00605367,1.13760620,0.00000000,0.23192751,0.00651694,0.00347162,0.01336769,0.01210733,1.15963757,0.00000000,1.89601034
3.300,3,1,1,-532.116,190.511,50.118,44.410,-0.584,6.900,-37.510,-7.950,nan,0.775067,0.844847,3.721181,2.615084,2.592670,2.479307,4.415470,1.936678,1.939469,41.375976,-66.157487,100.000000,-20.000000,nan,0.000000,0.000000,0.000000,0.000000,0.000000,0.000000,0.000000,0.000000,0.000000,0.000000,0.000000,0.000000,1.54536240,0.09154182,0.00731801,0.03447455,0.00635084,1.16334185,0.00000000,0.24233533,0.00653870,0.00365901,0.01378982,0.01270167,1.21167667,0.00000000,1.93890308
3.400,3,1,1,-532.094,190.549,50.097,43.660,-0.628,6.741,-36.919,-8.193,nan,0.816839,1.207542,3.494331,2.582735,2.561675,2.912674,4.195374,1.974494,1.976072,41.699264,-65.764171,100.000000,-20.000000,nan,0.000000,0.000000,0.000000,0.000000,0.000000,0.000000,0.000000,0.000000,0.000000,0.000000,0.000000,0.000000,1.58299292,0.09216337,0.00783461,0.03540397,0.00661879,1.18824187,0.00000000,0.25273030,0.00658310,0.00391731,0.01416159,0.01323758,1.26365150,0.00000000,1.98040312
3.500,3,1,1,-532.073,190.588,50.076,42.906,-0.673,6.581,-36.324,-7.835,nan,0.839749,1.541763,3.225682,2.557424,2.537500,3.314665,3.879174,2.028158,2.028167,41.960349,-65.473759,100.000000,-20.000000,nan,0.000000,0.000000,0.000000,0.000000,0.000000,0.000000,0.000000,0.000000,0.000000,0.000000,0.000000,0.000000,1.62019373,0.09317655,0.00850363,0.03619594,0.00684786,1.21234499,0.00000000,0.26312476,0.00665547,0.00425181,0.01447837,0.01369572,1.31562382,0.00000000,2.02057499
3.600,3,1,1,-532.051,190.626,50.055,42.147,-0.717,6.421,-35.727,-7.993,nan,0.855581,1.845038,2.864675,2.539326,2.520323,3.678070,3.417514,2.095311,2.093556,42.156235,-65.091475,100.000000,-20.000000,nan,0.000000,0.000000,0.000000,0.000000,0.000000,0.000000,0.000000,0.000000,0.000000,0.000000,0.000000,0.000000,1.65700127,0.09462831,0.00932781,0.03682089,0.00702575,1.23567371,0.00000000,0.27352480,0.00675917,0.00466391,0.01472836,0.01405150,1.36762400,0.00000000,2.05945618
3.729,3,1,1,-532.051,190.626,50.055,42.147,-0.717,6.421,-35.727,-7.993,nan,0.855581,1.845038,2.864675,2.522142,2.499479,3.678070,3.417514,2.156713,2.169698,42.174129,-65.091475,100.000000,-20.000000,nan,0.000000,0.000000,0.000000,0.000000,0.000000,0.000000,0.000000,0.000000,0.000000,0.000000,0.000000,0.000000,1.70431907,0.09649462,0.01038734,0.03762430,0.00725443,1.26566385,0.00000000,0.28689453,0.00689247,0.00519367,0.01504972,0.01450886,1.43447265,0.00000000,2.10943975
3.800,3,1,1,-532.008,190.704,50.013,40.619,-0.806,6.096,-34.523,-8.036,nan,0.855189,2.342694,1.523807,2.517331,2.496538,4.262193,1.745894,2.242058,2.228919,42.423417,-64.369514,100.000000,-20.000000,nan,0.000000,0.000000,0.000000,0.000000,0.000000,0.000000,0.000000,0.000000,0.000000,0.000000,0.000000,0.000000,1.72994809,0.09816770,0.01117848,0.03775070,0.00728762,1.28123483,0.00000000,0.29432876,0.00701198,0.00558924,0.01510028,0.01457524,1.47164381,0.00000000,2.13539138
3.900,3,1,1,-531.988,190.742,49.994,39.850,-0.851,5.933,-33.917,-8.752,nan,0.850530,2.531031,1.182194,2.517702,2.497453,4.472801,1.283917,2.330593,2.316114,42.447134,-63.885155,100.000000,-20.000000,nan,0.000000,0.000000,0.000000,0.000000,0.000000,0.000000,0.000000,0.000000,0.000000,0.000000,0.000000,0.000000,1.76544338,0.10089873,0.01239689,0.03785709,0.00731272,1.30225280,0.00000000,0.30472515,0.00720705,0.00619845,0.01514284,0.01462543,1.52362574,0.00000000,2.17042133
4.000,3,1,1,-531.969,190.781,49.975,39.079,-0.896,5.770,-33.309,-8.480,nan,0.850611,2.678697,0.839461,2.522070,2.502270,4.624814,0.808053,2.419007,2.403281,42.433734,-63.572078,100.000000,-20.000000,nan,0.000000,0.000000,0.000000,0.000000,0.000000,0.000000,0.000000,0.000000,0.000000,0.000000,0.000000,0.000000,1.80052900,0.10395706,0.01369924,0.03791073,0.00732266,1.32252002,0.00000000,0.31511928,0.00742550,0.00684962,0.01516429,0.01464531,1.57559640,0.00000000,2.20420004
4.100,3,1,1,-531.951,190.820,49.958,38.305,-0.940,5.605,-32.700,-8.150,nan,0.853676,2.786492,0.608134,2.529196,2.509786,4.716137,0.427297,2.504368,2.487656,42.395292,-63.267908,100.000000,-20.000000,nan,0.000000,0.000000,0.000000,0.000000,0.000000,0.000000,0.000000,0.000000,0.000000,0.000000,0.000000,0.000000,1.83519656,0.10727093,0.01505535,0.03793891,0.00732544,1.34207857,0.00000000,0.32552735,0.00766221,0.00752768,0.01517557,0.01465088,1.62763677,0.00000000,2.23679761
4.233,3,1,1,-531.951,190.820,49.958,38.305,-0.940,5.605,-32.700,-8.150,nan,0.853676,2.786492,0.608134,2.557959,2.519131,4.716137,0.427297,2.600545,2.589054,42.228730,-63.267908,100.000000,-20.000000,nan,0.000000,0.000000,0.000000,0.000000,0.000000,0.000000,0.000000,0.000000,0.000000,0.000000,0.000000,0.000000,1.88102221,0.11165140,0.01684794,0.03797617,0.00732912,1.36793221,0.00000000,0.33928537,0.00797510,0.00842397,0.01519047,0.01465824,1.69642683,0.00000000,2.27988702
4.300,3,1,1,-531.918,190.897,49.926,36.751,-1.030,5.275,-31.476,-8.150,nan,0.835765,2.881972,0.065929,2.566558,2.525401,4.710967,-0.451362,2.673685,2.636895,42.141635,-62.541700,100.000000,-20.000000,nan,0.000000,0.000000,0.000000,0.000000,0.000000,0.000000,0.000000,0.000000,0.000000,0.000000,0.000000,0.000000,1.90363111,0.11404870,0.01776303,0.03797640,0.00733122,1.38018767,0.00000000,0.34632409,0.00814634,0.00888152,0.01519056,0.01466244,1.73162045,0.00000000,2.30031278
4.400,3,1,1,-531.904,190.936,49.912,35.971,-1.074,5.109,-30.862,-7.950,nan,0.833566,2.870308,-0.183816,2.574393,2.533962,4.613921,-0.794499,2.737419,2.699418,42.097670,-62.212355,100.000000,-20.000000,nan,0.000000,0.000000,0.000000,0.000000,0.000000,0.000000,0.000000,0.000000,0.000000,0.000000,0.000000,0.000000,1.93623622,0.11755941,0.01905896,0.03797897,0.00734082,1.39758223,0.00000000,0.35671583,0.00839710,0.00952948,0.01519159,0.01468165,1.78357915,0.00000000,2.32930371
4.500,3,1,1,-531.890,190.975,49.900,35.190,-1.119,4.943,-30.247,-8.208,nan,0.814305,2.821992,-0.405648,2.634529,2.540884,4.455562,-1.174482,2.845336,2.751901,42.071604,-61.802323,100.000000,-19.730719,nan,0.000000,0.000000,0.000000,0.000000,0.000000,0.000000,0.000000,0.000000,0.000000,0.000000,0.000000,0.000000,1.96799597,0.12095668,0.02026879,0.03799150,0.00736184,1.41430878,0.00000000,0.36710837,0.00863976,0.01013440,0.01519660,0.01472368,1.83554185,0.00000000,2.35718131
4.600,3,1,1,-531.878,191.013,49.888,34.407,-1.164,4.776,-29.631,-7.835,nan,0.816454,2.740198,-0.892791,2.668412,2.545498,4.238267,-2.258239,2.923166,2.793671,41.656297,-61.501760,100.000000,-19.845462,nan,0.000000,0.000000,0.000000,0.000000,0.000000,0.000000,0.000000,0.000000,0.000000,0.000000,0.000000,0.000000,1.99892597,0.12416447,0.02136507,0.03805231,0.00743965,1.43038405,0.00000000,0.37752042,0.00886889,0.01068254,0.01522092,0.01487930,1.88760208,0.00000000,2.38397342
4.728,3,1,1,-531.878,191.013,49.888,34.407,-1.164,4.776,-29.631,-7.835,nan,0.816454,2.740198,-0.892791,2.697915,2.551061,4.238267,-2.258239,2.997952,2.843322,41.334957,-61.501760,100.000000,-20.000000,nan,0.000000,0.000000,0.000000,0.000000,0.000000,0.000000,0.000000,0.000000,0.000000,0.000000,0.000000,0.000000,2.03824128,0.12824111,0.02275828,0.03812959,0.00753853,1.45081334,0.00000000,0.39076043,0.00916008,0.01137914,0.01525183,0.01507706,1.95380216,0.00000000,2.41802224
4.800,3,1,1,-531.856,191.091,49.868,32.837,-1.254,4.440,-28.397,-7.950,nan,0.767111,2.486909,-1.465451,2.714854,2.550082,3.639959,-3.325721,3.049286,2.857327,41.268796,-60.749405,100.000000,-19.480609,nan,0.000000,0.000000,0.000000,0.000000,0.000000,0.000000,0.000000,0.000000,0.000000,0.000000,0.000000,0.000000,2.05920465,0.13015470,0.02334391,0.03824824,0.00766075,1.46150616,0.00000000,0.39829090,0.00929676,0.01167195,0.01529930,0.01532150,1.99145449,0.00000000,2.43584359
4.900,3,1,1,-531.846,191.130,49.859,32.051,-1.299,4.272,-27.779,-7.119,nan,0.783562,2.320137,-1.467890,2.705912,2.545496,3.267357,-3.247353,3.054790,2.866481,41.201565,-60.527773,100.000000,-19.326209,nan,0.000000,0.000000,0.000000,0.000000,0.000000,0.000000,0.000000,0.000000,0.000000,0.000000,0.000000,0.000000,2.08695420,0.13245048,0.02399434,0.03841234,0.00782137,1.47561076,0.00000000,0.40866491,0.00946075,0.01199717,0.01536494,0.01564275,2.04332454,0.00000000,2.45935127
5.000,3,1,1,-531.836,191.170,49.850,31.265,-1.345,4.104,-27.161,-6.761,nan,0.787411,2.131303,-1.887394,2.720837,2.537708,2.852760,-4.124853,3.110971,2.866202,41.360523,-60.223567,100.000000,-18.863044,nan,0.000000,0.000000,0.000000,0.000000,0.000000,0.000000,0.000000,0.000000,0.000000,0.000000,0.000000,0.000000,2.11375804,0.13438776,0.02449017,0.03868363,0.00808053,1.48909476,0.00000000,0.41902119,0.00959913,0.01224509,0.01547345,0.01616106,2.09510593,0.00000000,2.48182460
5.100,3,1,1,-531.827,191.209,49.841,30.478,-1.390,3.935,-26.543,-8.451,nan,0.798428,1.924587,-3.231503,2.700358,2.526892,2.402530,-7.025256,3.118100,2.857656,41.297931,-59.561929,100.000000,-18.263998,nan,0.000000,0.000000,0.000000,0.000000,0.000000,0.000000,0.000000,0.000000,0.000000,0.000000,0.000000,0.000000,2.14043915,0.13596695,0.02484173,0.03947865,0.00883202,1.50196801,0.00000000,0.42935179,0.00971192,0.01242086,0.01579146,0.01766404,2.14675894,0.00000000,2.50328002
5.200,3,1,1,-531.817,191.249,49.833,29.692,-1.436,3.766,-25.926,-9.053,nan,0.799928,1.703761,-4.541363,2.680462,2.513333,1.923585,-9.833547,3.094457,2.842280,41.526493,-59.090563,100.000000,-17.564070,nan,0.000000,0.000000,0.000000,0.000000,0.000000,0.000000,0.000000,0.000000,0.000000,0.000000,0.000000,0.000000,2.16752666,0.13720431,0.02506705,0.04104853,0.01030414,1.51424717,0.00000000,0.43965547,0.00980031,0.01253353,0.01641941,0.02060827,2.19827735,0.00000000,2.52374528
5.317,3,1,1,-531.817,191.249,49.833,29.692,-1.436,3.766,-25.926,-9.053,nan,0.799928,1.703761,-4.541363,2.622347,2.498023,1.923585,-9.833547,3.101163,2.824917,41.685145,-59.090563,100.000000,-17.405418,nan,0.000000,0.000000,0.000000,0.000000,0.000000,0.000000,0.000000,0.000000,0.000000,0.000000,0.000000,0.000000,2.19925198,0.13865383,0.02533101,0.04288756,0.01202866,1.52863165,0.00000000,0.45171928,0.00990384,0.01266550,0.01715502,0.02405731,2.25859640,0.00000000,2.54771942
5.400,3,1,1,-531.797,191.329,49.815,28.279,-1.529,3.454,-24.824,-9.225,nan,1.323911,1.280724,-2.388679,2.563623,2.483525,1.012830,-5.113213,3.075524,2.805524,42.239788,-58.406936,100.000000,-16.167148,nan,0.000000,0.000000,0.000000,0.000000,0.000000,0.000000,0.000000,0.000000,0.000000,0.000000,0.000000,0.000000,2.21846654,0.13923519,0.02538295,0.04324869,0.01235961,1.53799255,0.00000000,0.46024754,0.00994537,0.01269147,0.01729948,0.02471922,2.30123772,0.00000000,2.56332092
5.500,3,1,1,-531.787,191.370,49.805,27.495,-1.576,3.285,-24.210,-8.437,nan,1.090738,1.037016,-2.537941,2.537340,2.464454,0.493689,-5.389410,3.038764,2.780223,42.760010,-58.179806,100.000000,-15.419796,nan,0.000000,0.000000,0.000000,0.000000,0.000000,0.000000,0.000000,0.000000,0.000000,0.000000,0.000000,0.000000,2.24080836,0.13969351,0.02539779,0.04373889,0.01280171,1.54869797,0.00000000,0.47047850,0.00997811,0.01269889,0.01749556,0.02560342,2.35239252,0.00000000,2.58116328
5.600,3,1,1,-531.775,191.410,49.795,26.713,-1.623,3.116,-23.597,-7.205,nan,0.980493,0.791786,-2.516904,2.424327,2.444264,-0.024941,-5.306850,3.011425,2.754814,43.093627,-58.031226,100.000000,-14.937599,nan,0.000000,0.000000,0.000000,0.000000,0.000000,0.000000,0.000000,0.000000,0.000000,0.000000,0.000000,0.000000,2.26237832,0.13996075,0.02539782,0.04422111,0.01323047,1.55887086,0.00000000,0.48069731,0.00999720,0.01269891,0.01768844,0.02646094,2.40348656,0.00000000,2.59811810
5.700,3,1,1,-531.762,191.451,49.783,25.933,-1.670,2.947,-22.986,-7.921,nan,0.925219,0.548609,-2.383850,2.342008,2.423425,-0.535021,-4.975968,2.976692,2.731013,43.966292,-57.543762,100.000000,-13.577470,nan,0.000000,0.000000,0.000000,0.000000,0.000000,0.000000,0.000000,0.000000,0.000000,0.000000,0.000000,0.000000,2.28317572,0.14008911,0.02541526,0.04465388,0.01360759,1.56852811,0.00000000,0.49088177,0.01000636,0.01270763,0.01786155,0.02721519,2.45440883,0.00000000,2.61421352
5.837,3,1,1,-531.762,191.451,49.783,25.933,-1.670,2.947,-22.986,-7.921,nan,0.925219,0.548609,-2.383850,2.257509,2.395884,-0.535021,-4.975968,2.942634,2.699553,44.543440,-57.543762,100.000000,-13.000322,nan,0.000000,0.000000,0.000000,0.000000,0.000000,0.000000,0.000000,0.000000,0.000000,0.000000,0.000000,0.000000,2.31154016,0.14026429,0.02543907,0.04524454,0.01412231,1.58170884,0.00000000,0.50476111,0.01001888,0.01271953,0.01809782,0.02824462,2.52380553,0.00000000,2.63618139
5.900,3,1,1,-531.732,191.533,49.756,24.443,-1.766,2.620,-21.823,-8.465,nan,2.526194,0.096043,-2.468361,2.171791,2.382695,-1.462567,-4.956587,2.918668,2.689046,45.358941,-56.758437,100.000000,-11.399497,nan,0.000000,0.000000,0.000000,0.000000,0.000000,0.000000,0.000000,0.000000,0.000000,0.000000,0.000000,0.000000,2.32415901,0.14026680,0.02552209,0.04554015,0.01436071,1.58725440,0.00000000,0.51121486,0.01001906,0.01276105,0.01821606,0.02872141,2.55607428,0.00000000,2.64542400
6.000,3,1,1,-531.715,191.574,49.740,23.672,-1.814,2.452,-21.220,-8.652,nan,1.807193,-0.128391,-2.302461,2.145236,2.362453,-1.905140,-4.476528,2.898168,2.677659,46.064132,-56.367771,100.000000,-10.303638,nan,0.000000,0.000000,0.000000,0.000000,0.000000,0.000000,0.000000,0.000000,0.000000,0.000000,0.000000,0.000000,2.34343221,0.14027383,0.02574322,0.04594388,0.01466593,1.59548416,0.00000000,0.52132119,0.01001956,0.01287161,0.01837755,0.02933185,2.60660596,0.00000000,2.65914027
6.100,3,1,1,-531.697,191.616,49.723,22.904,-1.862,2.285,-20.619,-7.821,nan,1.408073,-0.342072,-2.101022,2.057732,2.343132,-2.311464,-3.921941,2.887987,2.671977,46.385240,-56.156584,100.000000,-9.771344,nan,0.000000,0.000000,0.000000,0.000000,0.000000,0.000000,0.000000,0.000000,0.000000,0.000000,0.000000,0.000000,2.36219068,0.14032359,0.02606780,0.04627909,0.01489954,1.60323270,0.00000000,0.53138796,0.01002311,0.01303390,0.01851164,0.02979907,2.65693978,0.00000000,2.67205451
6.200,3,1,1,-531.677,191.657,49.704,22.141,-1.910,2.118,-20.023,-8.021,nan,1.193227,-0.542846,-2.026508,1.934399,2.324845,-2.675342,-3.576761,2.907224,2.672032,47.084841,-55.767423,100.000000,-8.682582,nan,0.000000,0.000000,0.000000,0.000000,0.000000,0.000000,0.000000,0.000000,0.000000,0.000000,0.000000,0.000000,2.38068340,0.14044940,0.02650435,0.04659219,0.01509461,1.61056824,0.00000000,0.54147462,0.01003210,0.01325217,0.01863687,0.03018921,2.70737308,0.00000000,2.68428040
6.326,3,1,1,-531.677,191.657,49.704,22.141,-1.910,2.118,-20.023,-8.021,nan,1.193227,-0.542846,-2.026508,1.873904,2.302571,-2.675342,-3.576761,2.921841,2.672099,47.851360,-55.767423,100.000000,-7.916064,nan,0.000000,0.000000,0.000000,0.000000,0.000000,0.000000,0.000000,0.000000,0.000000,0.000000,0.000000,0.000000,2.40383729,0.14060703,0.02705130,0.04698447,0.01533901,1.61975906,0.00000000,0.55409641,0.01004336,0.01352565,0.01879379,0.03067802,2.77048207,0.00000000,2.69959843
6.400,3,1,1,-531.631,191.740,49.661,20.626,-2.008,1.786,-18.839,-7.219,nan,1.288321,-0.902215,-1.721841,1.856265,2.291006,-3.254866,-2.487172,2.930414,2.679738,48.458952,-55.205320,100.000000,-6.746368,nan,0.000000,0.000000,0.000000,0.000000,0.000000,0.000000,0.000000,0.000000,0.000000,0.000000,0.000000,0.000000,2.41713002,0.14086562,0.02753208,0.04715265,0.01540920,1.62459120,0.00000000,0.56157928,0.01006183,0.01376604,0.01886106,0.03081839,2.80789638,0.00000000,2.70765199
6.500,3,1,1,-531.605,191.781,49.637,19.875,-2.056,1.621,-18.253,-6.747,nan,1.146322,-1.059597,-1.510367,1.813044,2.276875,-3.462721,-1.835701,2.969496,2.693741,48.678626,-54.940053,100.000000,-6.261427,nan,0.000000,0.000000,0.000000,0.000000,0.000000,0.000000,0.000000,0.000000,0.000000,0.000000,0.000000,0.000000,2.43469677,0.14134452,0.02826273,0.04732641,0.01546053,1.63068211,0.00000000,0.57162047,0.01009604,0.01413136,0.01893056,0.03092106,2.85810236,0.00000000,2.71780352
6.600,3,1,1,-531.578,191.822,49.611,19.128,-2.105,1.457,-17.671,-7.735,nan,1.058274,-1.200630,-1.044649,1.770962,2.264187,-3.612397,-0.966255,3.012361,2.710245,49.013353,-54.422045,100.000000,-5.408692,nan,0.000000,0.000000,0.000000,0.000000,0.000000,0.000000,0.000000,0.000000,0.000000,0.000000,0.000000,0.000000,2.45193456,0.14195906,0.02905747,0.04740949,0.01547475,1.63638757,0.00000000,0.58164623,0.01013993,0.01452873,0.01896379,0.03094949,2.90823116,0.00000000,2.72731261
6.700,3,1,1,-531.548,191.863,49.583,18.386,-2.154,1.294,-17.093,-7.363,nan,1.031386,-1.324910,-0.920295,1.753797,2.252864,-3.702194,-0.497952,3.064578,2.727990,49.333726,-54.143742,100.000000,-4.810016,nan,0.000000,0.000000,0.000000,0.000000,0.000000,0.000000,0.000000,0.000000,0.000000,0.000000,0.000000,0.000000,2.46895402,0.14270787,0.02989272,0.04747400,0.01547852,1.64172887,0.00000000,0.59167203,0.01019342,0.01494636,0.01898960,0.03095705,2.95836016,0.00000000,2.73621479
6.800,3,1,1,-531.517,191.904,49.554,17.649,-2.202,1.131,-16.518,-7.004,nan,1.024611,-1.432354,-0.799628,1.749158,2.242821,-3.731308,-0.018745,3.118909,2.745668,49.474823,-53.865122,100.000000,-4.390299,nan,0.000000,0.000000,0.000000,0.000000,0.000000,0.000000,0.000000,0.000000,0.000000,0.000000,0.000000,0.000000,2.48572137,0.14358227,0.03074040,0.04752266,0.01547853,1.64671252,0.00000000,0.60168499,0.01025588,0.01537020,0.01900907,0.03095706,3.00842494,0.00000000,2.74452087
6.922,3,1,1,-531.517,191.904,49.554,17.649,-2.202,1.131,-16.518,-7.004,nan,1.024611,-1.432354,-0.799628,1.770746,2.230897,-3.731308,-0.018745,3.210734,2.766412,49.412146,-53.865122,100.000000,-4.452976,nan,0.000000,0.000000,0.000000,0.000000,0.000000,0.000000,0.000000,0.000000,0.000000,0.000000,0.000000,0.000000,2.50620154,0.14465025,0.03177575,0.04758210,0.01547853,1.65279950,0.00000000,0.61391540,0.01033216,0.01588788,0.01903284,0.03095707,3.06957698,0.00000000,2.75466583
7.000,3,1,1,-531.468,191.964,49.507,16.274,-2.274,0.843,-15.431,-8.236,nan,1.250665,-1.589443,-0.646129,1.787504,2.224665,-3.622858,1.041596,3.257133,2.777596,49.336676,-53.005122,100.000000,-3.668446,nan,0.000000,0.000000,0.000000,0.000000,0.000000,0.000000,0.000000,0.000000,0.000000,0.000000,0.000000,0.000000,2.51892611,0.14549178,0.03240033,0.04760693,0.01549144,1.65619890,0.00000000,0.62173673,0.01039227,0.01620016,0.01904277,0.03098288,3.10868364,0.00000000,2.76033150
7.100,3,1,1,-531.413,192.026,49.454,15.461,-2.348,0.648,-14.813,-7.448,nan,1.138567,-1.655775,-0.428794,1.784406,2.217571,-3.460882,1.447954,3.262254,2.788527,49.273652,-52.775898,100.000000,-3.502247,nan,0.000000,0.000000,0.000000,0.000000,0.000000,0.000000,0.000000,0.000000,0.000000,0.000000,0.000000,0.000000,2.53486490,0.14665885,0.03312873,0.04762091,0.01552332,1.66020223,0.00000000,0.63173085,0.01047563,0.01656436,0.01904836,0.03104663,3.15865427,0.00000000,2.76700372
7.200,3,1,1,-531.395,192.045,49.437,14.825,-2.371,0.523,-14.303,-7.964,nan,1.152664,-1.693445,-0.323024,1.824490,2.211032,-3.286033,1.958522,3.322535,2.796172,49.388898,-52.382975,100.000000,-2.994077,nan,0.000000,0.000000,0.000000,0.000000,0.000000,0.000000,0.000000,0.000000,0.000000,0.000000,0.000000,0.000000,2.55059253,0.14788438,0.03378794,0.04762887,0.01558186,1.66394896,0.00000000,0.64176052,0.01056317,0.01689397,0.01905155,0.03116372,3.20880258,0.00000000,2.77324827
7.300,3,1,1,-531.355,192.085,49.399,14.106,-2.418,0.364,-13.743,-7.950,nan,1.146312,-1.721081,-0.189629,1.822038,2.204971,-3.039912,2.509585,3.315928,2.799704,49.136694,-52.052969,100.000000,-2.916275,nan,0.000000,0.000000,0.000000,0.000000,0.000000,0.000000,0.000000,0.000000,0.000000,0.000000,0.000000,0.000000,2.56596990,0.14914697,0.03435065,0.04763161,0.01567774,1.66739903,0.00000000,0.65176390,0.01065336,0.01717533,0.01905264,0.03135547,3.25881951,0.00000000,2.77899838
7.422,3,1,1,-531.355,192.085,49.399,14.106,-2.418,0.364,-13.743,-7.950,nan,1.146312,-1.721081,-0.189629,1.850020,2.197814,-3.039912,2.509585,3.336994,2.803856,49.164065,-52.052969,100.000000,-2.888904,nan,0.000000,0.000000,0.000000,0.000000,0.000000,0.000000,0.000000,0.000000,0.000000,0.000000,0.000000,0.000000,2.58463457,0.15067949,0.03503366,0.04763493,0.01579411,1.67158668,0.00000000,0.66390570,0.01076282,0.01751683,0.01905397,0.03158822,3.31952851,0.00000000,2.78597779
7.500,3,1,1,-531.272,192.162,49.319,12.676,-2.513,0.048,-12.629,-7.248,nan,1.231509,-1.730183,0.087243,1.847189,2.193366,-2.412145,3.290587,3.317505,2.799979,49.168930,-51.514328,100.000000,-2.345398,nan,0.000000,0.000000,0.000000,0.000000,0.000000,0.000000,0.000000,0.000000,0.000000,0.000000,0.000000,0.000000,2.59620336,0.15168303,0.03531231,0.04763539,0.01592375,1.67387806,0.00000000,0.67177083,0.01083450,0.01765616,0.01905416,0.03184749,3.35885413,0.00000000,2.78979677
7.600,3,1,1,-531.227,192.201,49.276,11.965,-2.560,-0.109,-12.075,-7.205,nan,1.217431,-1.713610,0.215263,1.850879,2.187656,-2.039870,3.639529,3.292318,2.791197,49.332539,-51.192838,100.000000,-1.860299,nan,0.000000,0.000000,0.000000,0.000000,0.000000,0.000000,0.000000,0.000000,0.000000,0.000000,0.000000,0.000000,2.61058459,0.15293550,0.03556585,0.04763892,0.01612553,1.67654314,0.00000000,0.68177566,0.01092396,0.01778293,0.01905557,0.03225105,3.40887828,0.00000000,2.79423857
7.700,3,1,1,-531.181,192.238,49.232,11.257,-2.606,-0.265,-11.522,-8.036,nan,1.211862,-1.683331,0.344636,1.847116,2.181771,-1.636118,3.903256,3.251875,2.779105,49.462799,-50.719832,100.000000,-1.257033,nan,0.000000,0.000000,0.000000,0.000000,0.000000,0.000000,0.000000,0.000000,0.000000,0.000000,0.000000,0.000000,2.62462685,0.15414407,0.03572896,0.04764796,0.01635760,1.67896983,0.00000000,0.69177843,0.01101029,0.01786448,0.01905919,0.03271520,3.45889213,0.00000000,2.79828306
7.800,3,1,1,-531.134,192.275,49.186,10.551,-2.651,-0.420,-10.971,-7.076,nan,1.216723,-1.639465,0.335971,1.842380,2.175589,-1.207123,2.939198,3.206286,2.764410,49.668551,-50.560275,100.000000,-0.891725,nan,0.000000,0.000000,0.000000,0.000000,0.000000,0.000000,0.000000,0.000000,0.000000,0.000000,0.000000,0.000000,2.63820416,0.15529046,0.03581774,0.04765656,0.01648919,1.68116997,0.00000000,0.70178023,0.01109218,0.01790887,0.01906262,0.03297839,3.50890117,0.00000000,2.80194995
7.900,3,1,1,-531.085,192.311,49.139,9.847,-2.696,-0.575,-10.422,-7.262,nan,1.220976,-1.582568,0.571899,1.801244,2.169006,-0.759420,4.147841,3.097966,2.747963,49.889870,-50.201628,100.000000,-0.311758,nan,0.000000,0.000000,0.000000,0.000000,0.000000,0.000000,0.000000,0.000000,0.000000,0.000000,0.000000,0.000000,2.65157987,0.15635857,0.03585288,0.04768147,0.01675124,1.68315513,0.00000000,0.71178058,0.01116847,0.01792644,0.01907259,0.03350248,3.55890288,0.00000000,2.80525856
8.027,3,1,1,-531.085,192.311,49.139,9.847,-2.696,-0.575,-10.422,-7.262,nan,1.220976,-1.582568,0.571899,1.768532,2.160863,-0.759420,4.147841,3.012820,2.727549,50.352554,-50.201628,100.000000,0.150926,nan,0.000000,0.000000,0.000000,0.000000,0.000000,0.000000,0.000000,0.000000,0.000000,0.000000,0.000000,0.000000,2.66855801,0.15771437,0.03589748,0.04771309,0.01708387,1.68567497,0.00000000,0.72447424,0.01126531,0.01794874,0.01908523,0.03416773,3.62237122,0.00000000,2.80945828
8.100,3,1,1,-530.983,192.381,49.040,8.447,-2.783,-0.881,-9.327,-6.875,nan,1.494981,-1.436120,0.582764,1.761171,2.155343,0.165554,3.278358,2.975964,2.715103,50.945189,-49.619367,100.000000,1.325822,nan,0.000000,0.000000,0.000000,0.000000,0.000000,0.000000,0.000000,0.000000,0.000000,0.000000,0.000000,0.000000,2.67780737,0.15835684,0.03589870,0.04773198,0.01720344,1.68683645,0.00000000,0.73177998,0.01131120,0.01794935,0.01909279,0.03440687,3.65889989,0.00000000,2.81139408
8.200,3,1,1,-530.930,192.414,48.989,7.751,-2.825,-1.032,-8.782,-8.093,nan,1.387803,-1.347911,0.631138,1.719494,2.147224,0.629532,3.106614,2.885055,2.699193,51.171868,-49.083306,100.000000,2.088562,nan,0.000000,0.000000,0.000000,0.000000,0.000000,0.000000,0.000000,0.000000,0.000000,0.000000,0.000000,0.000000,2.69019129,0.15913126,0.03592283,0.04776230,0.01735035,1.68824545,0.00000000,0.74177910,0.01136652,0.01796141,0.01910492,0.03470071,3.70889551,0.00000000,2.81374242
8.300,3,1,1,-530.876,192.447,48.938,7.057,-2.866,-1.182,-8.239,-7.635,nan,1.330056,-1.247596,0.666518,1.674886,2.138528,1.085915,2.843348,2.794605,2.685353,51.727544,-48.840792,100.000000,2.886752,nan,0.000000,0.000000,0.000000,0.000000,0.000000,0.000000,0.000000,0.000000,0.000000,0.000000,0.000000,0.000000,2.70233112,0.15979495,0.03599466,0.04779612,0.01747347,1.68948605,0.00000000,0.75178587,0.01141392,0.01799733,0.01911845,0.03494694,3.75892936,0.00000000,2.81581008
8.400,3,1,1,-530.822,192.478,48.885,6.367,-2.906,-1.331,-7.698,-6.202,nan,1.298729,-1.137606,0.900554,1.579278,2.129258,1.528854,3.490092,2.641299,2.674382,52.305711,-48.769403,100.000000,3.536308,nan,0.000000,0.000000,0.000000,0.000000,0.000000,0.000000,0.000000,0.000000,0.000000,0.000000,0.000000,0.000000,2.71437529,0.16034717,0.03613714,0.04785792,0.01765910,1.69056984,0.00000000,0.76180412,0.01145337,0.01806857,0.01914317,0.03531820,3.80902062,0.00000000,2.81761640
8.500,3,1,1,-530.767,192.509,48.831,5.681,-2.945,-1.479,-7.159,-6.102,nan,1.256865,-1.021020,1.489392,1.568028,2.119473,1.952892,5.201574,2.626656,2.666939,53.351755,-48.466648,100.000000,4.885108,nan,0.000000,0.000000,0.000000,0.000000,0.000000,0.000000,0.000000,0.000000,0.000000,0.000000,0.000000,0.000000,2.72658730,0.16079151,0.03636937,0.04802676,0.01807097,1.69150610,0.00000000,0.77182259,0.01148511,0.01818468,0.01921070,0.03614194,3.85911296,0.00000000,2.81917683
8.623,3,1,1,-530.767,192.509,48.831,5.681,-2.945,-1.479,-7.159,-6.102,nan,1.256865,-1.021020,1.489392,1.469501,2.107670,1.952892,5.201574,2.494349,2.657980,53.455806,-48.466648,100.000000,4.989158,nan,0.000000,0.000000,0.000000,0.000000,0.000000,0.000000,0.000000,0.000000,0.000000,0.000000,0.000000,0.000000,2.74163799,0.16133910,0.03665555,0.04823483,0.01857854,1.69265989,0.00000000,0.78417008,0.01152422,0.01832777,0.01929393,0.03715707,3.92085042,0.00000000,2.82109982
8.700,3,1,1,-530.656,192.566,48.723,4.372,-3.019,-1.761,-6.133,-6.818,nan,1.198327,-0.781556,1.298519,1.456593,2.099523,2.695159,3.559195,2.499439,2.658315,54.601148,-47.731862,100.000000,6.869286,nan,0.000000,0.000000,0.000000,0.000000,0.000000,0.000000,0.000000,0.000000,0.000000,0.000000,0.000000,0.000000,2.75067770,0.16153935,0.03699575,0.04833354,0.01872686,1.69318835,0.00000000,0.79189384,0.01153853,0.01849788,0.01933342,0.03745372,3.95946920,0.00000000,2.82198059
8.800,3,1,1,-530.600,192.594,48.669,3.777,-3.055,-1.890,-5.668,-5.873,nan,1.206537,-0.663126,1.355598,1.396155,2.088626,2.996549,3.226325,2.455215,2.662449,54.782646,-47.620494,100.000000,7.162152,nan,0.000000,0.000000,0.000000,0.000000,0.000000,0.000000,0.000000,0.000000,0.000000,0.000000,0.000000,0.000000,2.76234696,0.16172685,0.03754270,0.04847346,0.01888537,1.69377537,0.00000000,0.80194321,0.01155192,0.01877135,0.01938939,0.03777074,4.00971606,0.00000000,2.82295895
8.900,3,1,1,-530.544,192.620,48.614,3.106,-3.089,-2.032,-5.138,-6.976,nan,1.176253,-0.522552,1.319616,1.343526,2.077459,3.304633,2.730666,2.443621,2.670623,55.402196,-47.113131,100.000000,8.289065,nan,0.000000,0.000000,0.000000,0.000000,0.000000,0.000000,0.000000,0.000000,0.000000,0.000000,0.000000,0.000000,2.77392982,0.16184334,0.03820823,0.04860612,0.01899898,1.69425804,0.00000000,0.81201512,0.01156024,0.01910411,0.01944245,0.03799795,4.06007558,0.00000000,2.82376340
9.000,3,1,1,-530.488,192.645,48.560,2.438,-3.123,-2.173,-4.611,-6.761,nan,1.212432,-0.378209,1.418045,1.295090,2.066143,3.573199,2.447503,2.454040,2.682454,55.908037,-46.837498,100.000000,9.070540,nan,0.000000,0.000000,0.000000,0.000000,0.000000,0.000000,0.000000,0.000000,0.000000,0.000000,0.000000,0.000000,2.78547667,0.16190430,0.03898559,0.04875916,0.01909016,1.69464646,0.00000000,0.82209101,0.01156459,0.01949280,0.01950366,0.03818031,4.11045505,0.00000000,2.82441076
9.100,3,1,1,-530.432,192.670,48.506,1.776,-3.155,-2.312,-4.088,-7.004,nan,1.205565,-0.232563,1.587427,1.252113,2.054770,3.799704,2.173012,2.485148,2.697422,56.343701,-46.483659,100.000000,9.860042,nan,0.000000,0.000000,0.000000,0.000000,0.000000,0.000000,0.000000,0.000000,0.000000,0.000000,0.000000,0.000000,2.79704535,0.16192736,0.03986516,0.04895105,0.01916207,1.69495187,0.00000000,0.83218783,0.01156624,0.01993258,0.01958042,0.03832415,4.16093917,0.00000000,2.82491979
9.225,3,1,1,-530.432,192.670,48.506,1.776,-3.155,-2.312,-4.088,-7.004,nan,1.205565,-0.232563,1.587427,1.201317,2.040801,3.799704,2.173012,2.540569,2.715582,56.585311,-46.483659,100.000000,10.101651,nan,0.000000,0.000000,0.000000,0.000000,0.000000,0.000000,0.000000,0.000000,0.000000,0.000000,0.000000,0.000000,2.81153148,0.16195623,0.04096607,0.04919124,0.01925209,1.69533415,0.00000000,0.84483170,0.01156830,0.02048304,0.01967650,0.03850418,4.22415848,0.00000000,2.82555691
9.300,3,1,1,-530.323,192.716,48.399,0.594,-3.217,-2.564,-3.158,-6.503,nan,1.670936,0.033014,1.407996,1.186587,2.032469,4.096152,1.184463,2.589652,2.729658,57.042841,-46.018088,100.000000,11.024753,nan,0.000000,0.000000,0.000000,0.000000,0.000000,0.000000,0.000000,0.000000,0.000000,0.000000,0.000000,0.000000,2.82014737,0.16195658,0.04173199,0.04930436,0.01926810,1.69547075,0.00000000,0.85241558,0.01156833,0.02086600,0.01972174,0.03853620,4.26207791,0.00000000,2.82578459
9.400,3,1,1,-530.268,192.738,48.346,-0.056,-3.246,-2.700,-2.643,-6.632,nan,1.433135,0.182334,1.205457,1.156720,2.021594,4.197368,0.657786,2.654384,2.749623,57.166603,-45.689097,100.000000,11.477506,nan,0.000000,0.000000,0.000000,0.000000,0.000000,0.000000,0.000000,0.000000,0.000000,0.000000,0.000000,0.000000,2.83161049,0.16197076,0.04280523,0.04941501,0.01927469,1.69559846,0.00000000,0.86254634,0.01156934,0.02140262,0.01976601,0.03854938,4.31273169,0.00000000,2.82599743
9.500,3,1,1,-530.240,192.749,48.319,-0.650,-3.261,-2.814,-2.163,-7.706,nan,1.326355,0.319223,1.359216,1.140386,2.011073,4.249999,0.362067,2.731535,2.769881,57.357883,-45.215738,100.000000,12.142145,nan,0.000000,0.000000,0.000000,0.000000,0.000000,0.000000,0.000000,0.000000,0.000000,0.000000,0.000000,0.000000,2.84313122,0.16201422,0.04390577,0.04955572,0.01927669,1.69568401,0.00000000,0.87269481,0.01157244,0.02195289,0.01982229,0.03855337,4.36347405,0.00000000,2.82614002
9.600,3,1,1,-530.187,192.770,48.266,-1.292,-3.290,-2.947,-1.655,-6.761,nan,1.247463,0.464584,1.046851,1.131156,2.001024,4.263496,-0.045946,2.810461,2.789780,57.435684,-45.077764,100.000000,12.357920,nan,0.000000,0.000000,0.000000,0.000000,0.000000,0.000000,0.000000,0.000000,0.000000,0.000000,0.000000,0.000000,2.85461373,0.16210624,0.04501289,0.04963915,0.01927672,1.69573405,0.00000000,0.88284467,0.01157902,0.02250645,0.01985566,0.03855344,4.41422335,0.00000000,2.82622342
9.723,3,1,1,-530.187,192.770,48.266,-1.292,-3.290,-2.947,-1.655,-6.761,nan,1.247463,0.464584,1.046851,1.137410,1.988898,4.263496,-0.045946,2.922913,2.813472,57.345329,-45.077764,100.000000,12.267565,nan,0.000000,0.000000,0.000000,0.000000,0.000000,0.000000,0.000000,0.000000,0.000000,0.000000,0.000000,0.000000,2.86871704,0.16221929,0.04637297,0.04974165,0.01927676,1.69579553,0.00000000,0.89531084,0.01158709,0.02318648,0.01989666,0.03855352,4.47655420,0.00000000,2.82632589
9.800,3,1,1,-530.082,192.810,48.164,-2.563,-3.344,-3.210,-0.647,-6.446,nan,1.253815,0.740213,1.091456,1.129385,1.982063,4.158497,-0.762235,2.959193,2.826714,57.306077,-44.531647,100.000000,12.774429,nan,0.000000,0.000000,0.000000,0.000000,0.000000,0.000000,0.000000,0.000000,0.000000,0.000000,0.000000,0.000000,2.87763984,0.16239969,0.04718634,0.04981169,0.01928359,1.69580144,0.00000000,0.90315710,0.01159998,0.02359317,0.01992468,0.03856718,4.51578549,0.00000000,2.82633573
9.900,3,1,1,-530.030,192.829,48.113,-3.194,-3.371,-3.340,-0.147,-6.460,nan,1.189791,0.869952,0.925052,1.134297,1.973881,4.043959,-0.975439,3.024684,2.841770,57.402341,-44.230562,100.000000,13.171779,nan,0.000000,0.000000,0.000000,0.000000,0.000000,0.000000,0.000000,0.000000,0.000000,0.000000,0.000000,0.000000,2.88920448,0.16272222,0.04818197,0.04987681,0.01929807,1.69580183,0.00000000,0.91332358,0.01162302,0.02409099,0.01995072,0.03859614,4.56661788,0.00000000,2.82633638
10.000,3,1,1,-529.979,192.848,48.063,-3.821,-3.397,-3.470,0.351,-6.689,nan,1.126397,0.991690,0.806331,1.144723,1.966410,3.891193,-1.157929,3.076661,2.854306,57.193018,-43.879473,100.000000,13.313544,nan,0.000000,0.000000,0.000000,0.000000,0.000000,0.000000,0.000000,0.000000,0.000000,0.000000,0.000000,0.000000,2.90079370,0.16314155,0.04910427,0.04992632,0.01931849,1.69580408,0.00000000,0.92349899,0.01165297,0.02455213,0.01997053,0.03863698,4.61749494,0.00000000,2.82634014
10.100,3,1,1,-529.928,192.866,48.014,-4.446,-3.422,-3.599,0.847,-6.718,nan,1.120404,1.103519,0.803820,1.157450,1.959658,3.702968,-1.507541,3.116369,2.864045,56.907768,-43.545177,100.000000,13.362590,nan,0.000000,0.000000,0.000000,0.000000,0.000000,0.000000,0.000000,0.000000,0.000000,0.000000,0.000000,0.000000,2.91242431,0.16366090,0.04993968,0.04997552,0.01935311,1.69581719,0.00000000,0.93367791,0.01169006,0.02496984,0.01999021,0.03870621,4.66838953,0.00000000,2.82636199
10.200,3,1,1,-529.878,192.885,47.965,-5.068,-3.448,-3.727,1.341,-7.262,nan,1.079199,1.204100,0.856927,1.171409,1.953601,3.482380,-2.074740,3.142804,2.870831,56.632053,-43.102526,99.734579,13.529527,nan,0.000000,0.000000,0.000000,0.000000,0.000000,0.000000,0.000000,0.000000,0.000000,0.000000,0.000000,0.000000,2.92407681,0.16427979,0.05067920,0.05003150,0.01941873,1.69585007,0.00000000,0.94381752,0.01173427,0.02533960,0.02001260,0.03883746,4.71908761,0.00000000,2.82641678
10.324,3,1,1,-529.878,192.885,47.965,-5.068,-3.448,-3.727,1.341,-7.262,nan,1.079199,1.204100,0.856927,1.183374,1.946218,3.482380,-2.074740,3.162029,2.879051,56.483619,-43.037644,99.521263,13.445975,nan,0.000000,0.000000,0.000000,0.000000,0.000000,0.000000,0.000000,0.000000,0.000000,0.000000,0.000000,0.000000,2.93849077,0.16504831,0.05159750,0.05010101,0.01950022,1.69589089,0.00000000,0.95635285,0.01178917,0.02579875,0.02004040,0.03900044,4.78176423,0.00000000,2.82648482
10.400,3,1,1,-529.778,192.920,47.867,-6.305,-3.498,-3.983,2.322,-6.933,nan,1.082523,1.366751,0.502847,1.199478,1.942592,2.957869,-2.115202,3.168161,2.879637,56.146978,-42.437738,98.584716,13.709241,nan,0.000000,0.000000,0.000000,0.000000,0.000000,0.000000,0.000000,0.000000,0.000000,0.000000,0.000000,0.000000,2.94712671,0.16565061,0.05200048,0.05011556,0.01955174,1.69596539,0.00000000,0.96384292,0.01183219,0.02600024,0.02004623,0.03910348,4.81921460,0.00000000,2.82660899
10.500,3,1,1,-529.728,192.938,47.818,-6.920,-3.523,-4.110,2.810,-6.317,nan,1.062962,1.427694,0.802808,1.211862,1.938289,2.661502,-4.659522,3.154619,2.877617,55.916848,-42.141782,98.058630,13.775067,nan,0.000000,0.000000,0.000000,0.000000,0.000000,0.000000,0.000000,0.000000,0.000000,0.000000,0.000000,0.000000,2.95875896,0.16652003,0.05243212,0.05016465,0.01988248,1.69610973,0.00000000,0.97364995,0.01189429,0.02621606,0.02006586,0.03976496,4.86824974,0.00000000,2.82684955
10.600,3,1,1,-529.678,192.955,47.769,-7.533,-3.547,-4.237,3.296,-6.116,nan,1.045930,1.472756,0.490801,1.222345,1.934381,2.347708,-4.174899,3.129474,2.873028,55.751253,-41.754551,97.505805,13.996702,nan,0.000000,0.000000,0.000000,0.000000,0.000000,0.000000,0.000000,0.000000,0.000000,0.000000,0.000000,0.000000,2.97020627,0.16744511,0.05276794,0.05018300,0.02014797,1.69630826,0.00000000,0.98335399,0.01196037,0.02638397,0.02007320,0.04029594,4.91676994,0.00000000,2.82718043
10.700,3,1,1,-529.628,192.973,47.721,-8.142,-3.571,-4.363,3.779,-6.073,nan,1.050784,1.501009,0.291746,1.230415,1.930746,2.020441,-4.400402,3.094332,2.866167,55.621712,-41.320972,96.942683,14.300740,nan,0.000000,0.000000,0.000000,0.000000,0.000000,0.000000,0.000000,0.000000,0.000000,0.000000,0.000000,0.000000,2.98157765,0.16840570,0.05301657,0.05018948,0.02044282,1.69656921,0.00000000,0.99295388,0.01202898,0.02650829,0.02007579,0.04088563,4.96476938,0.00000000,2.82761535
10.800,3,1,1,-529.578,192.990,47.672,-8.749,-3.596,-4.489,4.260,-5.930,nan,1.058355,1.512296,0.065422,1.235673,1.927254,1.683664,-4.324141,3.051185,2.857377,55.528461,-40.885792,96.414253,14.642669,nan,0.000000,0.000000,0.000000,0.000000,0.000000,0.000000,0.000000,0.000000,0.000000,0.000000,0.000000,0.000000,2.99285109,0.16938091,0.05318925,0.05018981,0.02072757,1.69690081,0.00000000,1.00246274,0.01209864,0.02659463,0.02007592,0.04145514,5.01231372,0.00000000,2.82816801
10.924,3,1,1,-529.578,192.990,47.672,-8.749,-3.596,-4.489,4.260,-5.930,nan,1.058355,1.512296,0.065422,1.232742,1.922991,1.683664,-4.324141,2.986170,2.846632,55.575260,-40.675848,96.251108,14.899411,nan,0.000000,0.000000,0.000000,0.000000,0.000000,0.000000,0.000000,0.000000,0.000000,0.000000,0.000000,0.000000,3.00684711,0.17059420,0.05340409,0.05019021,0.02108184,1.69731336,0.00000000,1.01426340,0.01218530,0.02670204,0.02007608,0.04216368,5.07131702,0.00000000,2.82885560
11.000,3,1,1,-529.477,193.023,47.573,-9.952,-3.644,-4.739,5.213,-6.002,nan,1.029491,1.482184,-0.412774,1.239424,1.920280,0.997651,-4.347092,2.953641,2.837952,55.510245,-39.922034,95.432279,15.588210,nan,0.000000,0.000000,0.000000,0.000000,0.000000,0.000000,0.000000,0.000000,0.000000,0.000000,0.000000,0.000000,3.01527474,0.17130264,0.05344994,0.05020002,0.02129948,1.69768889,0.00000000,1.02133376,0.01223590,0.02672497,0.02008001,0.04259896,5.10666878,0.00000000,2.82948149
11.100,3,1,1,-529.426,193.040,47.524,-10.548,-3.667,-4.863,5.685,-6.847,nan,1.051250,1.440939,-0.691658,1.234988,1.916460,0.656399,-4.610583,2.900755,2.825711,55.422598,-39.253879,94.676476,16.168719,nan,0.000000,0.000000,0.000000,0.000000,0.000000,0.000000,0.000000,0.000000,0.000000,0.000000,0.000000,0.000000,3.02636029,0.17218795,0.05347619,0.05023645,0.02162319,1.69827944,0.00000000,1.03055708,0.01229914,0.02673809,0.02009458,0.04324638,5.15278542,0.00000000,2.83046574
11.200,3,1,1,-529.375,193.056,47.473,-11.140,-3.690,-4.987,6.153,-5.887,nan,1.054980,1.381752,-0.844113,1.226741,1.912308,0.321559,-4.173528,2.850397,2.813110,55.450410,-38.878740,94.329150,16.571670,nan,0.000000,0.000000,0.000000,0.000000,0.000000,0.000000,0.000000,0.000000,0.000000,0.000000,0.000000,0.000000,3.03736593,0.17300223,0.05348249,0.05029071,0.02188851,1.69897155,0.00000000,1.03973044,0.01235730,0.02674124,0.02011629,0.04377701,5.19865221,0.00000000,2.83161925
11.300,3,1,1,-529.323,193.071,47.423,-11.727,-3.714,-5.109,6.618,-5.386,nan,1.063465,1.305482,-1.037906,1.215120,1.907742,-0.003241,-4.034747,2.803818,2.800518,55.499956,-38.400277,93.900233,17.099679,nan,0.000000,0.000000,0.000000,0.000000,0.000000,0.000000,0.000000,0.000000,0.000000,0.000000,0.000000,0.000000,3.04833088,0.17372891,0.05348249,0.05037274,0.02213641,1.69977196,0.00000000,1.04883838,0.01240921,0.02674124,0.02014909,0.04427281,5.24419192,0.00000000,2.83295326
11.400,3,1,1,-529.271,193.087,47.371,-12.310,-3.736,-5.231,7.079,-5.687,nan,1.069539,1.213242,-1.143311,1.200071,1.902689,-0.314764,-3.571154,2.763769,2.788209,55.565909,-37.755242,93.321151,17.810667,nan,0.000000,0.000000,0.000000,0.000000,0.000000,0.000000,0.000000,0.000000,0.000000,0.000000,0.000000,0.000000,3.05923569,0.17435869,0.05348854,0.05047261,0.02233128,1.70069088,0.00000000,1.05789370,0.01245419,0.02674427,0.02018904,0.04466255,5.28946851,0.00000000,2.83448479
11.520,3,1,1,-529.271,193.087,47.371,-12.310,-3.736,-5.231,7.079,-5.687,nan,1.069539,1.213242,-1.143311,1.167939,1.896745,-0.314764,-3.571154,2.730452,2.773703,55.745273,-37.395297,93.140570,18.349976,nan,0.000000,0.000000,0.000000,0.000000,0.000000,0.000000,0.000000,0.000000,0.000000,0.000000,0.000000,0.000000,3.07225968,0.17511183,0.05349578,0.05059204,0.02256432,1.70178981,0.00000000,1.06870591,0.01250799,0.02674789,0.02023681,0.04512864,5.34352953,0.00000000,2.83631634
11.600,3,1,1,-529.164,193.116,47.267,-13.391,-3.780,-5.458,7.933,-5.801,nan,1.013887,0.998812,-1.708008,1.147001,1.891979,-0.854525,-3.637323,2.714700,2.764972,55.838076,-36.531598,92.369674,19.306478,nan,0.000000,0.000000,0.000000,0.000000,0.000000,0.000000,0.000000,0.000000,0.000000,0.000000,0.000000,0.000000,3.08099872,0.17545142,0.05353129,0.05076937,0.02272516,1.70270779,0.00000000,1.07581369,0.01253224,0.02676565,0.02030775,0.04545032,5.37906846,0.00000000,2.83784632
11.700,3,1,1,-529.110,193.130,47.213,-13.958,-3.801,-5.577,8.382,-6.532,nan,1.056498,0.865781,-1.935144,1.124060,1.885517,-1.112631,-3.526267,2.708067,2.754960,55.910475,-35.717877,91.628351,20.192598,nan,0.000000,0.000000,0.000000,0.000000,0.000000,0.000000,0.000000,0.000000,0.000000,0.000000,0.000000,0.000000,3.09195644,0.17577110,0.05360672,0.05105456,0.02291456,1.70399182,0.00000000,1.08461767,0.01255508,0.02680336,0.02042183,0.04582912,5.42308835,0.00000000,2.83998637
11.800,3,1,1,-529.055,193.143,47.159,-14.519,-3.822,-5.693,8.826,-5.185,nan,1.081333,0.721040,-2.059640,1.115963,1.878620,-1.347748,-3.102142,2.683106,2.745984,55.979743,-35.222396,91.202139,20.757347,nan,0.000000,0.000000,0.000000,0.000000,0.000000,0.000000,0.000000,0.000000,0.000000,0.000000,0.000000,0.000000,3.10293119,0.17599283,0.05371738,0.05137763,0.02306114,1.70541550,0.00000000,1.09336670,0.01257092,0.02685869,0.02055105,0.04612228,5.46683350,0.00000000,2.84235917
11.900,3,1,1,-528.999,193.156,47.105,-15.073,-3.842,-5.809,9.265,-5.758,nan,1.101272,0.567101,-1.596914,1.089799,1.871369,-1.557975,-1.953024,2.687512,2.738080,55.983574,-34.338210,90.321784,21.645365,nan,0.000000,0.000000,0.000000,0.000000,0.000000,0.000000,0.000000,0.000000,0.000000,0.000000,0.000000,0.000000,3.11366157,0.17612995,0.05386523,0.05157180,0.02311922,1.70698392,0.00000000,1.10199145,0.01258071,0.02693262,0.02062872,0.04623844,5.50995723,0.00000000,2.84497321
12.000,3,1,1,-528.942,193.168,47.049,-15.620,-3.861,-5.922,9.698,-5.243,nan,1.105016,0.406304,-3.565919,1.063297,1.863861,-1.741730,-3.728046,2.698638,2.731222,56.055173,-33.577455,89.632628,22.477718,nan,0.000000,0.000000,0.000000,0.000000,0.000000,0.000000,0.000000,0.000000,0.000000,0.000000,0.000000,0.000000,3.12534858,0.17620032,0.05404995,0.05253962,0.02333079,1.70870198,0.00000000,1.11052594,0.01258574,0.02702497,0.02101585,0.04666157,5.55262968,0.00000000,2.84783663
12.122,3,1,1,-528.942,193.168,47.049,-15.620,-3.861,-5.922,9.698,-5.243,nan,1.105016,0.406304,-3.565919,1.024119,1.854844,-1.741730,-3.728046,2.743255,2.722998,56.214034,-32.924645,89.138679,23.289389,nan,0.000000,0.000000,0.000000,0.000000,0.000000,0.000000,0.000000,0.000000,0.000000,0.000000,0.000000,0.000000,3.13952415,0.17628604,0.05427498,0.05371868,0.02358853,1.71079502,0.00000000,1.12086091,0.01259186,0.02713749,0.02148747,0.04717706,5.60430455,0.00000000,2.85132503
12.200,3,1,1,-528.828,193.190,46.936,-16.587,-3.897,-6.126,10.461,-5.601,nan,0.959149,0.105111,-1.655695,1.001835,1.848849,-2.002416,-1.177103,2.759671,2.718947,56.220515,-31.666745,87.887261,24.553770,nan,0.000000,0.000000,0.000000,0.000000,0.000000,0.000000,0.000000,0.000000,0.000000,0.000000,0.000000,0.000000,3.14798532,0.17628973,0.05446626,0.05388214,0.02360505,1.71236106,0.00000000,1.12738108,0.01259212,0.02723313,0.02155286,0.04721011,5.63690542,0.00000000,2.85393509
12.300,3,1,1,-528.769,193.200,46.878,-17.112,-3.914,-6.234,10.878,-5.056,nan,1.058362,-0.064478,-1.684128,0.982276,1.841258,-2.107328,-0.911417,2.774405,2.714490,56.244411,-30.602648,86.847059,25.641763,nan,0.000000,0.000000,0.000000,0.000000,0.000000,0.000000,0.000000,0.000000,0.000000,0.000000,0.000000,0.000000,3.15885320,0.17629150,0.05473692,0.05409822,0.02361771,1.71452459,0.00000000,1.13558427,0.01259225,0.02736846,0.02163929,0.04723542,5.67792133,0.00000000,2.85754098
12.400,3,1,1,-528.710,193.208,46.820,-17.628,-3.929,-6.340,11.288,-6.790,nan,1.121461,-0.232322,-1.617987,0.966365,1.833876,-2.183405,-0.611488,2.785331,2.710591,56.254276,-28.972646,85.226922,27.281629,nan,0.000000,0.000000,0.000000,0.000000,0.000000,0.000000,0.000000,0.000000,0.000000,0.000000,0.000000,0.000000,3.16970444,0.17631451,0.05502725,0.05429752,0.02362340,1.71685245,0.00000000,1.14358931,0.01259389,0.02751362,0.02171901,0.04724681,5.71794656,0.00000000,2.86142075
12.500,3,1,1,-528.650,193.216,46.761,-18.134,-3.944,-6.444,11.690,-4.827,nan,1.147125,-0.395980,-1.131410,0.954840,1.826805,-2.230686,-0.240014,2.790542,2.707057,56.248247,-27.771478,84.019725,28.476769,nan,0.000000,0.000000,0.000000,0.000000,0.000000,0.000000,0.000000,0.000000,0.000000,0.000000,0.000000,0.000000,3.18054687,0.17638142,0.05533058,0.05439506,0.02362428,1.71935143,0.00000000,1.15146410,0.01259867,0.02766529,0.02175802,0.04724856,5.75732050,0.00000000,2.86558572
12.622,3,1,1,-528.650,193.216,46.761,-18.134,-3.944,-6.444,11.690,-4.827,nan,1.147125,-0.395980,-1.131410,0.945149,1.818308,-2.230686,-0.240014,2.778230,2.702823,56.315680,-26.370397,82.686077,29.945283,nan,0.000000,0.000000,0.000000,0.000000,0.000000,0.000000,0.000000,0.000000,0.000000,0.000000,0.000000,0.000000,3.19358651,0.17646291,0.05570003,0.05451386,0.02362535,1.72239519,0.00000000,1.16088917,0.01260449,0.02785002,0.02180554,0.04725070,5.80444586,0.00000000,2.87065864
