t,controller_id,state_code,wp_idx,x,y,dist,yaw_deg,yaw_to_wp_deg,yaw_ref_deg,yaw_err_deg,yaw_rate_deg_s,speed_ref,speed_meas,roll_deg,roll_rate_deg_s,roll_rms_window_deg,roll_rms_total_deg,pitch_deg,pitch_rate_deg_s,pitch_rms_window_deg,pitch_rms_total_deg,base_cmd,diff_cmd,T_left,T_right,J_inst,J_goal,J_wave_roll,J_progress,J_smooth,J_mpc_distance,J_mpc_final,J_mpc_heading,J_mpc_wrong_way,J_mpc_pitch,J_mpc_control,J_mpc_slew,J_mpc_turn,J_total,J_roll,J_pitch,J_roll_rate,J_pitch_rate,J_goal_heading,J_no_progress,J_control,I_roll,I_pitch,I_roll_rate,I_pitch_rate,I_control,I_no_progress,I_goal_heading
0.500,3,1,1,-531.971,190.002,49.971,56.971,-0.002,9.498,-47.473,0.974,nan,0.000000,2.934776,2.021220,2.934776,2.934776,3.159911,1.738696,3.159911,3.159911,58.707444,-56.170083,8.000000,2.537361,nan,0.000000,0.000000,0.000000,0.000000,0.000000,0.000000,0.000000,0.000000,0.000000,0.000000,0.000000,0.000000,0.04584595,0.00366874,0.00060760,0.00031075,0.00004599,0.04114252,0.00000000,0.00007035,0.00026205,0.00030380,0.00012430,0.00009198,0.00035177,0.00000000,0.06857087
0.734,3,1,1,-531.971,190.002,49.971,56.971,-0.002,9.498,-47.473,0.974,nan,0.000000,2.934776,2.021220,2.934776,2.934776,3.159911,1.738696,3.159911,3.159911,36.273134,-60.462275,16.000000,-5.462639,nan,0.000000,0.000000,0.000000,0.000000,0.000000,0.000000,0.000000,0.000000,0.000000,0.000000,0.000000,0.000000,0.15393834,0.01227823,0.00203347,0.00103998,0.00015391,0.13769240,0.00000000,0.00074034,0.00087702,0.00101673,0.00041599,0.00030783,0.00370172,0.00000000,0.22948734
0.800,3,1,1,-531.967,189.999,49.967,56.956,0.001,9.499,-47.457,-0.029,nan,0.016976,3.595793,1.458836,3.170465,3.053057,3.780718,1.759206,3.379541,3.269857,36.276007,-61.478367,24.000000,-13.462639,nan,0.000000,0.000000,0.000000,0.000000,0.000000,0.000000,0.000000,0.000000,0.000000,0.000000,0.000000,0.000000,0.18576698,0.01589585,0.00260479,0.00114631,0.00018484,0.16469804,0.00000000,0.00123715,0.00113542,0.00130240,0.00045852,0.00036968,0.00618575,0.00000000,0.27449673
0.900,3,1,1,-531.968,189.998,49.968,56.926,0.002,9.495,-47.431,0.100,nan,0.020813,3.704728,0.814659,3.312120,3.194106,3.923085,1.147667,3.523297,3.410587,34.677908,-63.315780,32.000000,-20.000000,nan,0.000000,0.000000,0.000000,0.000000,0.000000,0.000000,0.000000,0.000000,0.000000,0.000000,0.000000,0.000000,0.23518357,0.02175057,0.00354268,0.00119687,0.00020490,0.20582704,0.00000000,0.00266151,0.00155361,0.00177134,0.00047875,0.00040981,0.01330756,0.00000000,0.34304506
1.000,3,1,1,-531.971,189.997,49.971,56.872,0.004,9.486,-47.386,-0.143,nan,0.039738,3.747966,0.272388,3.403757,3.293066,3.988864,0.476196,3.621202,3.513764,33.717916,-65.077819,40.000000,-20.000000,nan,0.000000,0.000000,0.000000,0.000000,0.000000,0.000000,0.000000,0.000000,0.000000,0.000000,0.000000,0.000000,0.28529105,0.02775297,0.00451394,0.00120253,0.00020836,0.24694781,0.00000000,0.00466544,0.00198236,0.00225697,0.00048101,0.00041673,0.02332718,0.00000000,0.41157969
1.137,3,1,1,-531.971,189.997,49.971,56.872,0.004,9.486,-47.386,-0.143,nan,0.039738,3.747966,0.272388,3.463501,3.382305,3.988864,0.476196,3.685027,3.606865,33.090603,-67.583890,48.000000,-20.000000,nan,0.000000,0.000000,0.000000,0.000000,0.000000,0.000000,0.000000,0.000000,0.000000,0.000000,0.000000,0.000000,0.35482448,0.03596679,0.00584303,0.00121027,0.00021310,0.30321837,0.00000000,0.00837291,0.00256906,0.00292151,0.00048411,0.00042620,0.04186455,0.00000000,0.50536396
1.200,3,1,1,-531.985,189.994,49.985,56.638,0.006,9.447,-47.190,-0.444,nan,0.088905,3.671290,-1.031983,3.493942,3.405827,3.922324,-1.019511,3.719854,3.632565,32.714022,-68.555699,56.000000,-20.000000,nan,0.000000,0.000000,0.000000,0.000000,0.000000,0.000000,0.000000,0.000000,0.000000,0.000000,0.000000,0.000000,0.38679151,0.03956827,0.00643029,0.00126109,0.00022302,0.32872042,0.00000000,0.01058842,0.00282631,0.00321515,0.00050444,0.00044604,0.05294208,0.00000000,0.54786737
1.300,3,1,1,-531.995,189.994,49.995,56.457,0.007,9.416,-47.041,-0.917,nan,0.135486,3.538665,-1.637642,3.499564,3.420860,3.796081,-1.525625,3.729467,3.651118,32.527512,-70.201037,64.000000,-20.000000,nan,0.000000,0.000000,0.000000,0.000000,0.000000,0.000000,0.000000,0.000000,0.000000,0.000000,0.000000,0.000000,0.43825196,0.04491502,0.00730928,0.00146557,0.00025851,0.36921370,0.00000000,0.01508988,0.00320822,0.00365464,0.00058623,0.00051703,0.07544942,0.00000000,0.61535616
1.400,3,1,1,-532.007,189.994,50.007,56.251,0.007,9.380,-46.871,-2.048,nan,0.178015,3.359737,-2.346770,3.484304,3.414801,3.632519,-2.133107,3.718820,3.649264,32.511425,-71.709027,72.000000,-20.000000,nan,0.000000,0.000000,0.000000,0.000000,0.000000,0.000000,0.000000,0.000000,0.000000,0.000000,0.000000,0.000000,0.49005005,0.04972471,0.00811248,0.00188462,0.00032776,0.40933142,0.00000000,0.02066906,0.00355177,0.00405624,0.00075385,0.00065551,0.10334529,0.00000000,0.68221903
1.500,3,1,1,-532.021,189.995,50.021,55.982,0.006,9.332,-46.650,-2.220,nan,0.216880,3.107903,-2.729302,3.448514,3.388042,3.403457,-2.494262,3.688497,3.627599,32.642991,-72.000000,80.000000,-20.000000,nan,0.000000,0.000000,0.000000,0.000000,0.000000,0.000000,0.000000,0.000000,0.000000,0.000000,0.000000,0.000000,0.54212524,0.05384501,0.00881837,0.00245204,0.00042254,0.44911648,0.00000000,0.02747080,0.00384607,0.00440919,0.00098082,0.00084507,0.13735398,0.00000000,0.74852747
1.600,3,1,1,-532.036,189.997,50.036,55.665,0.003,9.274,-46.391,-2.249,nan,0.252055,2.803980,-4.878205,3.394980,3.343277,3.123831,-4.498880,3.640785,3.588327,32.918427,-72.000000,88.000000,-20.000000,nan,0.000000,0.000000,0.000000,0.000000,0.000000,0.000000,0.000000,0.000000,0.000000,0.000000,0.000000,0.000000,0.59565816,0.05719717,0.00941274,0.00426383,0.00073073,0.48844092,0.00000000,0.03561277,0.00408551,0.00470637,0.00170553,0.00146146,0.17806384,0.00000000,0.81406820
1.737,3,1,1,-532.036,189.997,50.036,55.665,0.003,9.274,-46.391,-2.249,nan,0.252055,2.803980,-4.878205,3.349715,3.291956,3.123831,-4.498880,3.600541,3.543422,33.273864,-72.000000,96.000000,-20.000000,nan,0.000000,0.000000,0.000000,0.000000,0.000000,0.000000,0.000000,0.000000,0.000000,0.000000,0.000000,0.000000,0.67123227,0.06180291,0.01022937,0.00675315,0.00115418,0.54247118,0.00000000,0.04882149,0.00441449,0.00511468,0.00270126,0.00230836,0.24410744,0.00000000,0.90411863
1.800,3,1,1,-532.068,190.008,50.068,54.940,-0.009,9.139,-45.801,-5.185,nan,0.261267,2.110950,-2.810759,3.271123,3.248259,2.488984,-2.558010,3.527494,3.502992,33.669104,-71.559518,100.000000,-20.000000,nan,0.000000,0.000000,0.000000,0.000000,0.000000,0.000000,0.000000,0.000000,0.000000,0.000000,0.000000,0.000000,0.70366061,0.06299447,0.01046602,0.00713039,0.00121667,0.56651065,0.00000000,0.05534242,0.00449960,0.00523301,0.00285216,0.00243334,0.27671210,0.00000000,0.94418441
1.900,3,1,1,-532.084,190.016,50.084,54.485,-0.018,9.053,-45.432,-3.739,nan,0.295914,1.689081,-5.359971,3.184294,3.168283,2.102704,-4.952415,3.445320,3.427491,34.258729,-71.593237,100.000000,-20.000000,nan,0.000000,0.000000,0.000000,0.000000,0.000000,0.000000,0.000000,0.000000,0.000000,0.000000,0.000000,0.000000,0.75582708,0.06421103,0.01073535,0.00931800,0.00159018,0.60423128,0.00000000,0.06574124,0.00458650,0.00536768,0.00372720,0.00318037,0.32870619,0.00000000,1.00705213
2.000,3,1,1,-532.100,190.026,50.100,53.986,-0.030,8.958,-45.028,-4.727,nan,0.329504,1.242244,-7.152826,3.092996,3.083345,1.681867,-6.862206,3.356703,3.345172,34.916123,-71.181314,100.000000,-20.000000,nan,0.000000,0.000000,0.000000,0.000000,0.000000,0.000000,0.000000,0.000000,0.000000,0.000000,0.000000,0.000000,0.80873537,0.06486922,0.01090770,0.01321476,0.00230749,0.64129368,0.00000000,0.07614252,0.00463352,0.00545385,0.00528590,0.00461498,0.38071258,0.00000000,1.06882280
2.100,3,1,1,-532.116,190.038,50.116,53.449,-0.044,8.855,-44.595,-4.942,nan,0.358882,0.780164,-7.493316,3.001125,2.997298,1.227770,-7.508174,3.264576,3.258962,35.617156,-70.886550,100.000000,-20.000000,nan,0.000000,0.000000,0.000000,0.000000,0.000000,0.000000,0.000000,0.000000,0.000000,0.000000,0.000000,0.000000,0.86094535,0.06512867,0.01099950,0.01748887,0.00316571,0.67762483,0.00000000,0.08653778,0.00465205,0.00549975,0.00699555,0.00633141,0.43268891,0.00000000,1.12937471
2.228,3,1,1,-532.116,190.038,50.116,53.449,-0.044,8.855,-44.595,-4.942,nan,0.358882,0.780164,-7.493316,2.917661,2.897882,1.227770,-7.508174,3.181072,3.159603,36.257761,-70.886550,100.000000,-20.000000,nan,0.000000,0.000000,0.000000,0.000000,0.000000,0.000000,0.000000,0.000000,0.000000,0.000000,0.000000,0.000000,0.92775699,0.06546068,0.01111697,0.02295832,0.00426394,0.72411678,0.00000000,0.09984031,0.00467576,0.00555848,0.00918333,0.00852788,0.49920155,0.00000000,1.20686129
2.300,3,1,1,-532.145,190.069,50.145,52.282,-0.078,8.627,-43.654,-6.102,nan,1.978246,-0.159599,-8.273199,2.835706,2.842556,0.257857,-8.693943,3.092043,3.099503,37.005463,-70.125887,100.000000,-20.000000,nan,0.000000,0.000000,0.000000,0.000000,0.000000,0.000000,0.000000,0.000000,0.000000,0.000000,0.000000,0.000000,0.96495217,0.06546851,0.01111989,0.02671497,0.00509363,0.74921948,0.00000000,0.10733568,0.00467632,0.00555994,0.01068599,0.01018727,0.53667842,0.00000000,1.24869914
2.400,3,1,1,-532.158,190.087,50.158,51.659,-0.099,8.505,-43.154,-5.644,nan,1.302654,-0.621191,-7.515691,2.763750,2.774061,-0.230926,-8.019438,3.010040,3.021464,37.681992,-69.909211,100.000000,-20.000000,nan,0.000000,0.000000,0.000000,0.000000,0.000000,0.000000,0.000000,0.000000,0.000000,0.000000,0.000000,0.000000,1.01483536,0.06563306,0.01112314,0.03101633,0.00607309,0.78325470,0.00000000,0.11773503,0.00468808,0.00556157,0.01240653,0.01214618,0.58867517,0.00000000,1.30542450
2.500,3,1,1,-532.169,190.107,50.169,51.016,-0.122,8.377,-42.638,-6.088,nan,0.935044,-1.064290,-5.110523,2.704263,2.717141,-0.710152,-5.605339,2.938119,2.952704,38.299475,-69.525578,100.000000,-20.000000,nan,0.000000,0.000000,0.000000,0.000000,0.000000,0.000000,0.000000,0.000000,0.000000,0.000000,0.000000,0.000000,1.06145093,0.06611619,0.01115386,0.03300554,0.00655170,0.81648730,0.00000000,0.12813634,0.00472258,0.00557693,0.01320221,0.01310340,0.64068171,0.00000000,1.36081216
2.600,3,1,1,-532.179,190.128,50.179,50.354,-0.146,8.245,-42.109,-6.976,nan,0.729260,-1.480755,-5.666966,2.658798,2.673372,-1.176648,-6.473248,2.878784,2.895700,38.837795,-69.056352,100.000000,-20.000000,nan,0.000000,0.000000,0.000000,0.000000,0.000000,0.000000,0.000000,0.000000,0.000000,0.000000,0.000000,0.000000,1.10836395,0.06705130,0.01123822,0.03545127,0.00718994,0.84889655,0.00000000,0.13853667,0.00478938,0.00561911,0.01418051,0.01437988,0.69268336,0.00000000,1.41482758
2.700,3,1,1,-532.187,190.151,50.187,49.678,-0.173,8.110,-41.568,-6.646,nan,0.621218,-1.865591,-4.952081,2.627942,2.643380,-1.626646,-5.906955,2.833896,2.852275,39.282602,-68.792739,100.000000,-20.000000,nan,0.000000,0.000000,0.000000,0.000000,0.000000,0.000000,0.000000,0.000000,0.000000,0.000000,0.000000,0.000000,1.15440206,0.06853600,0.01139946,0.03731934,0.00772153,0.88048611,0.00000000,0.14893961,0.00489543,0.00569973,0.01492774,0.01544306,0.74469807,0.00000000,1.46747685
2.826,3,1,1,-532.187,190.151,50.187,49.678,-0.173,8.110,-41.568,-6.646,nan,0.621218,-1.865591,-4.952081,2.599450,2.608613,-1.626646,-5.906955,2.792282,2.801725,39.525032,-68.792739,100.000000,-20.000000,nan,0.000000,0.000000,0.000000,0.000000,0.000000,0.000000,0.000000,0.000000,0.000000,0.000000,0.000000,0.000000,1.21254258,0.07041099,0.01160310,0.03967849,0.00839286,0.92037988,0.00000000,0.16207726,0.00502936,0.00580155,0.01587140,0.01678572,0.81038631,0.00000000,1.53396647
2.900,3,1,1,-532.198,190.203,50.199,48.286,-0.231,7.828,-40.458,-6.030,nan,1.228188,-2.524352,-3.165462,2.596364,2.606170,-2.442165,-4.056643,2.778575,2.791795,39.954332,-68.241406,100.000000,-20.000000,nan,0.000000,0.000000,0.000000,0.000000,0.000000,0.000000,0.000000,0.000000,0.000000,0.000000,0.000000,0.000000,1.24524908,0.07241236,0.01187070,0.04024046,0.00857745,0.94241174,0.00000000,0.16973637,0.00517231,0.00593535,0.01609618,0.01715489,0.84868187,0.00000000,1.57068624
3.000,3,1,1,-532.201,190.230,50.202,47.574,-0.263,7.683,-39.891,-7.062,nan,0.929527,-2.787549,-2.649168,2.604281,2.613379,-2.786432,-3.536012,2.778889,2.791589,40.095955,-67.725233,100.000000,-20.000000,nan,0.000000,0.000000,0.000000,0.000000,0.000000,0.000000,0.000000,0.000000,0.000000,0.000000,0.000000,0.000000,1.28924649,0.07572628,0.01234373,0.04077493,0.00876789,0.97149693,0.00000000,0.18013672,0.00540902,0.00617187,0.01630997,0.01753578,0.90068358,0.00000000,1.61916156
3.100,3,1,1,-532.202,190.259,50.203,46.854,-0.296,7.536,-39.318,-7.348,nan,0.772706,-3.000340,-2.196571,2.620621,2.628726,-3.078363,-3.098269,2.791002,2.802733,40.153998,-67.335318,100.000000,-20.000000,nan,0.000000,0.000000,0.000000,0.000000,0.000000,0.000000,0.000000,0.000000,0.000000,0.000000,0.000000,0.000000,1.33282653,0.07956489,0.01292100,0.04114233,0.00891408,0.99974869,0.00000000,0.19053554,0.00568321,0.00646050,0.01645693,0.01782816,0.95267768,0.00000000,1.66624782
3.200,3,1,1,-532.201,190.290,50.202,46.126,-0.331,7.386,-38.740,-6.403,nan,0.696939,-3.161532,-1.471685,2.642630,2.649600,-3.314020,-2.231519,2.812108,2.822588,40.146196,-67.157129,100.000000,-20.000000,nan,0.000000,0.000000,0.000000,0.000000,0.000000,0.000000,0.000000,0.000000,0.000000,0.000000,0.000000,0.000000,1.37582723,0.08382736,0.01359008,0.04130726,0.00898992,1.02717748,0.00000000,0.20093512,0.00598767,0.00679504,0.01652291,0.01797984,1.00467562,0.00000000,1.71196247
3.300,3,1,1,-532.199,190.322,50.200,45.391,-0.367,7.234,-38.157,-6.890,nan,0.665925,-3.271924,-0.930243,2.667662,2.673474,-3.489534,-1.561150,2.839087,2.848189,40.092419,-66.726082,100.000000,-20.000000,nan,0.000000,0.000000,0.000000,0.000000,0.000000,0.000000,0.000000,0.000000,0.000000,0.000000,0.000000,0.000000,1.41824882,0.08839297,0.01433195,0.04137317,0.00902704,1.05378835,0.00000000,0.21133535,0.00631378,0.00716598,0.01654927,0.01805408,1.05667674,0.00000000,1.75631391
3.436,3,1,1,-532.199,190.322,50.200,45.391,-0.367,7.234,-38.157,-6.890,nan,0.665925,-3.271924,-0.930243,2.690759,2.703180,-3.489534,-1.561150,2.863976,2.880042,39.905501,-66.726082,100.000000,-20.000000,nan,0.000000,0.000000,0.000000,0.000000,0.000000,0.000000,0.000000,0.000000,0.000000,0.000000,0.000000,0.000000,1.47606700,0.09461563,0.01534308,0.04146299,0.00907764,1.09005742,0.00000000,0.22551025,0.00675826,0.00767154,0.01658519,0.01815527,1.12755126,0.00000000,1.81676237
3.500,3,1,1,-532.188,190.388,50.189,43.902,-0.443,6.924,-36.978,-7.577,nan,0.583597,-3.341327,0.154548,2.714957,2.717836,-3.640983,-0.089674,2.893240,2.897731,39.947160,-65.906599,100.000000,-20.000000,nan,0.000000,0.000000,0.000000,0.000000,0.000000,0.000000,0.000000,0.000000,0.000000,0.000000,0.000000,0.000000,1.50222156,0.09765569,0.01585876,0.04146415,0.00907771,1.10601458,0.00000000,0.23215067,0.00697541,0.00792938,0.01658566,0.01815543,1.16075333,0.00000000,1.84335763
3.600,3,1,1,-532.179,190.423,50.181,43.150,-0.483,6.767,-36.383,-6.116,nan,0.631368,-3.300012,0.693199,2.735783,2.737868,-3.610728,0.678818,2.919139,2.922603,39.869109,-65.808542,100.000000,-20.000000,nan,0.000000,0.000000,0.000000,0.000000,0.000000,0.000000,0.000000,0.000000,0.000000,0.000000,0.000000,0.000000,1.54222641,0.10229168,0.01665164,0.04150068,0.00908472,1.13016549,0.00000000,0.24253221,0.00730655,0.00832582,0.01660027,0.01816944,1.21266104,0.00000000,1.88360915
3.700,3,1,1,-532.169,190.459,50.171,42.454,-0.524,6.618,-35.835,-7.004,nan,0.673487,-3.219330,1.186204,2.752181,2.753702,-3.521266,1.392258,2.939823,2.942544,39.806796,-65.328553,100.000000,-20.000000,nan,0.000000,0.000000,0.000000,0.000000,0.000000,0.000000,0.000000,0.000000,0.000000,0.000000,0.000000,0.000000,1.58142569,0.10671343,0.01740736,0.04160788,0.00911426,1.15364623,0.00000000,0.25293654,0.00762239,0.00870368,0.01664315,0.01822851,1.26468269,0.00000000,1.92274371
3.800,3,1,1,-532.157,190.496,50.159,41.693,-0.566,6.458,-35.234,-8.294,nan,0.705531,-3.089440,1.583382,2.763005,2.764158,-3.359778,2.036411,2.953426,2.955655,39.787389,-64.746876,100.000000,-20.000000,nan,0.000000,0.000000,0.000000,0.000000,0.000000,0.000000,0.000000,0.000000,0.000000,0.000000,0.000000,0.000000,1.61952390,0.11078343,0.01809499,0.04179878,0.00917741,1.17633392,0.00000000,0.26333537,0.00791310,0.00904750,0.01671951,0.01835482,1.31667687,0.00000000,1.96055653
3.936,3,1,1,-532.157,190.496,50.159,41.693,-0.566,6.458,-35.234,-8.294,nan,0.705531,-3.089440,1.583382,2.773155,2.777378,-3.359778,2.036411,2.966172,2.972220,39.703351,-64.746876,100.000000,-20.000000,nan,0.000000,0.000000,0.000000,0.000000,0.000000,0.000000,0.000000,0.000000,0.000000,0.000000,0.000000,0.000000,1.67135992,0.11632101,0.01903058,0.04205853,0.00926334,1.20720254,0.00000000,0.27748392,0.00830864,0.00951529,0.01682341,0.01852668,1.38741961,0.00000000,2.01200423
4.000,3,1,1,-532.135,190.552,50.138,40.251,-0.630,6.168,-34.083,-7.248,nan,1.083638,-2.741464,1.490388,2.772255,2.776743,-2.882246,2.135621,2.963807,2.970644,39.830199,-64.246193,100.000000,-20.000000,nan,0.000000,0.000000,0.000000,0.000000,0.000000,0.000000,0.000000,0.000000,0.000000,0.000000,0.000000,0.000000,1.69413789,0.11837283,0.01935457,0.04216681,0.00930781,1.22079425,0.00000000,0.28414161,0.00845520,0.00967729,0.01686673,0.01861562,1.42070807,0.00000000,2.03465708
4.100,3,1,1,-532.118,190.590,50.122,39.479,-0.674,6.004,-33.474,-7.706,nan,0.964307,-2.507492,4.137011,2.765242,2.769811,-2.539169,6.173410,2.952837,2.959811,39.947625,-63.804987,100.000000,-20.000000,nan,0.000000,0.000000,0.000000,0.000000,0.000000,0.000000,0.000000,0.000000,0.000000,0.000000,0.000000,0.000000,1.72997124,0.12105388,0.01974732,0.04347001,0.00988819,1.24127160,0.00000000,0.29454024,0.00864671,0.00987366,0.01738801,0.01977639,1.47270118,0.00000000,2.06878600
4.200,3,1,1,-532.099,190.629,50.103,38.703,-0.719,5.840,-32.863,-8.738,nan,0.918008,-2.244824,3.377176,2.752471,2.757280,-2.139443,5.220188,2.933820,2.941161,40.114694,-63.262473,100.000000,-20.000000,nan,0.000000,0.000000,0.000000,0.000000,0.000000,0.000000,0.000000,0.000000,0.000000,0.000000,0.000000,0.000000,1.76381145,0.12320225,0.02002609,0.04433830,0.01030311,1.26100474,0.00000000,0.30493695,0.00880016,0.01001305,0.01773532,0.02060622,1.52468475,0.00000000,2.10167457
4.300,3,1,1,-532.078,190.669,50.082,37.925,-0.765,5.674,-32.251,-7.062,nan,0.903536,-1.959453,4.371614,2.734550,2.739729,-1.690214,6.984827,2.907915,2.915799,40.328918,-63.191268,100.000000,-20.000000,nan,0.000000,0.000000,0.000000,0.000000,0.000000,0.000000,0.000000,0.000000,0.000000,0.000000,0.000000,0.000000,1.79722741,0.12483945,0.02020012,0.04579352,0.01104610,1.28001248,0.00000000,0.31533574,0.00891710,0.01010006,0.01831741,0.02209221,1.57667868,0.00000000,2.13335414
4.438,3,1,1,-532.078,190.669,50.082,37.925,-0.765,5.674,-32.251,-7.062,nan,0.903536,-1.959453,4.371614,2.717439,2.716809,-1.690214,6.984827,2.883123,2.882594,40.474782,-63.191268,100.000000,-20.000000,nan,0.000000,0.000000,0.000000,0.000000,0.000000,0.000000,0.000000,0.000000,0.000000,0.000000,0.000000,0.000000,1.84325093,0.12709435,0.02043980,0.04779778,0.01206942,1.30619168,0.00000000,0.32965789,0.00907817,0.01021990,0.01911911,0.02413885,1.64828946,0.00000000,2.17698613
4.500,3,1,1,-532.030,190.749,50.036,36.361,-0.858,5.342,-31.019,-7.291,nan,1.156199,-1.345280,3.878993,2.685151,2.701185,-0.676557,6.577571,2.840442,2.861825,40.836660,-62.420672,100.000000,-20.000000,nan,0.000000,0.000000,0.000000,0.000000,0.000000,0.000000,0.000000,0.000000,0.000000,0.000000,0.000000,0.000000,1.86230776,0.12757516,0.02045718,0.04851160,0.01247993,1.31714721,0.00000000,0.33613668,0.00911251,0.01022859,0.01940464,0.02495985,1.68068340,0.00000000,2.19524536
4.600,3,1,1,-532.004,190.790,50.010,35.576,-0.905,5.174,-30.401,-6.947,nan,1.070708,-1.026414,5.834131,2.656336,2.673533,-0.128307,10.145861,2.804785,2.827625,41.208441,-62.113901,100.000000,-20.000000,nan,0.000000,0.000000,0.000000,0.000000,0.000000,0.000000,0.000000,0.000000,0.000000,0.000000,0.000000,0.000000,1.89420525,0.12802438,0.02045818,0.05110326,0.01404752,1.33403691,0.00000000,0.34653501,0.00914460,0.01022909,0.02044130,0.02809504,1.73267506,0.00000000,2.22339485
4.700,3,1,1,-531.976,190.830,49.983,34.788,-0.952,5.006,-29.782,-6.804,nan,1.036763,-0.705895,3.484824,2.626057,2.644451,0.436426,6.208509,2.771208,2.795341,41.550896,-61.771200,100.000000,-20.000000,nan,0.000000,0.000000,0.000000,0.000000,0.000000,0.000000,0.000000,0.000000,0.000000,0.000000,0.000000,0.000000,1.92255489,0.12823690,0.02046978,0.05202817,0.01463466,1.35024934,0.00000000,0.35693604,0.00915978,0.01023489,0.02081127,0.02926932,1.78468020,0.00000000,2.25041557
4.800,3,1,1,-531.946,190.871,49.954,33.999,-0.999,4.838,-29.161,-7.792,nan,1.025320,-0.389168,3.082576,2.556130,2.614873,1.008190,5.628235,2.700004,2.767557,41.901491,-61.230102,100.000000,-19.328611,nan,0.000000,0.000000,0.000000,0.000000,0.000000,0.000000,0.000000,0.000000,0.000000,0.000000,0.000000,0.000000,1.94981435,0.12830151,0.02053174,0.05275212,0.01511733,1.36579761,0.00000000,0.36731404,0.00916439,0.01026587,0.02110085,0.03023466,1.83657021,0.00000000,2.27632935
4.924,3,1,1,-531.946,190.871,49.954,33.999,-0.999,4.838,-29.161,-7.792,nan,1.025320,-0.389168,3.082576,2.488867,2.579608,1.008190,5.628235,2.632616,2.734479,42.441477,-61.230102,100.000000,-18.788625,nan,0.000000,0.000000,0.000000,0.000000,0.000000,0.000000,0.000000,0.000000,0.000000,0.000000,0.000000,0.000000,1.98356099,0.12838157,0.02060849,0.05364903,0.01571532,1.38506059,0.00000000,0.38014599,0.00917011,0.01030424,0.02145961,0.03143065,1.90072994,0.00000000,2.30843432
5.000,3,1,1,-531.884,190.952,49.893,32.416,-1.094,4.501,-27.915,-7.191,nan,1.023338,0.212188,2.872907,2.458551,2.558352,2.133218,5.487709,2.621568,2.725621,43.196030,-60.595863,100.000000,-17.399832,nan,0.000000,0.000000,0.000000,0.000000,0.000000,0.000000,0.000000,0.000000,0.000000,0.000000,0.000000,0.000000,2.00326865,0.12839616,0.02081921,0.05412677,0.01606395,1.39588570,0.00000000,0.38797686,0.00917115,0.01040961,0.02165071,0.03212790,1.93988428,0.00000000,2.32647617
5.100,3,1,1,-531.852,190.993,49.862,31.624,-1.141,4.332,-27.291,-6.331,nan,1.027537,0.489456,2.643425,2.389080,2.532003,2.668160,5.136037,2.580345,2.724412,43.521756,-60.375813,100.000000,-16.854057,nan,0.000000,0.000000,0.000000,0.000000,0.000000,0.000000,0.000000,0.000000,0.000000,0.000000,0.000000,0.000000,2.02862819,0.12849830,0.02125281,0.05465876,0.01646561,1.40949475,0.00000000,0.39825797,0.00917845,0.01062640,0.02186350,0.03293122,1.99128984,0.00000000,2.34915792
5.200,3,1,1,-531.820,191.033,49.830,30.832,-1.188,4.164,-26.668,-7.320,nan,1.043751,0.747710,2.357787,2.319207,2.507813,3.173801,4.644695,2.552604,2.734527,44.142633,-59.833400,100.000000,-15.690767,nan,0.000000,0.000000,0.000000,0.000000,0.000000,0.000000,0.000000,0.000000,0.000000,0.000000,0.000000,0.000000,2.05347582,0.12873672,0.02186647,0.05508210,0.01679418,1.42249251,0.00000000,0.40850384,0.00919548,0.01093324,0.02203284,0.03358836,2.04251921,0.00000000,2.37082086
5.300,3,1,1,-531.787,191.073,49.798,30.041,-1.234,3.996,-26.045,-6.833,nan,1.051921,0.983795,2.224212,2.252463,2.486066,3.642340,4.436872,2.542465,2.756046,44.749424,-59.548844,100.000000,-14.799420,nan,0.000000,0.000000,0.000000,0.000000,0.000000,0.000000,0.000000,0.000000,0.000000,0.000000,0.000000,0.000000,2.07799106,0.12914948,0.02267473,0.05545885,0.01709402,1.43489093,0.00000000,0.41872305,0.00922496,0.01133737,0.02218354,0.03418803,2.09361524,0.00000000,2.39148488
5.400,3,1,1,-531.754,191.112,49.766,29.251,-1.281,3.828,-25.423,-6.861,nan,1.048689,1.195126,2.021557,2.191576,2.466875,4.066059,4.063199,2.552626,2.788287,45.312381,-59.174899,100.000000,-13.862518,nan,0.000000,0.000000,0.000000,0.000000,0.000000,0.000000,0.000000,0.000000,0.000000,0.000000,0.000000,0.000000,2.10217713,0.12975865,0.02368204,0.05577009,0.01734549,1.44670501,0.00000000,0.42891586,0.00926847,0.01184102,0.02230804,0.03469098,2.14457930,0.00000000,2.41117502
5.537,3,1,1,-531.754,191.112,49.766,29.251,-1.281,3.828,-25.423,-6.861,nan,1.048689,1.195126,2.021557,2.105972,2.441661,4.066059,4.063199,2.544141,2.829716,45.686244,-59.174899,100.000000,-13.488655,nan,0.000000,0.000000,0.000000,0.000000,0.000000,0.000000,0.000000,0.000000,0.000000,0.000000,0.000000,0.000000,2.13517438,0.13059009,0.02505689,0.05619490,0.01768872,1.46282987,0.00000000,0.44281392,0.00932786,0.01252844,0.02247796,0.03537743,2.21406959,0.00000000,2.43804978
5.600,3,1,1,-531.689,191.190,49.703,27.678,-1.372,3.494,-24.184,-7.850,nan,1.209946,1.538761,1.419339,2.093966,2.432657,4.752468,2.780722,2.620240,2.861002,46.494547,-58.266913,100.000000,-11.772367,nan,0.000000,0.000000,0.000000,0.000000,0.000000,0.000000,0.000000,0.000000,0.000000,0.000000,0.000000,0.000000,2.15008813,0.13123133,0.02593070,0.05629232,0.01776351,1.46961807,0.00000000,0.44925221,0.00937367,0.01296535,0.02251693,0.03552701,2.24626105,0.00000000,2.44936345
5.700,3,1,1,-531.658,191.228,49.673,26.894,-1.417,3.328,-23.567,-7.778,nan,1.124673,1.670364,1.157986,2.064215,2.420481,5.004809,2.156214,2.690461,2.916146,46.574521,-57.913180,100.000000,-11.338659,nan,0.000000,0.000000,0.000000,0.000000,0.000000,0.000000,0.000000,0.000000,0.000000,0.000000,0.000000,0.000000,2.17328651,0.13242275,0.02745869,0.05639457,0.01783441,1.47978220,0.00000000,0.45939389,0.00945877,0.01372935,0.02255783,0.03566882,2.29696945,0.00000000,2.46630366
5.800,3,1,1,-531.627,191.266,49.643,26.114,-1.461,3.162,-22.952,-8.036,nan,1.061032,1.775565,0.887554,2.034297,2.410101,5.191346,1.482475,2.773890,2.974175,46.776980,-57.503256,100.000000,-10.726276,nan,0.000000,0.000000,0.000000,0.000000,0.000000,0.000000,0.000000,0.000000,0.000000,0.000000,0.000000,0.000000,2.19612405,0.13376809,0.02910163,0.05645460,0.01786790,1.48941646,0.00000000,0.46951537,0.00955486,0.01455081,0.02258184,0.03573581,2.34757686,0.00000000,2.48236076
5.900,3,1,1,-531.598,191.303,49.615,25.336,-1.505,2.997,-22.339,-7.076,nan,1.020200,1.854199,0.663065,2.037888,2.401135,5.309475,0.857555,2.879009,3.032777,46.958355,-57.307125,100.000000,-10.348771,nan,0.000000,0.000000,0.000000,0.000000,0.000000,0.000000,0.000000,0.000000,0.000000,0.000000,0.000000,0.000000,2.21859997,0.13523558,0.03082059,0.05648811,0.01787911,1.49854530,0.00000000,0.47963128,0.00965968,0.01541029,0.02259524,0.03575823,2.39815638,0.00000000,2.49757551
6.039,3,1,1,-531.598,191.303,49.615,25.336,-1.505,2.997,-22.339,-7.076,nan,1.020200,1.854199,0.663065,2.049478,2.389197,5.309475,0.857555,2.987095,3.108764,46.766432,-57.307125,100.000000,-10.540693,nan,0.000000,0.000000,0.000000,0.000000,0.000000,0.000000,0.000000,0.000000,0.000000,0.000000,0.000000,0.000000,2.24971878,0.13726701,0.03320013,0.05653450,0.01789463,1.51118230,0.00000000,0.49364020,0.00980479,0.01660007,0.02261380,0.03578927,2.46820101,0.00000000,2.51863717
6.100,3,1,1,-531.542,191.377,49.561,23.851,-1.592,2.680,-21.171,-7.620,nan,1.139626,1.933200,0.194781,2.068472,2.384762,5.339161,-0.485199,3.098019,3.141150,46.750229,-56.519015,100.000000,-9.768786,nan,0.000000,0.000000,0.000000,0.000000,0.000000,0.000000,0.000000,0.000000,0.000000,0.000000,0.000000,0.000000,2.26295964,0.13824291,0.03426354,0.05653627,0.01789683,1.51619838,0.00000000,0.49982171,0.00987449,0.01713177,0.02261451,0.03579366,2.49910857,0.00000000,2.52699730
6.200,3,1,1,-531.515,191.413,49.535,23.081,-1.635,2.517,-20.564,-7.506,nan,1.039177,1.939584,-0.031787,2.065424,2.377790,5.252149,-1.146814,3.168033,3.189420,46.569542,-56.178780,100.000000,-9.609237,nan,0.000000,0.000000,0.000000,0.000000,0.000000,0.000000,0.000000,0.000000,0.000000,0.000000,0.000000,0.000000,2.28409214,0.13984773,0.03594461,0.05653634,0.01791687,1.52392964,0.00000000,0.50991696,0.00998912,0.01797230,0.02261454,0.03583373,2.54958480,0.00000000,2.53988274
6.300,3,1,1,-531.490,191.449,49.511,22.313,-1.677,2.354,-19.959,-8.050,nan,0.969559,1.924685,-0.224164,2.109356,2.370827,5.097082,-1.736334,3.301137,3.231182,46.595101,-55.724662,100.000000,-9.129561,nan,0.000000,0.000000,0.000000,0.000000,0.000000,0.000000,0.000000,0.000000,0.000000,0.000000,0.000000,0.000000,2.30468496,0.14142878,0.03752866,0.05654017,0.01796282,1.53121624,0.00000000,0.52000829,0.01010206,0.01876433,0.02261607,0.03592564,2.60004143,0.00000000,2.55202707
6.400,3,1,1,-531.466,191.485,49.488,21.547,-1.719,2.192,-19.356,-6.804,nan,0.925142,1.889970,-0.415522,2.128153,2.363623,4.876805,-2.399606,3.389801,3.265371,46.216900,-55.584145,100.000000,-9.367245,nan,0.000000,0.000000,0.000000,0.000000,0.000000,0.000000,0.000000,0.000000,0.000000,0.000000,0.000000,0.000000,2.32466879,0.14295024,0.03897586,0.05655331,0.01805041,1.53805523,0.00000000,0.53008373,0.01021073,0.01948793,0.02262132,0.03610083,2.65041867,0.00000000,2.56342539
6.500,3,1,1,-531.442,191.520,49.466,20.784,-1.761,2.030,-18.754,-7.305,nan,0.894406,1.837164,-0.564431,2.141284,2.355940,4.594838,-2.879603,3.464961,3.291501,46.070488,-55.139640,100.000000,-9.069152,nan,0.000000,0.000000,0.000000,0.000000,0.000000,0.000000,0.000000,0.000000,0.000000,0.000000,0.000000,0.000000,2.34405724,0.14438976,0.04026222,0.05657757,0.01817672,1.54448411,0.00000000,0.54016686,0.01031355,0.02013111,0.02263103,0.03635344,2.70083431,0.00000000,2.57414018
6.621,3,1,1,-531.442,191.520,49.466,20.784,-1.761,2.030,-18.754,-7.305,nan,0.894406,1.837164,-0.564431,2.148176,2.346953,4.594838,-2.879603,3.535415,3.321701,45.865719,-55.139640,100.000000,-9.273921,nan,0.000000,0.000000,0.000000,0.000000,0.000000,0.000000,0.000000,0.000000,0.000000,0.000000,0.000000,0.000000,2.36749594,0.14612965,0.04181700,0.05660690,0.01832938,1.55225447,0.00000000,0.55235853,0.01043783,0.02090850,0.02264276,0.03665877,2.76179267,0.00000000,2.58709079
6.700,3,1,1,-531.398,191.591,49.423,19.263,-1.845,1.708,-17.555,-6.890,nan,0.789231,1.684425,-0.848993,2.138062,2.339795,3.863152,-3.951068,3.543769,3.329048,45.938471,-54.500765,100.000000,-8.562294,nan,0.000000,0.000000,0.000000,0.000000,0.000000,0.000000,0.000000,0.000000,0.000000,0.000000,0.000000,0.000000,2.38183161,0.14708705,0.04253641,0.05665033,0.01851752,1.55671138,0.00000000,0.56032893,0.01050622,0.02126820,0.02266013,0.03703503,2.80164464,0.00000000,2.59451897
6.800,3,1,1,-531.376,191.626,49.403,18.505,-1.886,1.547,-16.958,-6.532,nan,0.806026,1.589118,-0.933621,2.132607,2.329927,3.424013,-4.285237,3.574872,3.330552,46.104284,-54.208798,100.000000,-8.104514,nan,0.000000,0.000000,0.000000,0.000000,0.000000,0.000000,0.000000,0.000000,0.000000,0.000000,0.000000,0.000000,2.39928974,0.14816395,0.04325063,0.05671670,0.01879719,1.56196717,0.00000000,0.57039410,0.01058314,0.02162531,0.02268668,0.03759438,2.85197051,0.00000000,2.60327862
6.900,3,1,1,-531.355,191.661,49.383,17.839,-1.927,1.402,-16.438,-6.489,nan,0.809569,1.497213,-1.122680,2.114577,2.319367,3.003813,-5.124992,3.620707,3.325762,46.188655,-53.907484,100.000000,-7.718829,nan,0.000000,0.000000,0.000000,0.000000,0.000000,0.000000,0.000000,0.000000,0.000000,0.000000,0.000000,0.000000,2.41631337,0.14912128,0.04380111,0.05681283,0.01919780,1.56691255,0.00000000,0.58046782,0.01065152,0.02190055,0.02272513,0.03839560,2.90233909,0.00000000,2.61152092
7.000,3,1,1,-531.333,191.695,49.363,17.085,-1.968,1.241,-15.843,-7.334,nan,0.790690,1.385267,-1.145780,2.079699,2.308045,2.494528,-5.200435,3.615382,3.314732,46.343789,-53.407267,99.751056,-7.063478,nan,0.000000,0.000000,0.000000,0.000000,0.000000,0.000000,0.000000,0.000000,0.000000,0.000000,0.000000,0.000000,2.43259724,0.14993897,0.04417990,0.05691272,0.01960937,1.57149655,0.00000000,0.59045973,0.01070993,0.02208995,0.02276509,0.03921874,2.95229863,0.00000000,2.61916092
7.126,3,1,1,-531.333,191.695,49.363,17.085,-1.968,1.241,-15.843,-7.334,nan,0.790690,1.385267,-1.145780,2.036682,2.294208,2.494528,-5.200435,3.604115,3.301275,46.576440,-53.407267,99.983707,-6.830827,nan,0.000000,0.000000,0.000000,0.000000,0.000000,0.000000,0.000000,0.000000,0.000000,0.000000,0.000000,0.000000,2.45313300,0.15096744,0.04465634,0.05703836,0.02012704,1.57726219,0.00000000,0.60308163,0.01078339,0.02232817,0.02281535,0.04025407,3.01540813,0.00000000,2.62877032
7.200,3,1,1,-531.290,191.764,49.321,15.582,-2.050,0.922,-14.660,-7.234,nan,3.841375,1.143304,-1.163055,1.982642,2.284771,1.405628,-5.200626,3.572740,3.286482,47.101110,-52.722479,99.823589,-5.621370,nan,0.000000,0.000000,0.000000,0.000000,0.000000,0.000000,0.000000,0.000000,0.000000,0.000000,0.000000,0.000000,2.46436036,0.15138145,0.04474574,0.05711487,0.02043298,1.58017953,0.00000000,0.61050579,0.01081296,0.02237287,0.02284595,0.04086596,3.05252894,0.00000000,2.63363255
7.300,3,1,1,-531.267,191.799,49.300,14.834,-2.091,0.763,-14.071,-6.245,nan,2.515510,1.016540,-1.186267,1.920694,2.271456,0.842657,-5.257575,3.532393,3.264160,47.617719,-52.545519,100.000000,-4.927800,nan,0.000000,0.000000,0.000000,0.000000,0.000000,0.000000,0.000000,0.000000,0.000000,0.000000,0.000000,0.000000,2.47901336,0.15182207,0.04478899,0.05722202,0.02085393,1.58379785,0.00000000,0.62052850,0.01084443,0.02239449,0.02288881,0.04170785,3.10264250,0.00000000,2.63966309
7.400,3,1,1,-531.244,191.833,49.278,14.089,-2.132,0.604,-13.485,-6.431,nan,1.778356,0.888544,-1.255859,1.902195,2.257673,0.278445,-5.517945,3.489320,3.240934,48.203218,-52.164850,100.000000,-3.961632,nan,0.000000,0.000000,0.000000,0.000000,0.000000,0.000000,0.000000,0.000000,0.000000,0.000000,0.000000,0.000000,2.49327635,0.15215874,0.04479371,0.05734212,0.02131763,1.58712097,0.00000000,0.63054319,0.01086848,0.02239686,0.02293685,0.04263525,3.15271594,0.00000000,2.64520162
7.500,3,1,1,-531.219,191.867,49.254,13.347,-2.173,0.446,-12.900,-6.260,nan,1.359819,0.760430,-1.232951,1.836121,2.243532,-0.278734,-5.325335,3.446774,3.218198,48.512691,-51.848030,100.000000,-3.335339,nan,0.000000,0.000000,0.000000,0.000000,0.000000,0.000000,0.000000,0.000000,0.000000,0.000000,0.000000,0.000000,2.50712893,0.15240536,0.04479845,0.05745789,0.02174958,1.59016281,0.00000000,0.64055485,0.01088610,0.02239922,0.02298316,0.04349917,3.20277425,0.00000000,2.65027135
7.600,3,1,1,-531.193,191.902,49.230,12.666,-2.214,0.299,-12.368,-6.303,nan,1.133330,0.643188,-2.016942,1.707220,2.229183,-0.778173,-8.503942,3.396328,3.197081,49.124012,-51.524262,100.000000,-2.400250,nan,0.000000,0.000000,0.000000,0.000000,0.000000,0.000000,0.000000,0.000000,0.000000,0.000000,0.000000,0.000000,2.52155887,0.15258183,0.04483535,0.05776778,0.02285134,1.59295919,0.00000000,0.65056339,0.01089870,0.02241767,0.02310711,0.04570268,3.25281695,0.00000000,2.65493198
7.719,3,1,1,-531.193,191.902,49.230,12.459,-2.214,0.264,-12.196,-7.721,nan,1.133330,0.607622,-0.278785,1.632400,2.212295,-0.926700,-1.164255,3.353585,3.173115,50.092009,-51.174816,100.000000,-1.082807,nan,0.000000,0.000000,0.000000,0.000000,0.000000,0.000000,0.000000,0.000000,0.000000,0.000000,0.000000,0.000000,2.53702165,0.15276975,0.04489779,0.05777484,0.02287598,1.59620367,0.00000000,0.66249962,0.01091212,0.02244890,0.02310994,0.04575196,3.31249811,0.00000000,2.66033946
7.800,3,1,1,-531.138,191.969,49.177,11.196,-2.295,-0.015,-11.211,-6.489,nan,1.363519,0.391888,-1.914465,1.558831,2.200583,-1.791255,-7.385176,3.323333,3.161309,50.862726,-50.805225,100.000000,0.057501,nan,0.000000,0.000000,0.000000,0.000000,0.000000,0.000000,0.000000,0.000000,0.000000,0.000000,0.000000,0.000000,2.54804767,0.15282258,0.04505548,0.05800001,0.02354611,1.59805683,0.00000000,0.67056665,0.01091590,0.02252774,0.02320000,0.04709222,3.35283327,0.00000000,2.66342805
7.900,3,1,1,-531.108,192.003,49.149,10.466,-2.335,-0.171,-10.637,-7.420,nan,1.162864,0.268504,-1.624964,1.540274,2.186081,-2.246814,-5.885441,3.301256,3.150860,51.522779,-50.302112,100.000000,1.220668,nan,0.000000,0.000000,0.000000,0.000000,0.000000,0.000000,0.000000,0.000000,0.000000,0.000000,0.000000,0.000000,2.56118629,0.15285333,0.04536309,0.05820112,0.02407377,1.60012525,0.00000000,0.68056973,0.01091810,0.02268154,0.02328045,0.04814754,3.40284866,0.00000000,2.66687541
8.000,3,1,1,-531.077,192.036,49.119,9.741,-2.376,-0.326,-10.067,-7.678,nan,1.052058,0.149927,-1.496538,1.416266,2.171720,-2.659853,-5.089236,3.295107,3.144897,51.805106,-49.918488,100.000000,1.886619,nan,0.000000,0.000000,0.000000,0.000000,0.000000,0.000000,0.000000,0.000000,0.000000,0.000000,0.000000,0.000000,2.57404759,0.15286292,0.04579410,0.05837168,0.02446825,1.60197748,0.00000000,0.69057316,0.01091878,0.02289705,0.02334867,0.04893650,3.45286581,0.00000000,2.66996246
8.100,3,1,1,-531.043,192.069,49.087,9.020,-2.416,-0.481,-9.500,-6.202,nan,1.009478,0.037212,-1.117858,1.359653,2.157568,-3.024643,-3.456243,3.305338,3.143364,52.761508,-49.839414,100.000000,2.922094,nan,0.000000,0.000000,0.000000,0.000000,0.000000,0.000000,0.000000,0.000000,0.000000,0.000000,0.000000,0.000000,2.58654771,0.15286351,0.04635177,0.05846690,0.02465029,1.60362793,0.00000000,0.70058731,0.01091882,0.02317589,0.02338676,0.04930059,3.50293653,0.00000000,2.67271322
8.221,3,1,1,-531.043,192.069,49.087,9.020,-2.416,-0.481,-9.500,-6.202,nan,1.009478,0.037212,-1.117858,1.312521,2.140802,-3.024643,-3.456243,3.322580,3.141560,53.119853,-49.839414,100.000000,3.280440,nan,0.000000,0.000000,0.000000,0.000000,0.000000,0.000000,0.000000,0.000000,0.000000,0.000000,0.000000,0.000000,2.60168095,0.15286422,0.04702679,0.05858215,0.02487064,1.60562569,0.00000000,0.71271144,0.01091887,0.02351340,0.02343286,0.04974129,3.56355722,0.00000000,2.67604282
8.300,3,1,1,-530.972,192.134,49.018,7.591,-2.495,-0.786,-8.377,-6.603,nan,1.439446,-0.181833,-1.165114,1.275755,2.130176,-3.590949,-2.455687,3.360133,3.146359,53.643837,-49.102725,100.000000,4.541113,nan,0.000000,0.000000,0.000000,0.000000,0.000000,0.000000,0.000000,0.000000,0.000000,0.000000,0.000000,0.000000,2.61137173,0.15287533,0.04764583,0.05866361,0.02494302,1.60663643,0.00000000,0.72060751,0.01091967,0.02382292,0.02346544,0.04988604,3.60303754,0.00000000,2.67772738
8.400,3,1,1,-530.933,192.166,48.981,6.884,-2.535,-0.938,-7.822,-7.148,nan,1.251713,-0.289284,-1.079253,1.260911,2.117072,-3.785882,-1.718456,3.371157,3.155151,53.939390,-48.677669,100.000000,5.261721,nan,0.000000,0.000000,0.000000,0.000000,0.000000,0.000000,0.000000,0.000000,0.000000,0.000000,0.000000,0.000000,2.62355672,0.15291101,0.04851880,0.05875229,0.02498798,1.60775427,0.00000000,0.73063237,0.01092222,0.02425940,0.02350092,0.04997597,3.65316184,0.00000000,2.67959045
8.500,3,1,1,-530.893,192.198,48.943,6.181,-2.574,-1.089,-7.270,-5.773,nan,1.150300,-0.391828,-1.014882,1.221577,2.104407,-3.919404,-1.080802,3.456876,3.165717,54.137530,-48.589859,100.000000,5.547671,nan,0.000000,0.000000,0.000000,0.000000,0.000000,0.000000,0.000000,0.000000,0.000000,0.000000,0.000000,0.000000,2.63565715,0.15297652,0.04945516,0.05883077,0.02500579,1.60872069,0.00000000,0.74066822,0.01092689,0.02472758,0.02353231,0.05001157,3.70334111,0.00000000,2.68120115
8.600,3,1,1,-530.851,192.229,48.902,5.483,-2.613,-1.238,-6.722,-7.004,nan,1.118895,-0.488253,-0.950172,1.213207,2.092227,-3.990420,-0.437762,3.513925,3.177067,54.357436,-48.049162,100.000000,6.308273,nan,0.000000,0.000000,0.000000,0.000000,0.000000,0.000000,0.000000,0.000000,0.000000,0.000000,0.000000,0.000000,2.64766978,0.15307822,0.05042557,0.05889954,0.02500871,1.60954668,0.00000000,0.75071106,0.01093416,0.02521278,0.02355982,0.05001741,3.75355532,0.00000000,2.68257781
8.700,3,1,1,-530.808,192.260,48.860,4.790,-2.651,-1.387,-6.177,-6.460,nan,1.097997,-0.580815,-0.923507,1.211548,2.080563,-3.998724,0.193249,3.569685,3.188226,54.422873,-47.820549,100.000000,6.602324,nan,0.000000,0.000000,0.000000,0.000000,0.000000,0.000000,0.000000,0.000000,0.000000,0.000000,0.000000,0.000000,2.65959254,0.15322206,0.05139958,0.05896448,0.02500927,1.61024393,0.00000000,0.76075322,0.01094443,0.02569979,0.02358579,0.05001855,3.80376608,0.00000000,2.68373988
8.821,3,1,1,-530.808,192.260,48.860,4.790,-2.651,-1.387,-6.177,-6.460,nan,1.097997,-0.580815,-0.923507,1.213465,2.066758,-3.998724,0.193249,3.621738,3.201303,54.327442,-47.820549,100.000000,6.506894,nan,0.000000,0.000000,0.000000,0.000000,0.000000,0.000000,0.000000,0.000000,0.000000,0.000000,0.000000,0.000000,2.67399489,0.15339584,0.05257628,0.05904293,0.02500996,1.61108627,0.00000000,0.77288360,0.01095685,0.02628814,0.02361717,0.05001992,3.86441799,0.00000000,2.68514378
8.900,3,1,1,-530.715,192.320,48.771,3.417,-2.726,-1.681,-5.098,-6.833,nan,1.359944,-0.759700,-0.693711,1.204433,2.058421,-3.831454,1.116575,3.626997,3.207740,54.448257,-47.114278,100.000000,7.333979,nan,0.000000,0.000000,0.000000,0.000000,0.000000,0.000000,0.000000,0.000000,0.000000,0.000000,0.000000,0.000000,2.68327244,0.15359060,0.05328396,0.05907193,0.02502499,1.61146212,0.00000000,0.78083884,0.01097076,0.02664198,0.02362877,0.05004997,3.90419419,0.00000000,2.68577021
9.000,3,1,1,-530.667,192.349,48.723,2.736,-2.763,-1.827,-4.563,-6.245,nan,1.260945,-0.843582,-0.672725,1.224665,2.048416,-3.660688,1.617017,3.698625,3.213387,54.614393,-46.898705,100.000000,7.715688,nan,0.000000,0.000000,0.000000,0.000000,0.000000,0.000000,0.000000,0.000000,0.000000,0.000000,0.000000,0.000000,2.69493444,0.15389481,0.05410232,0.05910648,0.02506491,1.61184358,0.00000000,0.79092235,0.01099249,0.02705116,0.02364259,0.05012981,3.95461173,0.00000000,2.68640596
9.100,3,1,1,-530.616,192.377,48.674,2.141,-2.799,-1.957,-4.098,-6.718,nan,1.235683,-0.912160,-0.822114,1.230697,2.038969,-3.466154,2.631850,3.715132,3.216401,54.440957,-46.539708,100.000000,7.901249,nan,0.000000,0.000000,0.000000,0.000000,0.000000,0.000000,0.000000,0.000000,0.000000,0.000000,0.000000,0.000000,2.70653098,0.15424913,0.05483322,0.05915788,0.02517025,1.61215009,0.00000000,0.80097041,0.01101780,0.02741661,0.02366315,0.05034051,4.00485204,0.00000000,2.68691681
9.200,3,1,1,-530.564,192.405,48.624,1.467,-2.835,-2.101,-3.568,-6.288,nan,1.226847,-0.984086,-0.801685,1.234848,2.030060,-3.198357,3.342320,3.715658,3.216196,54.482588,-46.299456,100.000000,8.183132,nan,0.000000,0.000000,0.000000,0.000000,0.000000,0.000000,0.000000,0.000000,0.000000,0.000000,0.000000,0.000000,2.71808974,0.15466227,0.05545664,0.05920684,0.02534046,1.61238286,0.00000000,0.81104067,0.01104730,0.02772832,0.02368273,0.05068091,4.05520335,0.00000000,2.68730477
9.321,3,1,1,-530.564,192.405,48.624,1.467,-2.835,-2.101,-3.568,-6.288,nan,1.226847,-0.984086,-0.801685,1.234854,2.019542,-3.198357,3.342320,3.705427,3.215956,54.453664,-46.299456,100.000000,8.154208,nan,0.000000,0.000000,0.000000,0.000000,0.000000,0.000000,0.000000,0.000000,0.000000,0.000000,0.000000,0.000000,2.73201586,0.15516004,0.05620778,0.05926583,0.02554552,1.61266332,0.00000000,0.82317337,0.01108286,0.02810389,0.02370633,0.05109105,4.11586686,0.00000000,2.68777220
9.400,3,1,1,-530.455,192.458,48.518,0.129,-2.904,-2.386,-2.515,-6.088,nan,1.461701,-1.113749,-0.609129,1.232950,2.013331,-2.530601,3.767979,3.671099,3.210548,54.699540,-45.707668,100.000000,8.991872,nan,0.000000,0.000000,0.000000,0.000000,0.000000,0.000000,0.000000,0.000000,0.000000,0.000000,0.000000,0.000000,2.74103809,0.15558017,0.05651764,0.05928827,0.02571726,1.61275514,0.00000000,0.83117960,0.01111287,0.02825882,0.02371531,0.05143453,4.15589802,0.00000000,2.68792523
9.500,3,1,1,-530.399,192.484,48.463,-0.535,-2.937,-2.526,-1.992,-6.131,nan,1.375974,-1.170255,-0.555192,1.231459,2.005990,-2.140685,4.092765,3.641432,3.200731,54.891382,-45.388413,100.000000,9.502969,nan,0.000000,0.000000,0.000000,0.000000,0.000000,0.000000,0.000000,0.000000,0.000000,0.000000,0.000000,0.000000,2.75234746,0.15616446,0.05679694,0.05931175,0.02597250,1.61282767,0.00000000,0.84127414,0.01115460,0.02839847,0.02372470,0.05194500,4.20637068,0.00000000,2.68804612
9.600,3,1,1,-530.341,192.508,48.406,-1.196,-2.970,-2.666,-1.470,-5.429,nan,1.326125,-1.218151,-0.451023,1.223355,1.999097,-1.721229,4.513628,3.561969,3.188344,55.071326,-45.200103,100.000000,9.871223,nan,0.000000,0.000000,0.000000,0.000000,0.000000,0.000000,0.000000,0.000000,0.000000,0.000000,0.000000,0.000000,2.76362210,0.15679721,0.05697741,0.05932724,0.02628276,1.61286717,0.00000000,0.85137032,0.01119980,0.02848870,0.02373090,0.05256551,4.25685158,0.00000000,2.68811194
9.700,3,1,1,-530.281,192.532,48.348,-1.855,-3.001,-2.805,-0.950,-5.056,nan,1.305071,-1.256637,-0.368375,1.224178,1.992585,-1.278497,4.541466,3.523924,3.173925,55.393272,-44.955158,100.000000,10.438114,nan,0.000000,0.000000,0.000000,0.000000,0.000000,0.000000,0.000000,0.000000,0.000000,0.000000,0.000000,0.000000,2.77484566,0.15747069,0.05707700,0.05933758,0.02659691,1.61288367,0.00000000,0.86147982,0.01124791,0.02853850,0.02373503,0.05319382,4.30739908,0.00000000,2.68813945
9.800,3,1,1,-530.221,192.554,48.289,-2.510,-3.032,-2.942,-0.432,-5.099,nan,1.300169,-1.285882,-0.258692,1.212802,1.986393,-0.819014,4.631818,3.438527,3.158133,55.573947,-44.638445,100.000000,10.935502,nan,0.000000,0.000000,0.000000,0.000000,0.000000,0.000000,0.000000,0.000000,0.000000,0.000000,0.000000,0.000000,2.78604242,0.15817559,0.05711785,0.05934267,0.02692355,1.61288708,0.00000000,0.87159568,0.01129826,0.02855892,0.02373707,0.05384710,4.35797841,0.00000000,2.68814514
9.921,3,1,1,-530.221,192.554,48.289,-2.510,-3.032,-2.942,-0.432,-5.099,nan,1.300169,-1.285882,-0.258692,1.176534,1.979067,-0.819014,4.631818,3.279834,3.139410,55.818801,-44.638445,100.000000,11.180356,nan,0.000000,0.000000,0.000000,0.000000,0.000000,0.000000,0.000000,0.000000,0.000000,0.000000,0.000000,0.000000,2.79956459,0.15902647,0.05716716,0.05934882,0.02731784,1.61289120,0.00000000,0.88381310,0.01135903,0.02858358,0.02373953,0.05463567,4.41906552,0.00000000,2.68815200
10.000,3,1,1,-530.097,192.596,48.167,-3.814,-3.090,-3.214,0.600,-5.658,nan,1.520774,-1.318454,-0.061907,1.180198,1.974512,0.123719,4.590714,3.239647,3.126427,56.342825,-43.906202,100.000000,12.436622,nan,0.000000,0.000000,0.000000,0.000000,0.000000,0.000000,0.000000,0.000000,0.000000,0.000000,0.000000,0.000000,2.80847304,0.15961482,0.05716790,0.05934905,0.02757258,1.61289641,0.00000000,0.89187227,0.01140106,0.02858395,0.02373962,0.05514517,4.45936134,0.00000000,2.68816069
10.100,3,1,1,-530.034,192.615,48.105,-4.461,-3.117,-3.348,1.113,-7.305,nan,1.440086,-1.318648,0.036642,1.136564,1.968867,0.593981,4.835887,3.057627,3.110859,56.283427,-43.268208,99.551635,13.015218,nan,0.000000,0.000000,0.000000,0.000000,0.000000,0.000000,0.000000,0.000000,0.000000,0.000000,0.000000,0.000000,2.81969167,0.16035615,0.05718939,0.05934915,0.02792867,1.61291905,0.00000000,0.90194925,0.01145401,0.02859469,0.02373966,0.05585733,4.50974627,0.00000000,2.68819842
10.200,3,1,1,-529.970,192.633,48.042,-5.105,-3.142,-3.481,1.625,-6.374,nan,1.365240,-1.306085,0.125445,1.140998,1.963234,1.055252,3.040317,3.024602,3.096782,56.828947,-43.060885,99.889832,13.768061,nan,0.000000,0.000000,0.000000,0.000000,0.000000,0.000000,0.000000,0.000000,0.000000,0.000000,0.000000,0.000000,2.83084390,0.16108358,0.05725723,0.05935035,0.02806944,1.61296730,0.00000000,0.91211599,0.01150597,0.02862861,0.02374014,0.05613888,4.56057994,0.00000000,2.68827884
10.300,3,1,1,-529.905,192.650,47.979,-5.746,-3.167,-3.612,2.135,-5.529,nan,1.342799,-1.281456,0.195745,1.118111,1.957533,1.501906,3.109030,2.920690,3.084793,56.749567,-42.819224,99.568792,13.930343,nan,0.000000,0.000000,0.000000,0.000000,0.000000,0.000000,0.000000,0.000000,0.000000,0.000000,0.000000,0.000000,2.84202773,0.16178419,0.05739471,0.05935327,0.02821673,1.61305062,0.00000000,0.92222822,0.01155601,0.02869735,0.02374131,0.05643345,4.61114109,0.00000000,2.68841770
10.429,3,1,1,-529.905,192.650,47.979,-5.746,-3.167,-3.612,2.135,-5.529,nan,1.342799,-1.281456,0.195745,1.067975,1.950338,1.501906,3.109030,2.748817,3.069646,57.112193,-42.711898,99.824091,14.400295,nan,0.000000,0.000000,0.000000,0.000000,0.000000,0.000000,0.000000,0.000000,0.000000,0.000000,0.000000,0.000000,2.85650503,0.16268593,0.05757166,0.05935703,0.02840629,1.61315786,0.00000000,0.93532626,0.01162042,0.02878583,0.02374281,0.05681259,4.67663130,0.00000000,2.68859643
10.500,3,1,1,-529.807,192.674,47.882,-6.968,-3.201,-3.852,3.116,-5.343,nan,1.531327,-1.201490,0.525085,1.045122,1.946067,2.299640,4.076446,2.675891,3.064895,57.578000,-42.066949,99.644949,15.511051,nan,0.000000,0.000000,0.000000,0.000000,0.000000,0.000000,0.000000,0.000000,0.000000,0.000000,0.000000,0.000000,2.86473639,0.16312433,0.05780110,0.05937198,0.02858653,1.61328421,0.00000000,0.94256825,0.01165174,0.02890055,0.02374879,0.05717306,4.71284123,0.00000000,2.68880701
10.600,3,1,1,-529.743,192.688,47.818,-7.524,-3.223,-3.966,3.557,-5.672,nan,1.358054,-1.149858,0.877003,1.047801,1.939855,2.631415,5.175041,2.674815,3.060947,57.780564,-41.603197,99.383761,16.177366,nan,0.000000,0.000000,0.000000,0.000000,0.000000,0.000000,0.000000,0.000000,0.000000,0.000000,0.000000,0.000000,2.87654660,0.16368761,0.05822252,0.05943049,0.02899401,1.61351523,0.00000000,0.95269673,0.01169197,0.02911126,0.02377220,0.05798802,4.76348366,0.00000000,2.68919205
10.700,3,1,1,-529.678,192.701,47.755,-8.101,-3.242,-4.084,4.018,-4.498,nan,1.328930,-1.084931,0.727955,0.999725,1.933368,2.950994,3.120807,2.578817,3.059898,57.659064,-41.370469,99.029532,16.288595,nan,0.000000,0.000000,0.000000,0.000000,0.000000,0.000000,0.000000,0.000000,0.000000,0.000000,0.000000,0.000000,2.88814288,0.16418993,0.05875342,0.05947088,0.02914245,1.61381047,0.00000000,0.96277572,0.01172785,0.02937671,0.02378835,0.05828490,4.81387861,0.00000000,2.68968411
10.800,3,1,1,-529.614,192.713,47.691,-8.726,-3.261,-4.208,4.518,-5.558,nan,1.322521,-1.001472,0.802959,0.980506,1.926553,3.263776,2.668751,2.573617,3.061923,58.068564,-40.702196,98.770760,17.366368,nan,0.000000,0.000000,0.000000,0.000000,0.000000,0.000000,0.000000,0.000000,0.000000,0.000000,0.000000,0.000000,2.89981143,0.16461780,0.05940262,0.05951999,0.02925097,1.61418362,0.00000000,0.97283643,0.01175841,0.02970131,0.02380800,0.05850193,4.86418215,0.00000000,2.69030604
10.900,3,1,1,-529.550,192.723,47.628,-9.346,-3.278,-4.331,5.015,-5.142,nan,1.293015,-0.906517,0.952788,0.978768,1.919402,3.537749,2.480520,2.601388,3.066799,58.098164,-40.270660,98.368824,17.827504,nan,0.000000,0.000000,0.000000,0.000000,0.000000,0.000000,0.000000,0.000000,0.000000,0.000000,0.000000,0.000000,2.91153166,0.16496797,0.06016450,0.05958907,0.02934460,1.61464293,0.00000000,0.98282258,0.01178343,0.03008225,0.02383563,0.05868921,4.91411291,0.00000000,2.69107155
11.032,3,1,1,-529.550,192.723,47.628,-9.346,-3.278,-4.331,5.015,-5.142,nan,1.293015,-0.906517,0.952788,0.947874,1.910115,3.537749,2.480520,2.620716,3.073094,58.055413,-40.005566,98.060979,18.049847,nan,0.000000,0.000000,0.000000,0.000000,0.000000,0.000000,0.000000,0.000000,0.000000,0.000000,0.000000,0.000000,2.92695851,0.16543097,0.06117184,0.05968040,0.02946841,1.61525022,0.00000000,0.99595667,0.01181650,0.03058592,0.02387216,0.05893682,4.97978337,0.00000000,2.69208370
11.100,3,1,1,-529.425,192.742,47.504,-10.500,-3.309,-4.559,5.940,-5.243,nan,1.127062,-0.700059,1.199866,0.942605,1.904854,3.940036,1.796815,2.660689,3.079373,58.018085,-39.250949,97.269034,18.767136,nan,0.000000,0.000000,0.000000,0.000000,0.000000,0.000000,0.000000,0.000000,0.000000,0.000000,0.000000,0.000000,2.93496173,0.16557306,0.06181482,0.05975494,0.02950184,1.61568869,0.00000000,1.00262838,0.01182665,0.03090741,0.02390198,0.05900369,5.01314190,0.00000000,2.69281448
11.200,3,1,1,-529.363,192.750,47.443,-11.106,-3.322,-4.678,6.429,-5.500,nan,1.178140,-0.575675,0.936040,0.915614,1.896824,4.091436,0.948548,2.733090,3.090265,57.862798,-38.636136,96.498934,19.226662,nan,0.000000,0.000000,0.000000,0.000000,0.000000,0.000000,0.000000,0.000000,0.000000,0.000000,0.000000,0.000000,2.94664076,0.16571439,0.06283470,0.05982167,0.02951555,1.61644410,0.00000000,1.01231035,0.01183674,0.03141735,0.02392867,0.05903109,5.06155176,0.00000000,2.69407350
11.300,3,1,1,-529.302,192.757,47.382,-11.708,-3.335,-4.794,6.914,-5.887,nan,1.192595,-0.442186,0.986473,0.904104,1.888580,4.198408,0.632456,2.809394,3.102228,57.793723,-37.973031,95.766754,19.820692,nan,0.000000,0.000000,0.000000,0.000000,0.000000,0.000000,0.000000,0.000000,0.000000,0.000000,0.000000,0.000000,2.95831297,0.16579776,0.06390830,0.05989576,0.02952164,1.61731748,0.00000000,1.02187204,0.01184270,0.03195415,0.02395830,0.05904328,5.10936021,0.00000000,2.69552913
11.400,3,1,1,-529.242,192.763,47.323,-12.303,-3.347,-4.909,7.394,-5.687,nan,1.197771,-0.300923,1.103481,0.894388,1.880195,4.260783,0.322532,2.888705,3.114701,57.611036,-37.383901,94.994938,20.227135,nan,0.000000,0.000000,0.000000,0.000000,0.000000,0.000000,0.000000,0.000000,0.000000,0.000000,0.000000,0.000000,2.96998392,0.16583637,0.06501428,0.05998848,0.02952322,1.61831669,0.00000000,1.03130487,0.01184546,0.03250714,0.02399539,0.05904644,5.15652436,0.00000000,2.69719448
11.523,3,1,1,-529.242,192.763,47.323,-12.303,-3.347,-4.909,7.394,-5.687,nan,1.197771,-0.300923,1.103481,0.887546,1.870050,4.260783,0.322532,2.965894,3.129653,57.520732,-36.993511,94.514243,20.527221,nan,0.000000,0.000000,0.000000,0.000000,0.000000,0.000000,0.000000,0.000000,0.000000,0.000000,0.000000,0.000000,2.98422542,0.16588382,0.06637304,0.06010240,0.02952517,1.61954426,0.00000000,1.04279673,0.01184884,0.03318652,0.02404096,0.05905034,5.21398365,0.00000000,2.69924044
11.600,3,1,1,-529.125,192.773,47.206,-13.477,-3.368,-5.135,8.342,-5.257,nan,2.108007,-0.004936,1.078824,0.876656,1.863605,4.253565,-0.320456,3.003875,3.138763,57.196878,-36.139899,93.336777,21.056979,nan,0.000000,0.000000,0.000000,0.000000,0.000000,0.000000,0.000000,0.000000,0.000000,0.000000,0.000000,0.000000,2.99318102,0.16588382,0.06722261,0.06017072,0.02952637,1.62052448,0.00000000,1.04985301,0.01184884,0.03361131,0.02406829,0.05905275,5.24926506,0.00000000,2.70087414
11.700,3,1,1,-529.068,192.778,47.150,-14.054,-3.377,-5.245,8.809,-5.629,nan,1.682810,0.147075,1.149410,0.871185,1.855391,4.186434,-0.655085,3.071802,3.149565,57.088379,-35.337205,92.425584,21.751174,nan,0.000000,0.000000,0.000000,0.000000,0.000000,0.000000,0.000000,0.000000,0.000000,0.000000,0.000000,0.000000,3.00480069,0.16589305,0.06829054,0.06027134,0.02953291,1.62194283,0.00000000,1.05887001,0.01184950,0.03414527,0.02410854,0.05906582,5.29435007,0.00000000,2.70323805
11.800,3,1,1,-529.011,192.781,47.094,-14.624,-3.386,-5.354,9.270,-5.085,nan,1.440593,0.299812,1.087648,0.867266,1.847449,4.079651,-0.885885,3.133841,3.158913,56.885579,-34.640811,91.526390,22.244768,nan,0.000000,0.000000,0.000000,0.000000,0.000000,0.000000,0.000000,0.000000,0.000000,0.000000,0.000000,0.000000,3.01639661,0.16593138,0.06930444,0.06036143,0.02954486,1.62351332,0.00000000,1.06774119,0.01185224,0.03465222,0.02414457,0.05908973,5.33870593,0.00000000,2.70585553
11.900,3,1,1,-528.956,192.785,47.038,-15.188,-3.394,-5.462,9.726,-4.598,nan,1.295006,0.450949,0.943474,0.867965,1.839880,3.935667,-0.995764,3.181273,3.166489,56.685411,-33.867510,90.552921,22.817902,nan,0.000000,0.000000,0.000000,0.000000,0.000000,0.000000,0.000000,0.000000,0.000000,0.000000,0.000000,0.000000,3.02795883,0.16601810,0.07024807,0.06042921,0.02955997,1.62524217,0.00000000,1.07646132,0.01185844,0.03512404,0.02417168,0.05911993,5.38230659,0.00000000,2.70873694
12.000,3,1,1,-528.901,192.788,46.984,-15.744,-3.402,-5.568,10.176,-5.730,nan,1.204786,0.597779,1.143629,0.871964,1.832771,3.757205,-1.538197,3.215848,3.172053,56.484611,-32.726863,89.211474,23.757748,nan,0.000000,0.000000,0.000000,0.000000,0.000000,0.000000,0.000000,0.000000,0.000000,0.000000,0.000000,0.000000,3.03952635,0.16617054,0.07110837,0.06052884,0.02959601,1.62713546,0.00000000,1.08498712,0.01186932,0.03555419,0.02421154,0.05919203,5.42493558,0.00000000,2.71189243
12.122,3,1,1,-528.901,192.788,46.984,-15.744,-3.402,-5.568,10.176,-5.730,nan,1.204786,0.597779,1.143629,0.887506,1.824239,3.757205,-1.538197,3.247699,3.178689,56.390196,-31.990851,88.381047,24.399345,nan,0.000000,0.000000,0.000000,0.000000,0.000000,0.000000,0.000000,0.000000,0.000000,0.000000,0.000000,0.000000,3.05347288,0.16635620,0.07215617,0.06065019,0.02963992,1.62944138,0.00000000,1.09522901,0.01188259,0.03607809,0.02426008,0.05927984,5.47614506,0.00000000,2.71573564
12.200,3,1,1,-528.793,192.794,46.877,-16.833,-3.416,-5.775,11.058,-5.572,nan,1.623363,0.870022,2.178278,0.887083,1.819567,3.308325,-4.267855,3.249191,3.179565,56.023699,-30.558845,86.582544,25.464854,nan,0.000000,0.000000,0.000000,0.000000,0.000000,0.000000,0.000000,0.000000,0.000000,0.000000,0.000000,0.000000,3.06285528,0.16660843,0.07267717,0.06093252,0.02985668,1.63118746,0.00000000,1.10159302,0.01190060,0.03633859,0.02437301,0.05971336,5.50796508,0.00000000,2.71864577
12.300,3,1,1,-528.740,192.796,46.824,-17.364,-3.423,-5.877,11.488,-5.314,nan,1.370881,0.991739,2.714310,0.900484,1.814185,3.044151,-6.652033,3.249636,3.178451,55.925665,-29.241127,85.166791,26.684538,nan,0.000000,0.000000,0.000000,0.000000,0.000000,0.000000,0.000000,0.000000,0.000000,0.000000,0.000000,0.000000,3.07545148,0.16702786,0.07324173,0.06149358,0.03053063,1.63359938,0.00000000,1.10955829,0.01193056,0.03662087,0.02459743,0.06106125,5.54779147,0.00000000,2.72266564
12.400,3,1,1,-528.688,192.798,46.771,-17.886,-3.430,-5.976,11.910,-6.045,nan,1.241160,1.101712,1.365453,0.916335,1.809407,2.758124,-3.889266,3.229731,3.175178,55.740099,-27.522849,83.262949,28.217250,nan,0.000000,0.000000,0.000000,0.000000,0.000000,0.000000,0.000000,0.000000,0.000000,0.000000,0.000000,0.000000,3.08712847,0.16754559,0.07370527,0.06163559,0.03076105,1.63619237,0.00000000,1.11728859,0.01196754,0.03685264,0.02465424,0.06152211,5.58644295,0.00000000,2.72698729
12.500,3,1,1,-528.635,192.800,46.719,-18.397,-3.436,-6.074,12.323,-3.882,nan,1.157998,1.197129,1.078285,0.934121,1.805198,2.453912,-3.713788,3.198195,3.169890,55.580016,-26.021548,81.601565,29.558468,nan,0.000000,0.000000,0.000000,0.000000,0.000000,0.000000,0.000000,0.000000,0.000000,0.000000,0.000000,0.000000,3.09871193,0.16815669,0.07407209,0.06172412,0.03097110,1.63896765,0.00000000,1.12482027,0.01201119,0.03703605,0.02468965,0.06194220,5.62410136,0.00000000,2.73161276
12.600,3,1,1,-528.583,192.802,46.667,-18.895,-3.442,-6.169,12.727,-4.541,nan,1.098028,1.276376,1.046753,0.953191,1.801495,2.135402,-4.764318,3.156738,3.162786,55.431893,-23.670557,79.102450,31.761336,nan,0.000000,0.000000,0.000000,0.000000,0.000000,0.000000,0.000000,0.000000,0.000000,0.000000,0.000000,0.000000,3.11033929,0.16885142,0.07434989,0.06180756,0.03131680,1.64192774,0.00000000,1.13208587,0.01206082,0.03717494,0.02472302,0.06263360,5.66042936,0.00000000,2.73654624
12.728,3,1,1,-528.583,192.802,46.667,-18.895,-3.442,-6.169,12.727,-4.541,nan,1.098028,1.276376,1.046753,0.978582,1.796849,2.135402,-4.764318,3.087116,3.153873,55.385647,-21.441840,76.827487,33.943807,nan,0.000000,0.000000,0.000000,0.000000,0.000000,0.000000,0.000000,0.000000,0.000000,0.000000,0.000000,0.000000,3.12489601,0.16973729,0.07470410,0.06191395,0.03175761,1.64570219,0.00000000,1.14108087,0.01212409,0.03735205,0.02476558,0.06351522,5.70540433,0.00000000,2.74283698
12.800,3,1,1,-528.479,192.804,46.563,-19.813,-3.453,-6.345,13.468,-4.383,nan,1.436192,1.378351,0.316667,0.990254,1.794686,1.498156,-2.838470,3.058199,3.146725,55.183110,-18.071440,73.254551,37.111670,nan,0.000000,0.000000,0.000000,0.000000,0.000000,0.000000,0.000000,0.000000,0.000000,0.000000,0.000000,0.000000,3.13297084,0.17032477,0.07480325,0.06191949,0.03184659,1.64810619,0.00000000,1.14597055,0.01216606,0.03740163,0.02476780,0.06369318,5.72985274,0.00000000,2.74684365
12.900,3,1,1,-528.427,192.805,46.511,-20.267,-3.457,-6.432,13.835,-3.581,nan,1.272427,1.403566,0.329023,1.015631,1.791896,1.160152,-6.152861,2.975450,3.135830,55.078165,-14.570038,69.648203,40.508126,nan,0.000000,0.000000,0.000000,0.000000,0.000000,0.000000,0.000000,0.000000,0.000000,0.000000,0.000000,0.000000,3.14446775,0.17116489,0.07488525,0.06192773,0.03242319,1.65160445,0.00000000,1.15246223,0.01222606,0.03744263,0.02477109,0.06484638,5.76231116,0.00000000,2.75267409
