t,controller_id,state_code,wp_idx,x,y,dist,yaw_deg,yaw_to_wp_deg,yaw_ref_deg,yaw_err_deg,yaw_rate_deg_s,speed_ref,speed_meas,roll_deg,roll_rate_deg_s,roll_rms_window_deg,roll_rms_total_deg,pitch_deg,pitch_rate_deg_s,pitch_rms_window_deg,pitch_rms_total_deg,base_cmd,diff_cmd,T_left,T_right,J_inst,J_goal,J_wave_roll,J_progress,J_smooth,J_mpc_distance,J_mpc_final,J_mpc_heading,J_mpc_wrong_way,J_mpc_pitch,J_mpc_control,J_mpc_slew,J_mpc_turn,J_total,J_roll,J_pitch,J_roll_rate,J_pitch_rate,J_goal_heading,J_no_progress,J_control,I_roll,I_pitch,I_roll_rate,I_pitch_rate,I_control,I_no_progress,I_goal_heading
0.500,3,1,1,-531.996,190.000,49.996,0.000,0.001,0.000,0.000,0.000,nan,0.000000,0.000000,0.000000,0.000000,0.000000,0.000000,0.000000,0.000000,0.000000,71.999879,0.001773,8.000000,8.000000,nan,0.000000,0.000000,0.000000,0.000000,0.000000,0.000000,0.000000,0.000000,0.000000,0.000000,0.000000,0.000000,0.00012807,0.00000000,0.00000000,0.00000000,0.00000000,0.00000000,0.00000000,0.00012807,0.00000000,0.00000000,0.00000000,0.00000000,0.00064035,0.00000000,0.00000000
0.800,3,1,1,-531.996,190.000,49.996,0.000,0.001,0.000,0.000,0.000,nan,0.000000,0.000000,0.000000,0.000000,0.000000,0.000000,0.000000,0.000000,0.000000,71.999879,0.002097,16.000000,16.000000,nan,0.000000,0.000000,0.000000,0.000000,0.000000,0.000000,0.000000,0.000000,0.000000,0.000000,0.000000,0.000000,0.00166404,0.00000000,0.00000000,0.00000000,0.00000000,0.00000000,0.00000000,0.00166404,0.00000000,0.00000000,0.00000000,0.00000000,0.00832021,0.00000000,0.00000000
0.900,3,1,1,-531.990,190.002,49.990,57.296,-0.002,9.549,-47.747,-1.332,nan,0.020803,0.237569,0.373339,0.137160,0.106235,0.829485,0.586244,0.478904,0.370927,58.630829,-55.942476,24.000000,8.000000,nan,0.000000,0.000000,0.000000,0.000000,0.000000,0.000000,0.000000,0.000000,0.000000,0.000000,0.000000,0.000000,0.04405003,0.00002407,0.00004191,0.00001061,0.00000523,0.04166421,0.00000000,0.00230399,0.00000172,0.00002096,0.00000425,0.00001047,0.01151995,0.00000000,0.06944035
1.000,3,1,1,-531.988,190.003,49.988,57.296,-0.003,9.549,-47.747,-0.000,nan,0.028025,0.292928,0.347552,0.188578,0.153959,0.907146,0.410758,0.614605,0.501779,56.904540,-58.016653,32.000000,0.000000,nan,0.000000,0.000000,0.000000,0.000000,0.000000,0.000000,0.000000,0.000000,0.000000,0.000000,0.000000,0.000000,0.08683285,0.00006065,0.00009204,0.00001981,0.00000780,0.08332474,0.00000000,0.00332780,0.00000433,0.00004602,0.00000792,0.00001561,0.01663899,0.00000000,0.13887456
1.100,3,1,1,-531.987,190.003,49.987,57.296,-0.003,9.549,-47.747,-0.344,nan,0.028393,0.334923,0.426472,0.225574,0.190640,0.941752,0.204482,0.692511,0.585256,56.342758,-59.798767,40.000000,-3.456009,nan,0.000000,0.000000,0.000000,0.000000,0.000000,0.000000,0.000000,0.000000,0.000000,0.000000,0.000000,0.000000,0.13023778,0.00010850,0.00014608,0.00003366,0.00000844,0.12500105,0.00000000,0.00494005,0.00000775,0.00007304,0.00001347,0.00001688,0.02470025,0.00000000,0.20833508
1.222,3,1,1,-531.987,190.003,49.987,57.296,-0.003,9.549,-47.747,-0.344,nan,0.028393,0.334923,0.426472,0.247182,0.218063,0.941752,0.204482,0.739905,0.650373,55.975523,-62.034883,48.000000,-6.059360,nan,0.000000,0.000000,0.000000,0.000000,0.000000,0.000000,0.000000,0.000000,0.000000,0.000000,0.000000,0.000000,0.18381248,0.00016658,0.00021169,0.00005048,0.00000921,0.17559250,0.00000000,0.00778202,0.00001190,0.00010584,0.00002019,0.00001843,0.03891009,0.00000000,0.29265416
1.300,3,1,1,-531.987,190.003,49.987,57.296,-0.003,9.549,-47.747,-0.344,nan,0.028393,0.334923,0.426472,0.261524,0.230634,0.941752,0.204482,0.771978,0.680793,55.758192,-63.481748,56.000000,-7.723556,nan,0.000000,0.000000,0.000000,0.000000,0.000000,0.000000,0.000000,0.000000,0.000000,0.000000,0.000000,0.000000,0.21914946,0.00020416,0.00025414,0.00006136,0.00000971,0.20832754,0.00000000,0.01029255,0.00001458,0.00012707,0.00002455,0.00001943,0.05146275,0.00000000,0.34721256
1.400,3,1,1,-531.987,190.003,49.987,57.296,-0.003,9.549,-47.747,-0.344,nan,0.028393,0.334923,0.426472,0.271785,0.243085,0.941752,0.204482,0.795185,0.711211,55.613056,-65.323445,64.000000,-9.710390,nan,0.000000,0.000000,0.000000,0.000000,0.000000,0.000000,0.000000,0.000000,0.000000,0.000000,0.000000,0.000000,0.26512422,0.00025200,0.00030817,0.00007521,0.00001035,0.24999567,0.00000000,0.01448282,0.00001800,0.00015408,0.00003009,0.00002070,0.07241408,0.00000000,0.41665945
1.500,3,1,1,-531.984,190.002,49.984,57.296,-0.003,9.550,-47.747,-0.587,nan,0.021226,0.465212,0.319096,0.299511,0.270908,1.003318,0.658848,0.820921,0.742525,55.509067,-67.121901,72.000000,-11.612833,nan,0.000000,0.000000,0.000000,0.000000,0.000000,0.000000,0.000000,0.000000,0.000000,0.000000,0.000000,0.000000,0.31227084,0.00034428,0.00036949,0.00008297,0.00001696,0.29165630,0.00000000,0.01980085,0.00002459,0.00018474,0.00003319,0.00003392,0.09900424,0.00000000,0.48609383
1.600,3,1,1,-531.984,190.003,49.984,57.266,-0.004,9.544,-47.722,-0.816,nan,0.022251,0.475359,0.067774,0.321454,0.293440,1.041183,0.226289,0.845533,0.771843,55.300040,-68.908352,80.000000,-13.608312,nan,0.000000,0.000000,0.000000,0.000000,0.000000,0.000000,0.000000,0.000000,0.000000,0.000000,0.000000,0.000000,0.36064983,0.00044066,0.00043554,0.00008332,0.00001774,0.33328575,0.00000000,0.02638683,0.00003148,0.00021777,0.00003333,0.00003548,0.13193413,0.00000000,0.55547625
1.700,3,1,1,-531.983,190.006,49.983,57.168,-0.007,9.525,-47.643,-1.862,nan,0.033656,0.482589,0.077131,0.339280,0.312086,1.042251,-0.161519,0.865266,0.795911,55.143055,-70.516361,88.000000,-15.373306,nan,0.000000,0.000000,0.000000,0.000000,0.000000,0.000000,0.000000,0.000000,0.000000,0.000000,0.000000,0.000000,0.41028055,0.00053998,0.00050172,0.00008377,0.00001814,0.37477013,0.00000000,0.03436682,0.00003857,0.00025086,0.00003351,0.00003628,0.17183412,0.00000000,0.62461688
1.820,3,1,1,-531.983,190.006,49.983,57.168,-0.007,9.525,-47.643,-1.862,nan,0.033656,0.482589,0.077131,0.353449,0.329845,1.042251,-0.161519,0.881374,0.819495,54.999121,-72.000000,96.000000,-17.000879,nan,0.000000,0.000000,0.000000,0.000000,0.000000,0.000000,0.000000,0.000000,0.000000,0.000000,0.000000,0.000000,0.47137690,0.00065859,0.00058076,0.00008431,0.00001861,0.42431615,0.00000000,0.04571848,0.00004704,0.00029038,0.00003372,0.00003723,0.22859240,0.00000000,0.70719359
1.900,3,1,1,-531.980,190.017,49.980,56.769,-0.019,9.449,-47.321,-3.151,nan,0.060630,0.485494,-0.106369,0.365305,0.340022,0.979570,-0.307223,0.889312,0.828880,54.968534,-72.000000,100.000000,-17.031466,nan,0.000000,0.000000,0.000000,0.000000,0.000000,0.000000,0.000000,0.000000,0.000000,0.000000,0.000000,0.000000,0.51277626,0.00073959,0.00062786,0.00008500,0.00001977,0.45729401,0.00000000,0.05401003,0.00005283,0.00031393,0.00003400,0.00003954,0.27005014,0.00000000,0.76215668
2.000,3,1,1,-531.978,190.026,49.978,56.471,-0.030,9.390,-47.081,-3.624,nan,0.111657,0.466218,-0.272750,0.373418,0.349247,0.958274,-0.144563,0.894414,0.837553,54.944733,-72.000000,100.000000,-17.055267,nan,0.000000,0.000000,0.000000,0.000000,0.000000,0.000000,0.000000,0.000000,0.000000,0.000000,0.000000,0.000000,0.56373054,0.00083228,0.00068380,0.00009067,0.00002009,0.49780353,0.00000000,0.06430017,0.00005945,0.00034190,0.00003627,0.00004018,0.32150083,0.00000000,0.82967256
2.100,3,1,1,-531.975,190.038,49.975,56.113,-0.044,9.320,-46.793,-4.784,nan,0.165518,0.434886,-0.340310,0.377827,0.354861,0.950083,-0.055260,0.898233,0.844591,54.961025,-72.000000,100.000000,-17.038975,nan,0.000000,0.000000,0.000000,0.000000,0.000000,0.000000,0.000000,0.000000,0.000000,0.000000,0.000000,0.000000,0.61421886,0.00091299,0.00073883,0.00009949,0.00002014,0.53785007,0.00000000,0.07459733,0.00006521,0.00036942,0.00003980,0.00004027,0.37298667,0.00000000,0.89641679
2.200,3,1,1,-531.971,190.053,49.971,55.703,-0.060,9.238,-46.465,-4.111,nan,0.218795,0.400221,-0.347253,0.379266,0.357530,0.942052,-0.122378,0.901034,0.850296,55.012983,-72.000000,100.000000,-16.987017,nan,0.000000,0.000000,0.000000,0.000000,0.000000,0.000000,0.000000,0.000000,0.000000,0.000000,0.000000,0.000000,0.66407643,0.00098127,0.00079287,0.00010867,0.00002036,0.57729210,0.00000000,0.08488115,0.00007009,0.00039644,0.00004347,0.00004073,0.42440574,0.00000000,0.96215349
2.320,3,1,1,-531.971,190.053,49.971,55.703,-0.060,9.238,-46.465,-4.111,nan,0.218795,0.400221,-0.347253,0.380530,0.360342,0.942052,-0.122378,0.903498,0.856309,54.999193,-72.000000,100.000000,-17.000807,nan,0.000000,0.000000,0.000000,0.000000,0.000000,0.000000,0.000000,0.000000,0.000000,0.000000,0.000000,0.000000,0.72382667,0.00106309,0.00085764,0.00011967,0.00002064,0.62455972,0.00000000,0.09720591,0.00007594,0.00042882,0.00004787,0.00004128,0.48602956,0.00000000,1.04093286
2.400,3,1,1,-531.962,190.088,49.962,54.752,-0.101,9.047,-45.704,-6.503,nan,0.248030,0.324983,-0.443664,0.377659,0.358989,0.887557,-0.400160,0.902620,0.857586,55.185627,-71.272379,100.000000,-16.086752,nan,0.000000,0.000000,0.000000,0.000000,0.000000,0.000000,0.000000,0.000000,0.000000,0.000000,0.000000,0.000000,0.76281254,0.00109926,0.00089618,0.00013171,0.00002260,0.65521867,0.00000000,0.10544412,0.00007852,0.00044809,0.00005268,0.00004519,0.52722060,0.00000000,1.09203112
2.500,3,1,1,-531.956,190.108,49.956,54.222,-0.124,8.940,-45.281,-5.687,nan,0.317400,0.274405,-0.546827,0.372938,0.355420,0.842703,-0.479398,0.899566,0.856883,55.315368,-71.163777,100.000000,-15.848409,nan,0.000000,0.000000,0.000000,0.000000,0.000000,0.000000,0.000000,0.000000,0.000000,0.000000,0.000000,0.000000,0.81061656,0.00113136,0.00093942,0.00015447,0.00002609,0.69267502,0.00000000,0.11569020,0.00008081,0.00046971,0.00006179,0.00005219,0.57845099,0.00000000,1.15445837
2.600,3,1,1,-531.950,190.130,49.950,53.662,-0.149,8.827,-44.835,-5.572,nan,0.366186,0.216045,-0.588957,0.366691,0.350292,0.790667,-0.548908,0.894436,0.853986,55.466510,-70.919053,100.000000,-15.452542,nan,0.000000,0.000000,0.000000,0.000000,0.000000,0.000000,0.000000,0.000000,0.000000,0.000000,0.000000,0.000000,0.85766442,0.00115126,0.00097749,0.00018088,0.00003068,0.72939951,0.00000000,0.12592460,0.00008223,0.00048875,0.00007235,0.00006136,0.62962299,0.00000000,1.21566586
2.700,3,1,1,-531.943,190.154,49.943,53.077,-0.177,8.707,-44.369,-5.744,nan,0.418189,0.156720,-0.602079,0.359484,0.344140,0.731542,-0.650977,0.887358,0.849023,55.636129,-70.612650,100.000000,-14.976522,nan,0.000000,0.000000,0.000000,0.000000,0.000000,0.000000,0.000000,0.000000,0.000000,0.000000,0.000000,0.000000,0.90400929,0.00116174,0.00101014,0.00020852,0.00003714,0.76542901,0.00000000,0.13616273,0.00008298,0.00050507,0.00008341,0.00007429,0.68081366,0.00000000,1.27571502
2.825,3,1,1,-531.943,190.154,49.943,53.077,-0.177,8.707,-44.369,-5.744,nan,0.418189,0.156720,-0.602079,0.352805,0.337081,0.731542,-0.650977,0.880873,0.843403,55.693516,-70.612650,100.000000,-14.919134,nan,0.000000,0.000000,0.000000,0.000000,0.000000,0.000000,0.000000,0.000000,0.000000,0.000000,0.000000,0.000000,0.96148320,0.00117475,0.00105063,0.00024280,0.00004516,0.81011211,0.00000000,0.14885774,0.00008391,0.00052531,0.00009712,0.00009032,0.74428871,0.00000000,1.35018685
2.900,3,1,1,-531.926,190.206,49.926,51.844,-0.237,8.454,-43.390,-6.718,nan,0.420517,0.044665,-0.393045,0.345175,0.332034,0.598762,-0.453172,0.870511,0.837052,56.003222,-69.861385,100.000000,-13.858163,nan,0.000000,0.000000,0.000000,0.000000,0.000000,0.000000,0.000000,0.000000,0.000000,0.000000,0.000000,0.000000,0.99524337,0.00117540,0.00106715,0.00025170,0.00004753,0.83613573,0.00000000,0.15656587,0.00008396,0.00053357,0.00010068,0.00009505,0.78282935,0.00000000,1.39355955
3.000,3,1,1,-531.916,190.234,49.917,51.202,-0.269,8.321,-42.881,-6.474,nan,0.487630,-0.014332,-0.394710,0.337920,0.325601,0.536072,-0.418297,0.859179,0.827506,56.202899,-69.602019,100.000000,-13.399120,nan,0.000000,0.000000,0.000000,0.000000,0.000000,0.000000,0.000000,0.000000,0.000000,0.000000,0.000000,0.000000,1.03904161,0.00117548,0.00108465,0.00026356,0.00005019,0.86972720,0.00000000,0.16674053,0.00008396,0.00054232,0.00010542,0.00010038,0.83370267,0.00000000,1.44954534
3.100,3,1,1,-531.906,190.264,49.907,50.548,-0.303,8.185,-42.363,-7.334,nan,0.544913,-0.076011,-0.428079,0.331442,0.319847,0.480112,-0.376742,0.847279,0.817274,56.404906,-69.144336,100.000000,-12.739429,nan,0.000000,0.000000,0.000000,0.000000,0.000000,0.000000,0.000000,0.000000,0.000000,0.000000,0.000000,0.000000,1.08205219,0.00117795,0.00109870,0.00027752,0.00005235,0.90253909,0.00000000,0.17690659,0.00008414,0.00054935,0.00011101,0.00010470,0.88453296,0.00000000,1.50423181
3.200,3,1,1,-531.895,190.295,49.896,49.882,-0.339,8.046,-41.836,-7.864,nan,0.596448,-0.134563,-0.403290,0.326075,0.315104,0.426830,-0.377283,0.835031,0.806574,56.605516,-68.739414,100.000000,-12.133899,nan,0.000000,0.000000,0.000000,0.000000,0.000000,0.000000,0.000000,0.000000,0.000000,0.000000,0.000000,0.000000,1.12428864,0.00118568,0.00110981,0.00028992,0.00005452,0.93457892,0.00000000,0.18706978,0.00008469,0.00055491,0.00011597,0.00010905,0.93534889,0.00000000,1.55763153
3.300,3,1,1,-531.883,190.328,49.884,49.261,-0.376,7.913,-41.348,-7.735,nan,0.635587,-0.182499,-0.468713,0.321902,0.311476,0.374672,-0.582508,0.822588,0.795602,56.789886,-68.472484,100.000000,-11.682598,nan,0.000000,0.000000,0.000000,0.000000,0.000000,0.000000,0.000000,0.000000,0.000000,0.000000,0.000000,0.000000,1.16568783,0.00119988,0.00111836,0.00030664,0.00005969,0.96580433,0.00000000,0.19719894,0.00008571,0.00055918,0.00012266,0.00011938,0.98599469,0.00000000,1.60967388
3.425,3,1,1,-531.883,190.328,49.884,49.261,-0.376,7.913,-41.348,-7.735,nan,0.635587,-0.182499,-0.468713,0.317977,0.307238,0.374672,-0.582508,0.810863,0.782759,56.838885,-68.472484,100.000000,-11.633599,nan,0.000000,0.000000,0.000000,0.000000,0.000000,0.000000,0.000000,0.000000,0.000000,0.000000,0.000000,0.000000,1.21724687,0.00121755,0.00112900,0.00032746,0.00006612,1.00469390,0.00000000,0.20981284,0.00008697,0.00056450,0.00013099,0.00013224,1.04906419,0.00000000,1.67448983
3.500,3,1,1,-531.856,190.395,49.857,47.891,-0.454,7.623,-40.268,-7.248,nan,0.587234,-0.272749,-0.449709,0.316525,0.306444,0.247958,-0.636821,0.798089,0.774135,57.169839,-67.916331,100.000000,-10.746492,nan,0.000000,0.000000,0.000000,0.000000,0.000000,0.000000,0.000000,0.000000,0.000000,0.000000,0.000000,0.000000,1.24730758,0.00124151,0.00113183,0.00033909,0.00007078,1.02707304,0.00000000,0.21745131,0.00008868,0.00056592,0.00013564,0.00014157,1.08725657,0.00000000,1.71178841
3.600,3,1,1,-531.841,190.430,49.843,47.197,-0.494,7.475,-39.722,-7.119,nan,0.668976,-0.315243,-0.421497,0.316482,0.306723,0.189098,-0.543525,0.785434,0.762673,57.346452,-67.614883,100.000000,-10.268431,nan,0.000000,0.000000,0.000000,0.000000,0.000000,0.000000,0.000000,0.000000,0.000000,0.000000,0.000000,0.000000,1.28632317,0.00128390,0.00113401,0.00035263,0.00007528,1.05591816,0.00000000,0.22755919,0.00009171,0.00056701,0.00014105,0.00015057,1.13779594,0.00000000,1.75986359
3.700,3,1,1,-531.825,190.466,49.827,46.499,-0.536,7.326,-39.173,-7.749,nan,0.714250,-0.352383,-0.277723,0.317704,0.308206,0.140765,-0.352819,0.773076,0.751429,57.514735,-67.179346,100.000000,-9.664611,nan,0.000000,0.000000,0.000000,0.000000,0.000000,0.000000,0.000000,0.000000,0.000000,0.000000,0.000000,0.000000,1.32452371,0.00133685,0.00113522,0.00035850,0.00007718,1.08396387,0.00000000,0.23765208,0.00009549,0.00056761,0.00014340,0.00015436,1.18826042,0.00000000,1.80660645
3.800,3,1,1,-531.808,190.503,49.811,45.798,-0.578,7.175,-38.623,-7.448,nan,0.751458,-0.380996,-0.186303,0.319871,0.310591,0.103199,-0.267723,0.761119,0.740508,57.675001,-66.905190,100.000000,-9.230189,nan,0.000000,0.000000,0.000000,0.000000,0.000000,0.000000,0.000000,0.000000,0.000000,0.000000,0.000000,0.000000,1.36193897,0.00139876,0.00113587,0.00036114,0.00007827,1.11122782,0.00000000,0.24773711,0.00009991,0.00056793,0.00014446,0.00015654,1.23868554,0.00000000,1.85204637
3.900,3,1,1,-531.791,190.541,49.794,45.095,-0.622,7.024,-38.071,-6.446,nan,0.781976,-0.401402,-0.118157,0.322645,0.313550,0.073644,-0.204097,0.749608,0.729959,57.828849,-66.752800,100.000000,-8.923951,nan,0.000000,0.000000,0.000000,0.000000,0.000000,0.000000,0.000000,0.000000,0.000000,0.000000,0.000000,0.000000,1.39857960,0.00146747,0.00113620,0.00036221,0.00007891,1.13771830,0.00000000,0.25781652,0.00010482,0.00056810,0.00014488,0.00015781,1.28908261,0.00000000,1.89619717
4.026,3,1,1,-531.791,190.541,49.794,45.095,-0.622,7.024,-38.071,-6.446,nan,0.781976,-0.401402,-0.118157,0.325233,0.317020,0.073644,-0.204097,0.738610,0.717265,57.832358,-66.752800,100.000000,-8.920442,nan,0.000000,0.000000,0.000000,0.000000,0.000000,0.000000,0.000000,0.000000,0.000000,0.000000,0.000000,0.000000,1.44486184,0.00155426,0.00113661,0.00036355,0.00007971,1.17117953,0.00000000,0.27054817,0.00011102,0.00056831,0.00014542,0.00015942,1.35274087,0.00000000,1.95196589
4.100,3,1,1,-531.752,190.618,49.756,43.683,-0.712,6.718,-36.965,-8.165,nan,0.731753,-0.426627,-0.080349,0.328565,0.319567,0.032799,-0.110617,0.728003,0.710109,58.128105,-65.796430,100.000000,-7.668325,nan,0.000000,0.000000,0.000000,0.000000,0.000000,0.000000,0.000000,0.000000,0.000000,0.000000,0.000000,0.000000,1.47070923,0.00161140,0.00113666,0.00036391,0.00007985,1.18956439,0.00000000,0.27795302,0.00011510,0.00056833,0.00014556,0.00015969,1.38976512,0.00000000,1.98260731
4.200,3,1,1,-531.732,190.658,49.736,42.975,-0.757,6.563,-36.411,-8.036,nan,0.793501,-0.432792,-0.037859,0.331902,0.323057,0.023245,-0.050503,0.717831,0.700711,58.272504,-65.490343,100.000000,-7.217839,nan,0.000000,0.000000,0.000000,0.000000,0.000000,0.000000,0.000000,0.000000,0.000000,0.000000,0.000000,0.000000,1.50508186,0.00169131,0.00113670,0.00036402,0.00007988,1.21380222,0.00000000,0.28800774,0.00012081,0.00056835,0.00014561,0.00015977,1.44003870,0.00000000,2.02300369
4.300,3,1,1,-531.711,190.698,49.715,42.267,-0.804,6.409,-35.858,-6.503,nan,0.832388,-0.430665,0.046735,0.334955,0.326258,0.022038,0.020244,0.708074,0.691681,58.415919,-65.429504,100.000000,-7.013585,nan,0.000000,0.000000,0.000000,0.000000,0.000000,0.000000,0.000000,0.000000,0.000000,0.000000,0.000000,0.000000,1.53869768,0.00177037,0.00113672,0.00036419,0.00007989,1.23729356,0.00000000,0.29805294,0.00012646,0.00056836,0.00014567,0.00015978,1.49026471,0.00000000,2.06215594
4.400,3,1,1,-531.688,190.738,49.694,41.643,-0.851,6.268,-35.376,-8.408,nan,0.856050,-0.421901,0.136988,0.337530,0.328991,0.027870,0.103082,0.698709,0.682987,58.541624,-64.810842,100.000000,-6.269218,nan,0.000000,0.000000,0.000000,0.000000,0.000000,0.000000,0.000000,0.000000,0.000000,0.000000,0.000000,0.000000,1.57171894,0.00184635,0.00113677,0.00036562,0.00008005,1.26018829,0.00000000,0.30810186,0.00013188,0.00056839,0.00014625,0.00016010,1.54050928,0.00000000,2.10031381
4.528,3,1,1,-531.688,190.738,49.694,41.643,-0.851,6.268,-35.376,-8.408,nan,0.856050,-0.421901,0.136988,0.344399,0.332247,0.027870,0.103082,0.698724,0.672382,58.542384,-64.810842,100.000000,-6.268458,nan,0.000000,0.000000,0.000000,0.000000,0.000000,0.000000,0.000000,0.000000,0.000000,0.000000,0.000000,0.000000,1.61374283,0.00194305,0.00113683,0.00036744,0.00008026,1.28932484,0.00000000,0.32089041,0.00013879,0.00056842,0.00014698,0.00016052,1.60445205,0.00000000,2.14887473
4.600,3,1,1,-531.641,190.821,49.648,40.228,-0.947,5.956,-34.272,-8.322,nan,1.890700,-0.387722,0.200431,0.345578,0.333285,0.065926,0.286812,0.689789,0.666599,58.788856,-64.170742,100.000000,-5.381886,nan,0.000000,0.000000,0.000000,0.000000,0.000000,0.000000,0.000000,0.000000,0.000000,0.000000,0.000000,0.000000,1.63667283,0.00198962,0.00113702,0.00036966,0.00008117,1.30491957,0.00000000,0.32817578,0.00014212,0.00056851,0.00014786,0.00016234,1.64087889,0.00000000,2.17486595
4.700,3,1,1,-531.616,190.862,49.623,39.521,-0.996,5.800,-33.721,-7.706,nan,1.490814,-0.365902,0.284568,0.346100,0.334080,0.099567,0.384627,0.681294,0.658978,58.943173,-63.951537,100.000000,-5.008364,nan,0.000000,0.000000,0.000000,0.000000,0.000000,0.000000,0.000000,0.000000,0.000000,0.000000,0.000000,0.000000,1.66754245,0.00204671,0.00113763,0.00037583,0.00008342,1.32569960,0.00000000,0.33819925,0.00014619,0.00056881,0.00015033,0.00016684,1.69099627,0.00000000,2.20949934
4.800,3,1,1,-531.590,190.905,49.598,38.815,-1.045,5.643,-33.172,-8.465,nan,1.272280,-0.339612,0.301442,0.350241,0.334207,0.142956,0.487644,0.681668,0.651800,59.100753,-63.492923,100.000000,-4.392170,nan,0.000000,0.000000,0.000000,0.000000,0.000000,0.000000,0.000000,0.000000,0.000000,0.000000,0.000000,0.000000,1.69774592,0.00209592,0.00113887,0.00038275,0.00008704,1.34581889,0.00000000,0.34822244,0.00014971,0.00056944,0.00015310,0.00017409,1.74111220,0.00000000,2.24303149
4.900,3,1,1,-531.563,190.947,49.572,38.110,-1.095,5.486,-32.623,-7.850,nan,1.155147,-0.307552,0.224293,0.349262,0.333638,0.194180,0.375485,0.673987,0.645175,59.217440,-63.275032,100.000000,-4.057592,nan,0.000000,0.000000,0.000000,0.000000,0.000000,0.000000,0.000000,0.000000,0.000000,0.000000,0.000000,0.000000,1.72723045,0.00213621,0.00114117,0.00038658,0.00008919,1.36524947,0.00000000,0.35822783,0.00015259,0.00057058,0.00015463,0.00017838,1.79113917,0.00000000,2.27541579
5.000,3,1,1,-531.550,190.967,49.559,37.547,-1.118,5.373,-32.173,-7.749,nan,1.118126,-0.279123,0.599905,0.350011,0.332548,0.239073,1.012989,0.662473,0.639098,59.357152,-63.025495,100.000000,-3.668342,nan,0.000000,0.000000,0.000000,0.000000,0.000000,0.000000,0.000000,0.000000,0.000000,0.000000,0.000000,0.000000,1.75623338,0.00216943,0.00114465,0.00041397,0.00010481,1.38416247,0.00000000,0.36823804,0.00015496,0.00057232,0.00016559,0.00020963,1.84119022,0.00000000,2.30693746
5.126,3,1,1,-531.550,190.967,49.559,37.547,-1.118,5.373,-32.173,-7.749,nan,1.118126,-0.279123,0.599905,0.350098,0.331237,0.239073,1.012989,0.639160,0.631736,59.374019,-63.025495,100.000000,-3.651476,nan,0.000000,0.000000,0.000000,0.000000,0.000000,0.000000,0.000000,0.000000,0.000000,0.000000,0.000000,0.000000,1.79274833,0.00221125,0.00114903,0.00044847,0.00012448,1.40797421,0.00000000,0.38084088,0.00015795,0.00057452,0.00017939,0.00024897,1.90420442,0.00000000,2.34662369
5.200,3,1,1,-531.493,191.053,49.504,36.143,-1.219,5.060,-31.083,-7.935,nan,1.154260,-0.203993,0.745048,0.347266,0.329645,0.361887,1.141738,0.633842,0.628449,59.705605,-62.345933,100.000000,-2.640328,nan,0.000000,0.000000,0.000000,0.000000,0.000000,0.000000,0.000000,0.000000,0.000000,0.000000,0.000000,0.000000,1.81332624,0.00222440,0.00115495,0.00047981,0.00013921,1.42106723,0.00000000,0.38826063,0.00015889,0.00057747,0.00019192,0.00027841,1.94130317,0.00000000,2.36844539
5.300,3,1,1,-531.463,191.096,49.476,35.499,-1.269,4.913,-30.586,-7.792,nan,1.106802,-0.169387,0.344467,0.344322,0.327160,0.423748,0.619296,0.620084,0.624942,59.865832,-62.076113,100.000000,-2.210282,nan,0.000000,0.000000,0.000000,0.000000,0.000000,0.000000,0.000000,0.000000,0.000000,0.000000,0.000000,0.000000,1.84046767,0.00223664,0.00116589,0.00048885,0.00014505,1.43816573,0.00000000,0.39826552,0.00015976,0.00058294,0.00019554,0.00029009,1.99132761,0.00000000,2.39694288
5.400,3,1,1,-531.433,191.139,49.446,34.801,-1.320,4.756,-30.045,-7.305,nan,1.043517,-0.129517,0.361140,0.340927,0.324390,0.494910,0.623720,0.607327,0.622609,60.054959,-61.839673,100.000000,-1.784714,nan,0.000000,0.000000,0.000000,0.000000,0.000000,0.000000,0.000000,0.000000,0.000000,0.000000,0.000000,0.000000,1.86699979,0.00224379,0.00118081,0.00049878,0.00015097,1.45465946,0.00000000,0.40826598,0.00016027,0.00059040,0.00019951,0.00030194,2.04132991,0.00000000,2.42443243
5.500,3,1,1,-531.402,191.182,49.416,34.104,-1.371,4.600,-29.504,-7.706,nan,1.057901,-0.088268,0.557551,0.337172,0.321432,0.569140,0.963353,0.595915,0.621604,60.245037,-61.449099,100.000000,-1.204062,nan,0.000000,0.000000,0.000000,0.000000,0.000000,0.000000,0.000000,0.000000,0.000000,0.000000,0.000000,0.000000,1.89296944,0.00224711,0.00120054,0.00052245,0.00016510,1.47056793,0.00000000,0.41826630,0.00016051,0.00060027,0.00020898,0.00033021,2.09133152,0.00000000,2.45094655
5.600,3,1,1,-531.370,191.225,49.385,33.409,-1.422,4.444,-28.966,-6.875,nan,1.064251,-0.047429,0.537252,0.329335,0.318394,0.644525,1.003956,0.583691,0.622053,60.434736,-61.274522,100.000000,-0.839786,nan,0.000000,0.000000,0.000000,0.000000,0.000000,0.000000,0.000000,0.000000,0.000000,0.000000,0.000000,0.000000,1.91837098,0.00224807,0.00122585,0.00054443,0.00018046,1.48590418,0.00000000,0.42826799,0.00016058,0.00061292,0.00021777,0.00036092,2.14133994,0.00000000,2.47650697
5.727,3,1,1,-531.370,191.225,49.385,33.409,-1.422,4.444,-28.966,-6.875,nan,1.064251,-0.047429,0.537252,0.315845,0.314673,0.644525,1.003956,0.552575,0.622597,60.510933,-61.274522,100.000000,-0.763589,nan,0.000000,0.000000,0.000000,0.000000,0.000000,0.000000,0.000000,0.000000,0.000000,0.000000,0.000000,0.000000,1.95052673,0.00224929,0.00125789,0.00057226,0.00019989,1.50531839,0.00000000,0.44092900,0.00016066,0.00062895,0.00022890,0.00039979,2.20464500,0.00000000,2.50886399
5.800,3,1,1,-531.305,191.312,49.322,32.026,-1.524,4.132,-27.894,-6.904,nan,1.004552,0.027153,0.448982,0.311998,0.312543,0.791964,0.949149,0.559633,0.625206,60.946558,-60.633500,100.000000,0.313058,nan,0.000000,0.000000,0.000000,0.000000,0.000000,0.000000,0.000000,0.000000,0.000000,0.000000,0.000000,0.000000,1.96835141,0.00224952,0.00128593,0.00058353,0.00020996,1.51575470,0.00000000,0.44826778,0.00016068,0.00064297,0.00023341,0.00041993,2.24133888,0.00000000,2.52625783
5.900,3,1,1,-531.271,191.355,49.289,31.337,-1.575,3.976,-27.360,-7.878,nan,1.042708,0.059879,0.335874,0.296902,0.309788,0.861809,0.694193,0.537067,0.630313,61.100747,-60.146882,100.000000,0.953865,nan,0.000000,0.000000,0.000000,0.000000,0.000000,0.000000,0.000000,0.000000,0.000000,0.000000,0.000000,0.000000,1.99215315,0.00225105,0.00133129,0.00059214,0.00021732,1.52946906,0.00000000,0.45829229,0.00016079,0.00066564,0.00023686,0.00043464,2.29146144,0.00000000,2.54911511
6.000,3,1,1,-531.236,191.398,49.256,30.732,-1.626,3.835,-26.897,-6.761,nan,1.054277,0.089273,0.244671,0.287952,0.307243,0.919971,0.460640,0.535390,0.636636,61.370372,-60.067029,100.000000,1.303343,nan,0.000000,0.000000,0.000000,0.000000,0.000000,0.000000,0.000000,0.000000,0.000000,0.000000,0.000000,0.000000,2.01541811,0.00225445,0.00138280,0.00059669,0.00022055,1.54267919,0.00000000,0.46828443,0.00016103,0.00069140,0.00023868,0.00044110,2.34142215,0.00000000,2.57113199
6.100,3,1,1,-531.202,191.440,49.223,30.047,-1.677,3.680,-26.367,-7.076,nan,1.088751,0.122710,0.228749,0.285063,0.304970,0.981401,0.473943,0.550583,0.644274,61.575808,-59.697608,100.000000,1.878200,nan,0.000000,0.000000,0.000000,0.000000,0.000000,0.000000,0.000000,0.000000,0.000000,0.000000,0.000000,0.000000,2.03819438,0.00226087,0.00144146,0.00060068,0.00022397,1.55538239,0.00000000,0.47828501,0.00016149,0.00072073,0.00024027,0.00044794,2.39142504,0.00000000,2.59230399
6.232,3,1,1,-531.202,191.440,49.223,30.047,-1.677,3.680,-26.367,-7.076,nan,1.088751,0.122710,0.228749,0.273745,0.302059,0.981401,0.473943,0.538560,0.653846,61.565726,-59.697608,100.000000,1.868119,nan,0.000000,0.000000,0.000000,0.000000,0.000000,0.000000,0.000000,0.000000,0.000000,0.000000,0.000000,0.000000,2.06831921,0.00226936,0.00151905,0.00060595,0.00022849,1.57218420,0.00000000,0.49151216,0.00016210,0.00075952,0.00024238,0.00045699,2.45756081,0.00000000,2.62030700
6.300,3,1,1,-531.130,191.526,49.154,28.684,-1.779,3.371,-25.313,-7.649,nan,1.059404,0.175790,0.251945,0.271777,0.300910,1.086276,0.468897,0.558348,0.660423,61.948017,-58.971987,100.000000,2.976030,nan,0.000000,0.000000,0.000000,0.000000,0.000000,0.000000,0.000000,0.000000,0.000000,0.000000,0.000000,0.000000,2.08310225,0.00227829,0.00156777,0.00060922,0.00023076,1.58012094,0.00000000,0.49829526,0.00016273,0.00078389,0.00024369,0.00046152,2.49147631,0.00000000,2.63353490
6.400,3,1,1,-531.094,191.568,49.119,28.006,-1.830,3.217,-24.789,-7.978,nan,1.086383,0.193756,0.279767,0.266217,0.299438,1.128694,0.635670,0.566727,0.670914,62.062519,-58.603426,100.000000,3.459093,nan,0.000000,0.000000,0.000000,0.000000,0.000000,0.000000,0.000000,0.000000,0.000000,0.000000,0.000000,0.000000,2.10445810,0.00229430,0.00164541,0.00061518,0.00023692,1.59135575,0.00000000,0.50831052,0.00016388,0.00082270,0.00024607,0.00047384,2.54155262,0.00000000,2.65225959
6.500,3,1,1,-531.057,191.611,49.083,27.331,-1.880,3.064,-24.267,-7.592,nan,1.109148,0.210536,0.118385,0.263394,0.298195,1.163569,0.286689,0.578781,0.681858,62.223553,-58.361098,100.000000,3.862455,nan,0.000000,0.000000,0.000000,0.000000,0.000000,0.000000,0.000000,0.000000,0.000000,0.000000,0.000000,0.000000,2.12532465,0.00231319,0.00172783,0.00061625,0.00023817,1.60211099,0.00000000,0.51831822,0.00016523,0.00086392,0.00024650,0.00047634,2.59159109,0.00000000,2.67018498
6.600,3,1,1,-531.020,191.653,49.047,26.657,-1.931,2.911,-23.747,-7.892,nan,1.121688,0.227117,0.139776,0.262294,0.297184,1.190164,0.203150,0.593477,0.693017,62.358056,-57.999863,100.000000,4.358193,nan,0.000000,0.000000,0.000000,0.000000,0.000000,0.000000,0.000000,0.000000,0.000000,0.000000,0.000000,0.000000,2.14575262,0.00233518,0.00181410,0.00061774,0.00023880,1.61241345,0.00000000,0.52833335,0.00016680,0.00090705,0.00024710,0.00047760,2.64166674,0.00000000,2.68735576
6.700,3,1,1,-530.982,191.694,49.011,25.987,-1.981,2.758,-23.228,-7.348,nan,1.122092,0.240157,0.184697,0.262805,0.296364,1.207693,0.167656,0.610361,0.704136,62.474879,-57.787297,100.000000,4.687582,nan,0.000000,0.000000,0.000000,0.000000,0.000000,0.000000,0.000000,0.000000,0.000000,0.000000,0.000000,0.000000,2.16576111,0.00235979,0.00190299,0.00062034,0.00023923,1.62227914,0.00000000,0.53835962,0.00016856,0.00095150,0.00024813,0.00047845,2.69179810,0.00000000,2.70379857
6.826,3,1,1,-530.982,191.694,49.011,25.987,-1.981,2.758,-23.228,-7.348,nan,1.122092,0.240157,0.184697,0.266471,0.295365,1.207693,0.167656,0.625748,0.717411,62.437775,-57.787297,100.000000,4.650478,nan,0.000000,0.000000,0.000000,0.000000,0.000000,0.000000,0.000000,0.000000,0.000000,0.000000,0.000000,0.000000,2.19095237,0.00239077,0.00201492,0.00062361,0.00023977,1.63470054,0.00000000,0.55098277,0.00017077,0.00100746,0.00024944,0.00047953,2.75491383,0.00000000,2.72450090
6.900,3,1,1,-530.905,191.777,48.937,24.652,-2.081,2.455,-22.198,-6.904,nan,5.848876,0.248776,-0.047541,0.269266,0.294876,1.214354,-0.074579,0.647660,0.724992,62.656760,-57.253286,100.000000,5.403474,nan,0.000000,0.000000,0.000000,0.000000,0.000000,0.000000,0.000000,0.000000,0.000000,0.000000,0.000000,0.000000,2.20513279,0.00241031,0.00208144,0.00062374,0.00023983,1.64136878,0.00000000,0.55840869,0.00017217,0.00104072,0.00024949,0.00047966,2.79204344,0.00000000,2.73561463
7.000,3,1,1,-530.866,191.818,48.900,23.988,-2.131,2.303,-21.685,-7.864,nan,3.787718,0.248627,-0.011873,0.272111,0.294230,1.203984,-0.305712,0.669715,0.734579,62.730330,-56.781449,100.000000,5.948881,nan,0.000000,0.000000,0.000000,0.000000,0.000000,0.000000,0.000000,0.000000,0.000000,0.000000,0.000000,0.000000,2.22387076,0.00243667,0.00216972,0.00062375,0.00024125,1.64995964,0.00000000,0.56843974,0.00017405,0.00108486,0.00024950,0.00048250,2.84219871,0.00000000,2.74993273
7.100,3,1,1,-530.826,191.859,48.862,23.327,-2.181,2.153,-21.174,-7.964,nan,2.631584,0.247766,0.035234,0.271543,0.293590,1.184827,-0.299892,0.686890,0.743307,62.802542,-56.460671,100.000000,6.341871,nan,0.000000,0.000000,0.000000,0.000000,0.000000,0.000000,0.000000,0.000000,0.000000,0.000000,0.000000,0.000000,2.24221832,0.00246285,0.00225524,0.00062384,0.00024262,1.65815385,0.00000000,0.57847992,0.00017592,0.00112762,0.00024954,0.00048524,2.89239960,0.00000000,2.76358974
7.200,3,1,1,-530.786,191.900,48.823,22.668,-2.230,2.003,-20.665,-6.933,nan,1.979125,0.244654,-0.059751,0.273961,0.292930,1.157137,-0.420023,0.706296,0.751047,62.907458,-56.338596,100.000000,6.568862,nan,0.000000,0.000000,0.000000,0.000000,0.000000,0.000000,0.000000,0.000000,0.000000,0.000000,0.000000,0.000000,2.26017635,0.00248837,0.00233681,0.00062411,0.00024531,1.66595877,0.00000000,0.58852298,0.00017774,0.00116841,0.00024965,0.00049062,2.94261489,0.00000000,2.77659794
7.300,3,1,1,-530.746,191.940,48.785,22.011,-2.279,1.853,-20.158,-7.721,nan,1.615850,0.237576,-0.230177,0.275662,0.292202,1.121245,-0.694014,0.724620,0.757705,62.986511,-55.900088,100.000000,7.086423,nan,0.000000,0.000000,0.000000,0.000000,0.000000,0.000000,0.000000,0.000000,0.000000,0.000000,0.000000,0.000000,2.27776596,0.00251244,0.00241341,0.00062815,0.00025264,1.67338565,0.00000000,0.59857367,0.00017946,0.00120670,0.00025126,0.00050529,2.99286833,0.00000000,2.78897609
7.427,3,1,1,-530.746,191.940,48.785,22.011,-2.279,1.853,-20.158,-7.721,nan,1.615850,0.237576,-0.230177,0.278631,0.291306,1.121245,-0.694014,0.750074,0.765805,62.937809,-55.900088,100.000000,7.037721,nan,0.000000,0.000000,0.000000,0.000000,0.000000,0.000000,0.000000,0.000000,0.000000,0.000000,0.000000,0.000000,2.30009393,0.00254300,0.00251064,0.00063327,0.00026196,1.68281359,0.00000000,0.61133147,0.00018164,0.00125532,0.00025331,0.00052391,3.05665736,0.00000000,2.80468932
7.500,3,1,1,-530.664,192.020,48.706,20.703,-2.376,1.555,-19.148,-6.732,nan,1.282588,0.214016,-0.158394,0.277234,0.290616,1.027036,-0.959929,0.758034,0.768945,63.133829,-55.473374,100.000000,7.660455,nan,0.000000,0.000000,0.000000,0.000000,0.000000,0.000000,0.000000,0.000000,0.000000,0.000000,0.000000,0.000000,2.31241162,0.00255727,0.00255759,0.00063467,0.00027221,1.68770949,0.00000000,0.61868039,0.00018266,0.00127880,0.00025387,0.00054442,3.09340194,0.00000000,2.81284914
7.600,3,1,1,-530.623,192.059,48.666,20.052,-2.425,1.407,-18.646,-7.864,nan,1.198924,0.200726,-0.140254,0.275730,0.289559,0.970293,-0.636238,0.772062,0.772100,63.260723,-54.977773,100.000000,8.282951,nan,0.000000,0.000000,0.000000,0.000000,0.000000,0.000000,0.000000,0.000000,0.000000,0.000000,0.000000,0.000000,2.32890722,0.00257444,0.00261492,0.00063616,0.00027837,1.69406005,0.00000000,0.62874327,0.00018389,0.00130746,0.00025447,0.00055675,3.14371636,0.00000000,2.82343342
7.700,3,1,1,-530.581,192.098,48.626,19.404,-2.473,1.259,-18.145,-7.148,nan,1.164631,0.186896,-0.195154,0.272865,0.288399,0.908091,-0.685012,0.784423,0.774126,63.375572,-54.805682,100.000000,8.569890,nan,0.000000,0.000000,0.000000,0.000000,0.000000,0.000000,0.000000,0.000000,0.000000,0.000000,0.000000,0.000000,2.34508654,0.00258935,0.00266520,0.00063907,0.00028553,1.70008249,0.00000000,0.63882490,0.00018495,0.00133260,0.00025563,0.00057105,3.19412450,0.00000000,2.83347082
7.800,3,1,1,-530.538,192.136,48.585,18.758,-2.520,1.112,-17.646,-6.961,nan,1.150204,0.171632,-0.167269,0.265179,0.287136,0.841297,-0.696095,0.804758,0.775073,63.502863,-54.541984,100.000000,8.960879,nan,0.000000,0.000000,0.000000,0.000000,0.000000,0.000000,0.000000,0.000000,0.000000,0.000000,0.000000,0.000000,2.36093913,0.00260193,0.00270836,0.00064120,0.00029291,1.70577932,0.00000000,0.64891541,0.00018585,0.00135418,0.00025648,0.00058583,3.24457704,0.00000000,2.84296553
7.926,3,1,1,-530.538,192.136,48.585,18.758,-2.520,1.112,-17.646,-6.961,nan,1.150204,0.171632,-0.167269,0.258898,0.285589,0.841297,-0.696095,0.815595,0.776227,63.515331,-54.541984,100.000000,8.973346,nan,0.000000,0.000000,0.000000,0.000000,0.000000,0.000000,0.000000,0.000000,0.000000,0.000000,0.000000,0.000000,2.38086637,0.00261774,0.00276262,0.00064388,0.00030220,1.71294032,0.00000000,0.66159962,0.00018698,0.00138131,0.00025755,0.00060440,3.30799809,0.00000000,2.85490053
8.000,3,1,1,-530.452,192.213,48.502,17.523,-2.615,0.827,-16.695,-6.732,nan,1.812232,0.136565,-0.252541,0.256609,0.284514,0.704131,-0.914049,0.813058,0.775557,63.789412,-54.017885,100.000000,9.771527,nan,0.000000,0.000000,0.000000,0.000000,0.000000,0.000000,0.000000,0.000000,0.000000,0.000000,0.000000,0.000000,2.39215269,0.00262362,0.00278498,0.00064748,0.00031162,1.71671172,0.00000000,0.66907326,0.00018740,0.00139249,0.00025899,0.00062324,3.34536630,0.00000000,2.86118621
8.100,3,1,1,-530.408,192.250,48.460,16.883,-2.661,0.682,-16.201,-6.503,nan,1.522578,0.118018,-0.193965,0.249516,0.282981,0.630264,-0.852720,0.818914,0.773845,63.941900,-53.764465,100.000000,10.177435,nan,0.000000,0.000000,0.000000,0.000000,0.000000,0.000000,0.000000,0.000000,0.000000,0.000000,0.000000,0.000000,2.40709551,0.00262956,0.00280918,0.00065034,0.00032269,1.72150827,0.00000000,0.67917547,0.00018783,0.00140459,0.00026014,0.00064539,3.39587733,0.00000000,2.86918045
8.200,3,1,1,-530.363,192.287,48.417,16.322,-2.708,0.550,-15.772,-7.291,nan,1.342344,0.101883,-0.126419,0.240981,0.281397,0.564961,-0.428262,0.823637,0.771524,64.093767,-53.372373,100.000000,10.721394,nan,0.000000,0.000000,0.000000,0.000000,0.000000,0.000000,0.000000,0.000000,0.000000,0.000000,0.000000,0.000000,2.42179020,0.00263399,0.00282863,0.00065156,0.00032549,1.72605644,0.00000000,0.68929409,0.00018814,0.00141432,0.00026062,0.00065098,3.44647045,0.00000000,2.87676073
8.300,3,1,1,-530.318,192.324,48.374,15.686,-2.754,0.405,-15.281,-7.162,nan,1.257576,0.084158,-0.108690,0.224458,0.279770,0.491320,-0.439086,0.837465,0.768615,64.274799,-53.103355,100.000000,11.171444,nan,0.000000,0.000000,0.000000,0.000000,0.000000,0.000000,0.000000,0.000000,0.000000,0.000000,0.000000,0.000000,2.43620872,0.00263701,0.00284334,0.00065246,0.00032843,1.73032549,0.00000000,0.69942200,0.00018836,0.00142167,0.00026098,0.00065685,3.49711000,0.00000000,2.88387581
8.400,3,1,1,-530.272,192.361,48.330,15.052,-2.800,0.261,-14.791,-6.818,nan,1.208804,0.065664,-0.131013,0.221941,0.278114,0.419185,-0.629153,0.829775,0.765234,64.493272,-52.872919,100.000000,11.620353,nan,0.000000,0.000000,0.000000,0.000000,0.000000,0.000000,0.000000,0.000000,0.000000,0.000000,0.000000,0.000000,2.45035417,0.00263885,0.00285404,0.00065376,0.00033445,1.73432193,0.00000000,0.70955114,0.00018849,0.00142702,0.00026151,0.00066890,3.54775568,0.00000000,2.89053655
8.533,3,1,1,-530.272,192.361,48.330,15.052,-2.800,0.261,-14.791,-6.818,nan,1.208804,0.065664,-0.131013,0.204198,0.275968,0.419185,-0.629153,0.842671,0.760861,64.527013,-52.872919,100.000000,11.654093,nan,0.000000,0.000000,0.000000,0.000000,0.000000,0.000000,0.000000,0.000000,0.000000,0.000000,0.000000,0.000000,2.46909641,0.00264128,0.00286822,0.00065550,0.00034243,1.73961679,0.00000000,0.72297219,0.00018866,0.00143411,0.00026220,0.00068487,3.61486097,0.00000000,2.89936131
8.600,3,1,1,-530.179,192.433,48.241,13.793,-2.890,-0.026,-13.819,-7.133,nan,1.934582,0.027446,-0.239485,0.201738,0.274839,0.283593,-0.687100,0.833508,0.758156,64.885311,-52.240579,100.000000,12.644731,nan,0.000000,0.000000,0.000000,0.000000,0.000000,0.000000,0.000000,0.000000,0.000000,0.000000,0.000000,0.000000,2.47833506,0.00264150,0.00287153,0.00065845,0.00034729,1.74197608,0.00000000,0.72984020,0.00018868,0.00143576,0.00026338,0.00069459,3.64920102,0.00000000,2.90329347
8.700,3,1,1,-530.132,192.468,48.195,13.166,-2.935,-0.168,-13.335,-6.890,nan,1.592699,0.009973,-0.159431,0.192442,0.273181,0.222179,-0.553309,0.834167,0.753970,65.051033,-51.995773,100.000000,13.055260,nan,0.000000,0.000000,0.000000,0.000000,0.000000,0.000000,0.000000,0.000000,0.000000,0.000000,0.000000,0.000000,2.49176521,0.00264154,0.00287454,0.00066038,0.00035196,1.74522601,0.00000000,0.74001078,0.00018868,0.00143727,0.00026415,0.00070391,3.70005389,0.00000000,2.90871002
8.800,3,1,1,-530.084,192.503,48.149,12.542,-2.979,-0.310,-12.853,-6.245,nan,1.432378,-0.006496,-0.160604,0.183765,0.271550,0.166044,-0.708857,0.834425,0.749686,65.244638,-51.822110,100.000000,13.422528,nan,0.000000,0.000000,0.000000,0.000000,0.000000,0.000000,0.000000,0.000000,0.000000,0.000000,0.000000,0.000000,2.50497883,0.00264156,0.00287622,0.00066235,0.00035961,1.74824584,0.00000000,0.75019326,0.00018868,0.00143811,0.00026494,0.00071922,3.75096629,0.00000000,2.91374306
8.900,3,1,1,-530.035,192.537,48.102,11.921,-3.023,-0.451,-12.373,-7.234,nan,1.327761,-0.022948,-0.196299,0.171403,0.269959,0.115966,-0.569071,0.844129,0.745368,65.434321,-51.364759,100.000000,14.069562,nan,0.000000,0.000000,0.000000,0.000000,0.000000,0.000000,0.000000,0.000000,0.000000,0.000000,0.000000,0.000000,2.51798873,0.00264179,0.00287704,0.00066528,0.00036455,1.75104483,0.00000000,0.76039524,0.00018870,0.00143852,0.00026611,0.00072909,3.80197621,0.00000000,2.91840805
9.016,3,1,1,-530.035,192.537,48.102,11.921,-3.023,-0.451,-12.373,-7.234,nan,1.327761,-0.022948,-0.196299,0.165663,0.268144,0.115966,-0.569071,0.843482,0.740443,65.502330,-51.364759,100.000000,14.137570,nan,0.000000,0.000000,0.000000,0.000000,0.000000,0.000000,0.000000,0.000000,0.000000,0.000000,0.000000,0.000000,2.53311541,0.00264205,0.00287799,0.00066870,0.00037028,1.75429876,0.00000000,0.77225763,0.00018872,0.00143899,0.00026748,0.00074057,3.86128817,0.00000000,2.92383126
9.100,3,1,1,-529.936,192.604,48.006,10.687,-3.110,-0.731,-11.418,-6.732,nan,1.283767,-0.054836,-0.194063,0.163855,0.266906,0.036423,-0.419669,0.833151,0.736884,65.800264,-50.885788,100.000000,14.914476,nan,0.000000,0.000000,0.000000,0.000000,0.000000,0.000000,0.000000,0.000000,0.000000,0.000000,0.000000,0.000000,2.54366310,0.00264312,0.00287806,0.00067110,0.00037253,1.75629161,0.00000000,0.78080668,0.00018879,0.00143903,0.00026844,0.00074505,3.90403341,0.00000000,2.92715269
9.200,3,1,1,-529.885,192.638,47.957,10.073,-3.153,-0.871,-10.944,-6.159,nan,1.266352,-0.069204,-0.107759,0.158319,0.265488,0.007991,-0.277169,0.832315,0.732685,65.962195,-50.704107,100.000000,15.258088,nan,0.000000,0.000000,0.000000,0.000000,0.000000,0.000000,0.000000,0.000000,0.000000,0.000000,0.000000,0.000000,2.55608990,0.00264516,0.00287806,0.00067198,0.00037370,1.75848078,0.00000000,0.79104022,0.00018894,0.00143903,0.00026879,0.00074739,3.95520112,0.00000000,2.93080130
9.300,3,1,1,-529.833,192.670,47.908,9.462,-3.195,-1.009,-10.472,-5.472,nan,1.253218,-0.082626,-0.137940,0.155256,0.264137,-0.012471,-0.180808,0.838038,0.728558,66.130386,-50.543759,100.000000,15.586627,nan,0.000000,0.000000,0.000000,0.000000,0.000000,0.000000,0.000000,0.000000,0.000000,0.000000,0.000000,0.000000,2.56834273,0.00264808,0.00287807,0.00067343,0.00037419,1.76048509,0.00000000,0.80128387,0.00018915,0.00143904,0.00026937,0.00074839,4.00641935,0.00000000,2.93414181
9.400,3,1,1,-529.781,192.702,47.858,8.854,-3.237,-1.147,-10.001,-7.291,nan,1.249924,-0.095241,-0.177161,0.154635,0.262858,-0.024749,-0.091347,0.834386,0.724505,66.266426,-49.947012,100.000000,16.319414,nan,0.000000,0.000000,0.000000,0.000000,0.000000,0.000000,0.000000,0.000000,0.000000,0.000000,0.000000,0.000000,2.58044264,0.00265194,0.00287811,0.00067582,0.00037432,1.76231311,0.00000000,0.81154934,0.00018942,0.00143905,0.00027033,0.00074864,4.05774670,0.00000000,2.93718852
9.500,3,1,1,-529.729,192.734,47.807,8.248,-3.278,-1.284,-9.533,-6.904,nan,1.246704,-0.107208,-0.141487,0.154934,0.261651,-0.028838,-0.004063,0.829532,0.720520,66.404384,-49.736209,100.000000,16.668175,nan,0.000000,0.000000,0.000000,0.000000,0.000000,0.000000,0.000000,0.000000,0.000000,0.000000,0.000000,0.000000,2.59238573,0.00265684,0.00287816,0.00067734,0.00037432,1.76397366,0.00000000,0.82182540,0.00018977,0.00143908,0.00027094,0.00074864,4.10912702,0.00000000,2.93995610
9.628,3,1,1,-529.729,192.734,47.807,8.248,-3.278,-1.284,-9.533,-6.904,nan,1.246704,-0.107208,-0.141487,0.155678,0.260140,-0.028838,-0.004063,0.823261,0.715523,66.412563,-49.736209,100.000000,16.676355,nan,0.000000,0.000000,0.000000,0.000000,0.000000,0.000000,0.000000,0.000000,0.000000,0.000000,0.000000,0.000000,2.60764678,0.00266311,0.00287822,0.00067929,0.00037432,1.76609548,0.00000000,0.83495635,0.00019022,0.00143911,0.00027172,0.00074864,4.17478177,0.00000000,2.94349247
9.700,3,1,1,-529.621,192.795,47.703,7.045,-3.359,-1.556,-8.601,-6.904,nan,1.388858,-0.128959,-0.091525,0.155081,0.259376,-0.012704,0.149552,0.813161,0.712740,66.670373,-49.183157,100.000000,17.487216,nan,0.000000,0.000000,0.000000,0.000000,0.000000,0.000000,0.000000,0.000000,0.000000,0.000000,0.000000,0.000000,2.61607313,0.00266823,0.00287823,0.00067975,0.00037457,1.76707214,0.00000000,0.84240021,0.00019059,0.00143912,0.00027190,0.00074914,4.21200105,0.00000000,2.94512023
9.800,3,1,1,-529.566,192.825,47.650,6.447,-3.399,-1.691,-8.138,-6.245,nan,1.338911,-0.138348,-0.124652,0.158288,0.258387,0.007222,0.226177,0.807278,0.708938,66.820508,-49.023289,100.000000,17.797219,nan,0.000000,0.000000,0.000000,0.000000,0.000000,0.000000,0.000000,0.000000,0.000000,0.000000,0.000000,0.000000,2.62761330,0.00267639,0.00287823,0.00068094,0.00037535,1.76828298,0.00000000,0.85271941,0.00019117,0.00143912,0.00027237,0.00075069,4.26359706,0.00000000,2.94713829
9.900,3,1,1,-529.511,192.855,47.597,5.851,-3.439,-1.826,-7.677,-6.947,nan,1.309721,-0.146408,-0.077350,0.158009,0.257462,0.034494,0.302275,0.797391,0.705206,66.933537,-48.626785,100.000000,18.306752,nan,0.000000,0.000000,0.000000,0.000000,0.000000,0.000000,0.000000,0.000000,0.000000,0.000000,0.000000,0.000000,2.63903578,0.00268553,0.00287831,0.00068139,0.00037674,1.76936009,0.00000000,0.86305373,0.00019182,0.00143915,0.00027256,0.00075348,4.31526863,0.00000000,2.94893348
10.000,3,1,1,-529.455,192.884,47.543,5.258,-3.477,-1.959,-7.218,-6.560,nan,1.299859,-0.153766,-0.028594,0.159550,0.256598,0.068604,0.360245,0.786023,0.701558,67.080120,-48.421338,100.000000,18.658782,nan,0.000000,0.000000,0.000000,0.000000,0.000000,0.000000,0.000000,0.000000,0.000000,0.000000,0.000000,0.000000,2.65034877,0.00269562,0.00287859,0.00068145,0.00037872,1.77031222,0.00000000,0.87340217,0.00019254,0.00143930,0.00027258,0.00075743,4.36701084,0.00000000,2.95052037
10.138,3,1,1,-529.455,192.884,47.543,5.258,-3.477,-1.959,-7.218,-6.560,nan,1.299859,-0.153766,-0.028594,0.161580,0.255435,0.068604,0.360245,0.766914,0.696636,67.093292,-48.421338,100.000000,18.671954,nan,0.000000,0.000000,0.000000,0.000000,0.000000,0.000000,0.000000,0.000000,0.000000,0.000000,0.000000,0.000000,2.66590185,0.00270948,0.00287899,0.00068154,0.00038143,1.77162116,0.00000000,0.88762925,0.00019353,0.00143949,0.00027262,0.00076287,4.43814624,0.00000000,2.95270193
10.200,3,1,1,-529.369,192.926,47.459,4.127,-3.535,-2.202,-6.329,-6.904,nan,1.798380,-0.165693,-0.043647,0.161681,0.254962,0.151230,0.557129,0.757872,0.694513,67.358199,-47.833296,100.000000,19.524903,nan,0.000000,0.000000,0.000000,0.000000,0.000000,0.000000,0.000000,0.000000,0.000000,0.000000,0.000000,0.000000,2.67286889,0.00271681,0.00287986,0.00068163,0.00038439,1.77207935,0.00000000,0.89412685,0.00019406,0.00143993,0.00027265,0.00076878,4.47063425,0.00000000,2.95346559
10.300,3,1,1,-529.312,192.954,47.404,3.542,-3.572,-2.333,-5.875,-6.217,nan,1.565935,-0.170519,-0.031596,0.162735,0.254249,0.201980,0.618766,0.742882,0.691294,67.498897,-47.683543,100.000000,19.815353,nan,0.000000,0.000000,0.000000,0.000000,0.000000,0.000000,0.000000,0.000000,0.000000,0.000000,0.000000,0.000000,2.68391331,0.00272921,0.00288234,0.00068171,0.00039022,1.77271017,0.00000000,0.90451965,0.00019494,0.00144117,0.00027268,0.00078045,4.52259827,0.00000000,2.95451695
10.400,3,1,1,-529.254,192.980,47.347,2.959,-3.609,-2.464,-5.423,-5.816,nan,1.427409,-0.174114,-0.044818,0.162691,0.253573,0.256943,0.593390,0.724364,0.688308,67.645031,-47.484804,100.000000,20.160227,nan,0.000000,0.000000,0.000000,0.000000,0.000000,0.000000,0.000000,0.000000,0.000000,0.000000,0.000000,0.000000,2.69488227,0.00274214,0.00288637,0.00068186,0.00039559,1.77324775,0.00000000,0.91492857,0.00019587,0.00144318,0.00027274,0.00079118,4.57464285,0.00000000,2.95541291
10.500,3,1,1,-529.195,193.007,47.291,2.378,-3.645,-2.594,-4.972,-6.890,nan,1.363053,-0.176265,-0.037607,0.162205,0.252924,0.315369,0.697337,0.704314,0.685612,67.806655,-47.029302,100.000000,20.777353,nan,0.000000,0.000000,0.000000,0.000000,0.000000,0.000000,0.000000,0.000000,0.000000,0.000000,0.000000,0.000000,2.70578713,0.00275538,0.00289242,0.00068197,0.00040299,1.77369931,0.00000000,0.92535505,0.00019681,0.00144621,0.00027279,0.00080598,4.62677527,0.00000000,2.95616552
10.623,3,1,1,-529.195,193.007,47.291,2.378,-3.645,-2.594,-4.972,-6.890,nan,1.363053,-0.176265,-0.037607,0.159209,0.252138,0.315369,0.697337,0.664595,0.682345,67.853721,-47.029302,100.000000,20.824418,nan,0.000000,0.000000,0.000000,0.000000,0.000000,0.000000,0.000000,0.000000,0.000000,0.000000,0.000000,0.000000,2.71924077,0.00277172,0.00289989,0.00068210,0.00041212,1.77425633,0.00000000,0.93821860,0.00019798,0.00144995,0.00027284,0.00082424,4.69109302,0.00000000,2.95709388
10.700,3,1,1,-529.077,193.057,47.176,1.224,-3.715,-2.851,-4.076,-6.145,nan,1.346279,-0.177741,0.020317,0.159686,0.251665,0.439237,0.701180,0.660014,0.680855,68.203553,-46.626408,100.000000,21.577145,nan,0.000000,0.000000,0.000000,0.000000,0.000000,0.000000,0.000000,0.000000,0.000000,0.000000,0.000000,0.000000,2.72752521,0.00278205,0.00290891,0.00068212,0.00041786,1.77448918,0.00000000,0.94624508,0.00019872,0.00145445,0.00027285,0.00083573,4.73122542,0.00000000,2.95748196
10.800,3,1,1,-529.017,193.081,47.118,0.651,-3.750,-2.979,-3.630,-6.159,nan,1.316934,-0.176821,0.003519,0.157656,0.251052,0.503015,0.640674,0.637351,0.679367,68.330016,-46.358961,100.000000,21.971055,nan,0.000000,0.000000,0.000000,0.000000,0.000000,0.000000,0.000000,0.000000,0.000000,0.000000,0.000000,0.000000,2.73828510,0.00279539,0.00292433,0.00068212,0.00042412,1.77473009,0.00000000,0.95672906,0.00019967,0.00146216,0.00027285,0.00084823,4.78364531,0.00000000,2.95788348
10.900,3,1,1,-528.956,193.105,47.059,0.080,-3.783,-3.106,-3.186,-6.374,nan,1.304340,-0.174143,0.017503,0.155526,0.250431,0.566802,0.616343,0.615206,0.678383,68.514347,-46.057249,100.000000,22.457098,nan,0.000000,0.000000,0.000000,0.000000,0.000000,0.000000,0.000000,0.000000,0.000000,0.000000,0.000000,0.000000,2.74901233,0.00280832,0.00294390,0.00068215,0.00042990,1.77491563,0.00000000,0.96723244,0.00020059,0.00147195,0.00027286,0.00085981,4.83616218,0.00000000,2.95819272
11.000,3,1,1,-528.896,193.128,47.000,-0.420,-3.816,-3.220,-2.800,-6.045,nan,1.273618,-0.170791,0.061152,0.149766,0.249798,0.622280,0.875224,0.569662,0.677875,68.682865,-45.885015,100.000000,22.797850,nan,0.000000,0.000000,0.000000,0.000000,0.000000,0.000000,0.000000,0.000000,0.000000,0.000000,0.000000,0.000000,2.75973197,0.00282077,0.00296751,0.00068243,0.00044158,1.77505907,0.00000000,0.97776060,0.00020148,0.00148375,0.00027297,0.00088316,4.88880302,0.00000000,2.95843179
11.122,3,1,1,-528.896,193.128,47.000,-0.420,-3.816,-3.220,-2.800,-6.045,nan,1.273618,-0.170791,0.061152,0.147052,0.249039,0.622280,0.875224,0.546901,0.677268,68.825705,-45.885015,100.000000,22.940690,nan,0.000000,0.000000,0.000000,0.000000,0.000000,0.000000,0.000000,0.000000,0.000000,0.000000,0.000000,0.000000,2.77281856,0.00283596,0.00299631,0.00068278,0.00045583,1.77523408,0.00000000,0.99061359,0.00020257,0.00149816,0.00027311,0.00091165,4.95306797,0.00000000,2.95872347
11.200,3,1,1,-528.773,193.172,46.880,-1.549,-3.879,-3.469,-1.921,-4.827,nan,1.174667,-0.159385,0.087644,0.144094,0.248509,0.743284,0.731774,0.528619,0.677766,69.134137,-45.573730,100.000000,23.560407,nan,0.000000,0.000000,0.000000,0.000000,0.000000,0.000000,0.000000,0.000000,0.000000,0.000000,0.000000,0.000000,2.78112975,0.00284439,0.00302252,0.00068324,0.00046217,1.77528659,0.00000000,0.99883084,0.00020317,0.00151126,0.00027329,0.00092435,4.99415421,0.00000000,2.95881098
11.300,3,1,1,-528.711,193.192,46.820,-2.110,-3.910,-3.593,-1.483,-6.417,nan,1.211224,-0.151624,0.132012,0.141162,0.247792,0.799743,0.584468,0.513808,0.678985,69.315215,-45.035508,100.000000,24.279707,nan,0.000000,0.000000,0.000000,0.000000,0.000000,0.000000,0.000000,0.000000,0.000000,0.000000,0.000000,0.000000,2.79181323,0.00285420,0.00306148,0.00068456,0.00046738,1.77532680,0.00000000,1.00941882,0.00020387,0.00153074,0.00027383,0.00093475,5.04709412,0.00000000,2.95887799
11.400,3,1,1,-528.649,193.213,46.760,-2.667,-3.940,-3.716,-1.048,-5.758,nan,1.253728,-0.142781,0.121683,0.141202,0.247039,0.852440,0.632772,0.524674,0.680760,69.488065,-44.890998,100.000000,24.597067,nan,0.000000,0.000000,0.000000,0.000000,0.000000,0.000000,0.000000,0.000000,0.000000,0.000000,0.000000,0.000000,2.80249434,0.00286289,0.00310573,0.00068569,0.00047347,1.77534686,0.00000000,1.02001969,0.00020449,0.00155287,0.00027428,0.00094695,5.10009847,0.00000000,2.95891144
11.500,3,1,1,-528.587,193.232,46.699,-3.223,-3.969,-3.837,-0.615,-6.174,nan,1.278185,-0.132360,0.080098,0.137799,0.246244,0.900742,0.513115,0.514206,0.683058,69.581343,-44.559952,100.000000,25.021391,nan,0.000000,0.000000,0.000000,0.000000,0.000000,0.000000,0.000000,0.000000,0.000000,0.000000,0.000000,0.000000,2.81318774,0.00287036,0.00315516,0.00068618,0.00047748,1.77535377,0.00000000,1.03064480,0.00020503,0.00157758,0.00027447,0.00095497,5.15322399,0.00000000,2.95892295
11.600,3,1,1,-528.524,193.251,46.637,-3.775,-3.997,-3.958,-0.183,-6.102,nan,1.299753,-0.120253,0.127296,0.132938,0.245406,0.944219,0.417975,0.493356,0.685830,69.747520,-44.314567,100.000000,25.432953,nan,0.000000,0.000000,0.000000,0.000000,0.000000,0.000000,0.000000,0.000000,0.000000,0.000000,0.000000,0.000000,2.82389994,0.00287652,0.00320947,0.00068741,0.00048014,1.77535438,0.00000000,1.04129200,0.00020547,0.00160474,0.00027497,0.00096029,5.20646002,0.00000000,2.95892397
11.726,3,1,1,-528.524,193.251,46.637,-3.775,-3.997,-3.958,-0.183,-6.102,nan,1.299753,-0.120253,0.127296,0.130999,0.244364,0.944219,0.417975,0.495049,0.689246,69.830604,-44.314567,100.000000,25.516037,nan,0.000000,0.000000,0.000000,0.000000,0.000000,0.000000,0.000000,0.000000,0.000000,0.000000,0.000000,0.000000,2.83743354,0.00288431,0.00327807,0.00068897,0.00048350,1.77535515,0.00000000,1.05474353,0.00020602,0.00163904,0.00027559,0.00096701,5.27371767,0.00000000,2.95892525
11.800,3,1,1,-528.398,193.287,46.514,-4.873,-4.052,-4.197,0.676,-5.142,nan,1.185985,-0.093082,0.138573,0.130206,0.243688,1.015270,0.286142,0.514040,0.691847,69.707546,-43.949820,100.000000,25.757726,nan,0.000000,0.000000,0.000000,0.000000,0.000000,0.000000,0.000000,0.000000,0.000000,0.000000,0.000000,0.000000,2.84535091,0.00288704,0.00332436,0.00069005,0.00048442,1.77536130,0.00000000,1.06260374,0.00020622,0.00166218,0.00027602,0.00096885,5.31301870,0.00000000,2.95893550
11.900,3,1,1,-528.335,193.304,46.452,-5.418,-4.078,-4.315,1.102,-5.185,nan,1.239737,-0.078054,0.111422,0.127999,0.242735,1.042287,0.232240,0.522944,0.695655,69.555637,-43.644211,100.000000,25.911426,nan,0.000000,0.000000,0.000000,0.000000,0.000000,0.000000,0.000000,0.000000,0.000000,0.000000,0.000000,0.000000,2.85611235,0.00288963,0.00339053,0.00069099,0.00048524,1.77538351,0.00000000,1.07327245,0.00020640,0.00169526,0.00027640,0.00097049,5.36636223,0.00000000,2.95897251
12.000,3,1,1,-528.271,193.320,46.390,-5.961,-4.104,-4.433,1.528,-6.517,nan,1.267484,-0.061622,0.162904,0.125530,0.241754,1.063247,0.176082,0.532711,0.699650,69.437001,-43.097239,100.000000,26.339762,nan,0.000000,0.000000,0.000000,0.000000,0.000000,0.000000,0.000000,0.000000,0.000000,0.000000,0.000000,0.000000,2.86692147,0.00289125,0.00345940,0.00069302,0.00048572,1.77542618,0.00000000,1.08396591,0.00020652,0.00172970,0.00027721,0.00097143,5.41982954,0.00000000,2.95904363
12.100,3,1,1,-528.208,193.335,46.328,-6.502,-4.128,-4.550,1.952,-6.732,nan,1.281721,-0.044343,0.215981,0.123899,0.240754,1.077871,0.116866,0.547745,0.703744,69.318805,-42.729116,100.000000,26.589689,nan,0.000000,0.000000,0.000000,0.000000,0.000000,0.000000,0.000000,0.000000,0.000000,0.000000,0.000000,0.000000,2.87777386,0.00289209,0.00353018,0.00069657,0.00048592,1.77549585,0.00000000,1.09467324,0.00020658,0.00176509,0.00027863,0.00097185,5.47336620,0.00000000,2.95915975
12.200,3,1,1,-528.144,193.350,46.265,-6.998,-4.152,-4.658,2.340,-5.816,nan,1.287732,-0.028187,0.200933,0.123072,0.239744,1.085604,0.070608,0.564870,0.707852,69.192836,-42.565105,100.000000,26.627731,nan,0.000000,0.000000,0.000000,0.000000,0.000000,0.000000,0.000000,0.000000,0.000000,0.000000,0.000000,0.000000,2.88867243,0.00289243,0.00360208,0.00069965,0.00048600,1.77559602,0.00000000,1.10539626,0.00020660,0.00180104,0.00027986,0.00097200,5.52698128,0.00000000,2.95932670
12.324,3,1,1,-528.144,193.350,46.265,-6.998,-4.152,-4.658,2.340,-5.816,nan,1.287732,-0.028187,0.200933,0.122432,0.238509,1.085604,0.070608,0.585241,0.712820,69.161367,-42.451490,100.000000,26.709877,nan,0.000000,0.000000,0.000000,0.000000,0.000000,0.000000,0.000000,0.000000,0.000000,0.000000,0.000000,0.000000,2.90220005,0.00289285,0.00369128,0.00070347,0.00048610,1.77572030,0.00000000,1.11870605,0.00020663,0.00184564,0.00028139,0.00097219,5.59353026,0.00000000,2.95953384
12.400,3,1,1,-528.016,193.378,46.140,-8.070,-4.198,-4.888,3.182,-5.500,nan,1.141306,0.008406,0.209871,0.121998,0.237757,1.084054,-0.068127,0.606212,0.715767,68.892869,-41.904483,100.000000,26.988386,nan,0.000000,0.000000,0.000000,0.000000,0.000000,0.000000,0.000000,0.000000,0.000000,0.000000,0.000000,0.000000,2.91052119,0.00289287,0.00374550,0.00070601,0.00048615,1.77586042,0.00000000,1.12683025,0.00020663,0.00187275,0.00028240,0.00097230,5.63415124,0.00000000,2.95976737
12.500,3,1,1,-527.952,193.391,46.077,-8.603,-4.220,-5.002,3.601,-5.457,nan,1.206574,0.026713,0.187924,0.120574,0.236785,1.074340,-0.134306,0.621837,0.719463,68.736436,-41.516806,100.000000,27.219630,nan,0.000000,0.000000,0.000000,0.000000,0.000000,0.000000,0.000000,0.000000,0.000000,0.000000,0.000000,0.000000,2.92157298,0.00289318,0.00381582,0.00070870,0.00048642,1.77609745,0.00000000,1.13757141,0.00020666,0.00190791,0.00028348,0.00097285,5.68785707,0.00000000,2.96016241
12.600,3,1,1,-527.888,193.403,46.014,-9.135,-4.241,-5.115,4.020,-5.758,nan,1.249714,0.045276,0.218828,0.121762,0.235848,1.058996,-0.228305,0.646515,0.722894,68.599340,-41.051602,100.000000,27.547738,nan,0.000000,0.000000,0.000000,0.000000,0.000000,0.000000,0.000000,0.000000,0.000000,0.000000,0.000000,0.000000,2.93269825,0.00289405,0.00388412,0.00071234,0.00048722,1.77639274,0.00000000,1.14832778,0.00020672,0.00194206,0.00028494,0.00097443,5.74163890,0.00000000,2.96065457
12.700,3,1,1,-527.823,193.415,45.951,-9.665,-4.262,-5.228,4.438,-6.174,nan,1.246672,0.063536,0.245761,0.122166,0.234957,1.038300,-0.292875,0.666108,0.726011,68.423404,-40.548687,100.000000,27.874717,nan,0.000000,0.000000,0.000000,0.000000,0.000000,0.000000,0.000000,0.000000,0.000000,0.000000,0.000000,0.000000,2.94390852,0.00289577,0.00394980,0.00071694,0.00048852,1.77675269,0.00000000,1.15910479,0.00020684,0.00197490,0.00028678,0.00097705,5.79552393,0.00000000,2.96125449
12.800,3,1,1,-527.759,193.426,45.887,-10.193,-4.281,-5.339,4.854,-6.102,nan,1.270435,0.080878,0.188470,0.122829,0.234120,1.012587,-0.282592,0.684575,0.728774,68.265010,-40.112856,100.000000,28.152154,nan,0.000000,0.000000,0.000000,0.000000,0.000000,0.000000,0.000000,0.000000,0.000000,0.000000,0.000000,0.000000,2.95520577,0.00289857,0.00401230,0.00071965,0.00048974,1.77718353,0.00000000,1.16990198,0.00020704,0.00200615,0.00028786,0.00097948,5.84950991,0.00000000,2.96197256
12.927,3,1,1,-527.759,193.426,45.887,-10.193,-4.281,-5.339,4.854,-6.102,nan,1.270435,0.080878,0.188470,0.123440,0.233071,1.012587,-0.282592,0.702809,0.732210,68.219863,-39.865768,100.000000,28.354095,nan,0.000000,0.000000,0.000000,0.000000,0.000000,0.000000,0.000000,0.000000,0.000000,0.000000,0.000000,0.000000,2.96959033,0.00290212,0.00409179,0.00072309,0.00049129,1.77773156,0.00000000,1.18365049,0.00020729,0.00204589,0.00028924,0.00098258,5.91825245,0.00000000,2.96288593
13.000,3,1,1,-527.630,193.446,45.760,-11.245,-4.319,-5.561,5.684,-6.303,nan,1.116036,0.113079,0.138760,0.123197,0.232556,0.947910,-0.364869,0.709795,0.733636,67.951348,-39.149793,100.000000,28.801554,nan,0.000000,0.000000,0.000000,0.000000,0.000000,0.000000,0.000000,0.000000,0.000000,0.000000,0.000000,0.000000,2.97793383,0.00290608,0.00413156,0.00072415,0.00049276,1.77816059,0.00000000,1.19151868,0.00020758,0.00206578,0.00028966,0.00098552,5.95759340,0.00000000,2.96360099
