t,controller_id,state_code,wp_idx,x,y,dist,yaw_deg,yaw_to_wp_deg,yaw_ref_deg,yaw_err_deg,yaw_rate_deg_s,speed_ref,speed_meas,roll_deg,roll_rate_deg_s,roll_rms_window_deg,roll_rms_total_deg,pitch_deg,pitch_rate_deg_s,pitch_rms_window_deg,pitch_rms_total_deg,base_cmd,diff_cmd,T_left,T_right,J_inst,J_goal,J_wave_roll,J_progress,J_smooth,J_mpc_distance,J_mpc_final,J_mpc_heading,J_mpc_wrong_way,J_mpc_pitch,J_mpc_control,J_mpc_slew,J_mpc_turn,J_total,J_roll,J_pitch,J_roll_rate,J_pitch_rate,J_goal_heading,J_no_progress,J_control,I_roll,I_pitch,I_roll_rate,I_pitch_rate,I_control,I_no_progress,I_goal_heading
0.200,3,1,1,-532.001,189.998,50.001,57.316,0.003,9.555,-47.762,0.645,nan,0.003568,-1.325378,0.788233,1.325378,1.325378,-0.992466,1.073030,0.992466,0.992466,58.626739,-56.221749,8.000000,2.404991,nan,0.000000,0.000000,0.000000,0.000000,0.000000,0.000000,0.000000,0.000000,0.000000,0.000000,0.000000,0.000000,0.04089713,0.00071857,0.00005756,0.00004538,0.00001682,0.03999186,0.00000000,0.00006694,0.00005133,0.00002878,0.00001815,0.00003364,0.00033468,0.00000000,0.06665309
0.437,3,1,1,-532.001,189.998,50.001,57.316,0.003,9.555,-47.762,0.645,nan,0.003568,-1.325378,0.788233,1.325378,1.325378,-0.992466,1.073030,0.992466,0.992466,48.741382,-60.587958,16.000000,-5.595009,nan,0.000000,0.000000,0.000000,0.000000,0.000000,0.000000,0.000000,0.000000,0.000000,0.000000,0.000000,0.000000,0.14246069,0.00249401,0.00019978,0.00015752,0.00005838,0.13880316,0.00000000,0.00074784,0.00017814,0.00009989,0.00006301,0.00011677,0.00373919,0.00000000,0.23133861
0.500,3,1,1,-531.993,190.003,49.993,57.298,-0.003,9.548,-47.750,0.043,nan,0.162955,-0.890093,1.816270,1.197987,1.266138,-0.395207,1.690850,0.841856,0.923605,48.744066,-61.637088,24.000000,-12.893022,nan,0.000000,0.000000,0.000000,0.000000,0.000000,0.000000,0.000000,0.000000,0.000000,0.000000,0.000000,0.000000,0.16960146,0.00270698,0.00020578,0.00031588,0.00008583,0.16507131,0.00000000,0.00121569,0.00019336,0.00010289,0.00012635,0.00017166,0.00607847,0.00000000,0.27511884
0.600,3,1,1,-531.990,190.004,49.990,57.268,-0.005,9.542,-47.726,-1.074,nan,0.127066,-0.709815,1.819206,1.096513,1.175390,-0.246369,1.414189,0.739402,0.832673,49.765805,-63.267604,32.000000,-13.501799,nan,0.000000,0.000000,0.000000,0.000000,0.000000,0.000000,0.000000,0.000000,0.000000,0.000000,0.000000,0.000000,0.21291806,0.00292174,0.00020947,0.00056779,0.00011628,0.20668138,0.00000000,0.00242140,0.00020870,0.00010474,0.00022711,0.00023255,0.01210701,0.00000000,0.34446896
0.700,3,1,1,-531.984,190.007,49.984,57.199,-0.009,9.529,-47.671,-0.115,nan,0.099308,-0.498504,2.759227,1.005770,1.091549,-0.077358,2.287415,0.662246,0.760291,50.565556,-65.240215,40.000000,-14.674659,nan,0.000000,0.000000,0.000000,0.000000,0.000000,0.000000,0.000000,0.000000,0.000000,0.000000,0.000000,0.000000,0.25701255,0.00302767,0.00020984,0.00114730,0.00019593,0.24819592,0.00000000,0.00423589,0.00021626,0.00010492,0.00045892,0.00039186,0.02117943,0.00000000,0.41365987
0.800,3,1,1,-531.980,190.011,49.980,57.102,-0.012,9.510,-47.592,-1.404,nan,0.101734,-0.278826,3.441725,0.925167,1.015576,0.110299,2.963674,0.606220,0.704773,51.267980,-66.804837,48.000000,-15.536857,nan,0.000000,0.000000,0.000000,0.000000,0.000000,0.000000,0.000000,0.000000,0.000000,0.000000,0.000000,0.000000,0.30203579,0.00306083,0.00021058,0.00204959,0.00032974,0.28960318,0.00000000,0.00678186,0.00021863,0.00010529,0.00081984,0.00065948,0.03390932,0.00000000,0.48267197
0.936,3,1,1,-531.980,190.011,49.980,57.102,-0.012,9.510,-47.592,-1.404,nan,0.101734,-0.278826,3.441725,0.862997,0.935791,0.110299,2.963674,0.562796,0.646221,51.856747,-69.297217,56.000000,-17.440470,nan,0.000000,0.000000,0.000000,0.000000,0.000000,0.000000,0.000000,0.000000,0.000000,0.000000,0.000000,0.000000,0.36436542,0.00310585,0.00021159,0.00327437,0.00051137,0.34580961,0.00000000,0.01145264,0.00022185,0.00010579,0.00130975,0.00102274,0.05726320,0.00000000,0.57634934
1.000,3,1,1,-531.968,190.020,49.968,56.797,-0.023,9.452,-47.345,-1.948,nan,0.223263,0.222148,3.154436,0.811072,0.903591,0.536937,2.728781,0.559629,0.639010,52.374114,-70.228183,64.000000,-17.854070,nan,0.000000,0.000000,0.000000,0.000000,0.000000,0.000000,0.000000,0.000000,0.000000,0.000000,0.000000,0.000000,0.39409033,0.00311936,0.00022286,0.00376093,0.00058419,0.37211564,0.00000000,0.01428734,0.00022281,0.00011143,0.00150437,0.00116839,0.07143671,0.00000000,0.62019274
1.100,3,1,1,-531.962,190.027,49.962,56.582,-0.031,9.410,-47.172,-2.994,nan,0.203861,0.460795,2.369852,0.779960,0.869374,0.757269,2.334698,0.584897,0.651855,52.743908,-71.762661,72.000000,-19.018753,nan,0.000000,0.000000,0.000000,0.000000,0.000000,0.000000,0.000000,0.000000,0.000000,0.000000,0.000000,0.000000,0.44094342,0.00320992,0.00025780,0.00418863,0.00066722,0.41278672,0.00000000,0.01983314,0.00022928,0.00012890,0.00167545,0.00133443,0.09916570,0.00000000,0.68797786
1.200,3,1,1,-531.955,190.036,49.955,56.323,-0.042,9.359,-46.964,-2.020,nan,0.208820,0.687131,3.417051,0.771180,0.854359,1.003318,3.983533,0.639186,0.691371,52.946467,-72.000000,80.000000,-19.053533,nan,0.000000,0.000000,0.000000,0.000000,0.000000,0.000000,0.000000,0.000000,0.000000,0.000000,0.000000,0.000000,0.48940595,0.00341125,0.00031912,0.00507772,0.00090888,0.45309358,0.00000000,0.02659539,0.00024366,0.00015956,0.00203109,0.00181776,0.13297696,0.00000000,0.75515597
1.300,3,1,1,-531.947,190.048,49.947,56.017,-0.055,9.299,-46.718,-2.822,nan,0.230430,0.912004,3.414017,0.785027,0.859329,1.279536,4.297098,0.721286,0.758268,52.971014,-72.000000,88.000000,-19.028986,nan,0.000000,0.000000,0.000000,0.000000,0.000000,0.000000,0.000000,0.000000,0.000000,0.000000,0.000000,0.000000,0.53904861,0.00376612,0.00041891,0.00596574,0.00119024,0.49300252,0.00000000,0.03470509,0.00026901,0.00020946,0.00238629,0.00238049,0.17352543,0.00000000,0.82167087
1.422,3,1,1,-531.947,190.048,49.947,56.017,-0.055,9.299,-46.718,-2.822,nan,0.230430,0.912004,3.414017,0.796382,0.864341,1.279536,4.297098,0.783156,0.820558,52.746899,-72.000000,96.000000,-19.253101,nan,0.000000,0.000000,0.000000,0.000000,0.000000,0.000000,0.000000,0.000000,0.000000,0.000000,0.000000,0.000000,0.60140032,0.00419892,0.00054062,0.00704877,0.00153340,0.54167624,0.00000000,0.04640237,0.00029992,0.00027031,0.00281951,0.00306680,0.23201184,0.00000000,0.90279373
1.500,3,1,1,-531.935,190.067,49.935,55.314,-0.077,9.165,-46.149,-4.197,nan,0.267212,1.315381,2.261011,0.847662,0.895547,1.765181,2.492614,0.897684,0.899866,52.714740,-71.938996,100.000000,-19.224256,nan,0.000000,0.000000,0.000000,0.000000,0.000000,0.000000,0.000000,0.000000,0.000000,0.000000,0.000000,0.000000,0.64093916,0.00477428,0.00068863,0.00735234,0.00160719,0.57202867,0.00000000,0.05448804,0.00034102,0.00034432,0.00294094,0.00321438,0.27244021,0.00000000,0.95338112
1.600,3,1,1,-531.927,190.082,49.927,54.872,-0.095,9.078,-45.794,-4.612,nan,0.296814,1.492936,2.147697,0.909072,0.947296,1.949413,2.131229,1.009812,1.004802,52.293771,-71.655634,100.000000,-19.361863,nan,0.000000,0.000000,0.000000,0.000000,0.000000,0.000000,0.000000,0.000000,0.000000,0.000000,0.000000,0.000000,0.69123376,0.00572460,0.00092010,0.00770353,0.00167635,0.61034863,0.00000000,0.06486055,0.00040890,0.00046005,0.00308141,0.00335271,0.32430275,0.00000000,1.01724772
1.700,3,1,1,-531.918,190.099,49.919,54.426,-0.114,8.988,-45.438,-5.056,nan,0.321506,1.627974,1.266370,0.973655,1.003668,2.084177,1.305901,1.114148,1.104000,51.815431,-71.366556,100.000000,-19.551124,nan,0.000000,0.000000,0.000000,0.000000,0.000000,0.000000,0.000000,0.000000,0.000000,0.000000,0.000000,0.000000,0.74095955,0.00685636,0.00118510,0.00782582,0.00170236,0.64813324,0.00000000,0.07525666,0.00048974,0.00059255,0.00313033,0.00340472,0.37628332,0.00000000,1.08022207
1.800,3,1,1,-531.910,190.118,49.910,53.905,-0.135,8.885,-45.020,-5.042,nan,0.348329,1.749791,1.019803,1.039286,1.062300,2.225965,1.338577,1.213847,1.199626,51.346196,-71.121183,100.000000,-19.774987,nan,0.000000,0.000000,0.000000,0.000000,0.000000,0.000000,0.000000,0.000000,0.000000,0.000000,0.000000,0.000000,0.79010741,0.00816208,0.00148696,0.00790502,0.00172965,0.68517618,0.00000000,0.08564752,0.00058301,0.00074348,0.00316201,0.00345930,0.42823762,0.00000000,1.14196030
1.930,3,1,1,-531.910,190.118,49.910,53.905,-0.135,8.885,-45.020,-5.042,nan,0.348329,1.749791,1.019803,1.093930,1.125234,2.225965,1.338577,1.295461,1.299794,50.778641,-71.121183,100.000000,-20.000000,nan,0.000000,0.000000,0.000000,0.000000,0.000000,0.000000,0.000000,0.000000,0.000000,0.000000,0.000000,0.000000,0.85402813,0.00985995,0.00187949,0.00800800,0.00176514,0.73334471,0.00000000,0.09917085,0.00070428,0.00093975,0.00320320,0.00353028,0.49585423,0.00000000,1.22224118
2.000,3,1,1,-531.892,190.162,49.892,52.837,-0.186,8.667,-44.169,-5.171,nan,0.364705,1.911400,0.605785,1.154630,1.163729,2.513404,1.498374,1.391381,1.363918,50.512066,-70.594031,100.000000,-20.000000,nan,0.000000,0.000000,0.000000,0.000000,0.000000,0.000000,0.000000,0.000000,0.000000,0.000000,0.000000,0.000000,0.88766245,0.01095029,0.00214882,0.00802756,0.00178907,0.75829789,0.00000000,0.10644882,0.00078216,0.00107441,0.00321102,0.00357814,0.53224410,0.00000000,1.26382982
2.100,3,1,1,-531.883,190.186,49.883,52.229,-0.214,8.544,-43.685,-6.761,nan,0.428828,1.949122,0.206155,1.209527,1.215194,2.635371,1.026592,1.483099,1.454274,50.096908,-70.029295,100.000000,-19.932387,nan,0.000000,0.000000,0.000000,0.000000,0.000000,0.000000,0.000000,0.000000,0.000000,0.000000,0.000000,0.000000,0.93498018,0.01256970,0.00257175,0.00803080,0.00180511,0.79316159,0.00000000,0.11684123,0.00089784,0.00128587,0.00321232,0.00361023,0.58420617,0.00000000,1.32193598
2.200,3,1,1,-531.874,190.212,49.874,51.598,-0.243,8.415,-43.183,-6.532,nan,0.471661,1.949229,-0.160817,1.256894,1.259977,2.704402,0.432070,1.566938,1.537209,49.728256,-69.771300,100.000000,-20.000000,nan,0.000000,0.000000,0.000000,0.000000,0.000000,0.000000,0.000000,0.000000,0.000000,0.000000,0.000000,0.000000,0.98154447,0.01419042,0.00301743,0.00803277,0.00180796,0.82725225,0.00000000,0.12724364,0.00101360,0.00150872,0.00321311,0.00361591,0.63621818,0.00000000,1.37875375
2.300,3,1,1,-531.866,190.238,49.866,50.948,-0.274,8.282,-42.665,-7.334,nan,0.507557,1.917052,-0.461843,1.295978,1.297143,2.719534,-0.064647,1.640293,1.610011,49.421844,-69.323927,100.000000,-19.902083,nan,0.000000,0.000000,0.000000,0.000000,0.000000,0.000000,0.000000,0.000000,0.000000,0.000000,0.000000,0.000000,1.02723237,0.01575729,0.00346789,0.00804901,0.00180802,0.86051326,0.00000000,0.13763690,0.00112552,0.00173395,0.00321960,0.00361604,0.68818451,0.00000000,1.43418876
2.400,3,1,1,-531.857,190.266,49.858,50.279,-0.305,8.145,-42.134,-6.833,nan,0.534345,1.858186,-0.732952,1.326711,1.326545,2.692972,-0.438731,1.702323,1.671885,49.185714,-69.096037,100.000000,-19.910323,nan,0.000000,0.000000,0.000000,0.000000,0.000000,0.000000,0.000000,0.000000,0.000000,0.000000,0.000000,0.000000,1.07205651,0.01723057,0.00390994,0.00808994,0.00181095,0.89297639,0.00000000,0.14803871,0.00123076,0.00195497,0.00323598,0.00362191,0.74019354,0.00000000,1.48829398
2.517,3,1,1,-531.857,190.266,49.858,50.279,-0.305,8.145,-42.134,-6.833,nan,0.534345,1.858186,-0.732952,1.354163,1.357077,2.692972,-0.438731,1.757047,1.735190,48.897525,-69.096037,100.000000,-20.000000,nan,0.000000,0.000000,0.000000,0.000000,0.000000,0.000000,0.000000,0.000000,0.000000,0.000000,0.000000,0.000000,1.12437096,0.01894991,0.00442582,0.00813771,0.00181438,0.93086123,0.00000000,0.16018191,0.00135357,0.00221291,0.00325508,0.00362875,0.80090956,0.00000000,1.55143538
2.600,3,1,1,-531.842,190.324,49.843,48.899,-0.372,7.861,-41.038,-7.663,nan,1.252616,1.659862,-0.915632,1.368265,1.368254,2.542934,-0.772057,1.796669,1.768083,48.889760,-68.300775,100.000000,-19.411015,nan,0.000000,0.000000,0.000000,0.000000,0.000000,0.000000,0.000000,0.000000,0.000000,0.000000,0.000000,0.000000,1.15999419,0.01992788,0.00475373,0.00819085,0.00182193,0.95648093,0.00000000,0.16881887,0.00142342,0.00237687,0.00327634,0.00364387,0.84409433,0.00000000,1.59413489
2.700,3,1,1,-531.834,190.354,49.836,48.191,-0.407,7.715,-40.477,-7.191,nan,0.979590,1.518217,-1.105785,1.374577,1.374337,2.416842,-1.025195,1.825526,1.797429,48.866007,-68.050205,100.000000,-19.184198,nan,0.000000,0.000000,0.000000,0.000000,0.000000,0.000000,0.000000,0.000000,0.000000,0.000000,0.000000,0.000000,1.20177488,0.02091135,0.00510977,0.00828401,0.00183795,0.98643985,0.00000000,0.17919195,0.00149367,0.00255488,0.00331361,0.00367590,0.89595974,0.00000000,1.64406642
2.800,3,1,1,-531.827,190.385,49.829,47.474,-0.443,7.566,-39.908,-6.646,nan,0.831195,1.353661,-1.341269,1.373778,1.373576,2.257581,-1.340096,1.844016,1.816568,48.908575,-67.807981,100.000000,-18.899406,nan,0.000000,0.000000,0.000000,0.000000,0.000000,0.000000,0.000000,0.000000,0.000000,0.000000,0.000000,0.000000,1.24247341,0.02169233,0.00542009,0.00842093,0.00186529,1.01553184,0.00000000,0.18954293,0.00154945,0.00271004,0.00336837,0.00373057,0.94771466,0.00000000,1.69255307
2.900,3,1,1,-531.820,190.418,49.821,46.749,-0.480,7.415,-39.334,-8.236,nan,0.760080,1.172933,-1.426202,1.366866,1.366903,2.070984,-1.511269,1.852918,1.826286,49.012692,-67.189815,100.000000,-18.177124,nan,0.000000,0.000000,0.000000,0.000000,0.000000,0.000000,0.000000,0.000000,0.000000,0.000000,0.000000,0.000000,1.28215105,0.02227952,0.00568160,0.00857596,0.00190010,1.04383232,0.00000000,0.19988156,0.00159139,0.00284080,0.00343038,0.00380020,0.99940780,0.00000000,1.73972053
3.024,3,1,1,-531.820,190.418,49.821,46.749,-0.480,7.415,-39.334,-8.236,nan,0.760080,1.172933,-1.426202,1.360416,1.359242,2.070984,-1.511269,1.861146,1.837321,49.040775,-67.189815,100.000000,-18.149040,nan,0.000000,0.000000,0.000000,0.000000,0.000000,0.000000,0.000000,0.000000,0.000000,0.000000,0.000000,0.000000,1.33122070,0.02300571,0.00600501,0.00876768,0.00194315,1.07883264,0.00000000,0.21266649,0.00164327,0.00300251,0.00350707,0.00388631,1.06333246,0.00000000,1.79805441
3.100,3,1,1,-531.804,190.484,49.807,45.340,-0.557,7.117,-38.222,-8.265,nan,1.416499,0.793304,-2.106800,1.344847,1.347798,1.642148,-2.531139,1.854025,1.832615,49.317564,-66.525016,100.000000,-17.207453,nan,0.000000,0.000000,0.000000,0.000000,0.000000,0.000000,0.000000,0.000000,0.000000,0.000000,0.000000,0.000000,1.36007218,0.02321021,0.00613019,0.00902523,0.00201750,1.09917764,0.00000000,0.22051141,0.00165787,0.00306509,0.00361009,0.00403501,1.10255704,0.00000000,1.83196273
3.200,3,1,1,-531.796,190.518,49.799,44.539,-0.597,6.951,-37.588,-7.033,nan,1.110985,0.563872,-1.633134,1.326245,1.329741,1.353075,-2.139946,1.839526,1.819118,49.568806,-66.363457,100.000000,-16.794650,nan,0.000000,0.000000,0.000000,0.000000,0.000000,0.000000,0.000000,0.000000,0.000000,0.000000,0.000000,0.000000,1.39665357,0.02334564,0.00624160,0.00922810,0.00208717,1.12496975,0.00000000,0.23078131,0.00166755,0.00312080,0.00369124,0.00417434,1.15390656,0.00000000,1.87494958
3.300,3,1,1,-531.788,190.553,49.791,43.795,-0.637,6.795,-37.001,-7.434,nan,0.943620,0.345820,-1.554042,1.306156,1.310207,1.056022,-2.181795,1.819525,1.800157,49.841104,-65.944930,100.000000,-16.103826,nan,0.000000,0.000000,0.000000,0.000000,0.000000,0.000000,0.000000,0.000000,0.000000,0.000000,0.000000,0.000000,1.43229792,0.02339662,0.00630951,0.00941196,0.00215965,1.14998307,0.00000000,0.24103710,0.00167119,0.00315476,0.00376478,0.00431929,1.20518552,0.00000000,1.91663845
3.400,3,1,1,-531.779,190.588,49.783,43.049,-0.677,6.637,-36.412,-8.666,nan,0.855584,0.128046,-2.579515,1.285785,1.290370,0.741966,-3.794182,1.795666,1.777342,50.132965,-65.380656,100.000000,-15.247691,nan,0.000000,0.000000,0.000000,0.000000,0.000000,0.000000,0.000000,0.000000,0.000000,0.000000,0.000000,0.000000,1.46752907,0.02340362,0.00634305,0.00991868,0.00237891,1.17421524,0.00000000,0.25126957,0.00167169,0.00317153,0.00396747,0.00475781,1.25634787,0.00000000,1.95702540
3.500,3,1,1,-531.770,190.624,49.773,42.301,-0.719,6.478,-35.823,-7.105,nan,0.815081,-0.084563,-1.515385,1.266239,1.271314,0.424448,-2.289824,1.769793,1.752494,50.434156,-65.303611,100.000000,-14.869455,nan,0.000000,0.000000,0.000000,0.000000,0.000000,0.000000,0.000000,0.000000,0.000000,0.000000,0.000000,0.000000,1.50147044,0.02340667,0.00635403,0.01009354,0.00245876,1.19766768,0.00000000,0.26148976,0.00167190,0.00317701,0.00403742,0.00491752,1.30744880,0.00000000,1.99611280
3.619,3,1,1,-531.770,190.624,49.773,42.301,-0.719,6.478,-35.823,-7.105,nan,0.815081,-0.084563,-1.515385,1.247563,1.249671,0.424448,-2.289824,1.745091,1.724298,50.599958,-65.303611,100.000000,-14.703653,nan,0.000000,0.000000,0.000000,0.000000,0.000000,0.000000,0.000000,0.000000,0.000000,0.000000,0.000000,0.000000,1.54192337,0.02341030,0.00636711,0.01030199,0.00255395,1.22562345,0.00000000,0.27366658,0.00167216,0.00318355,0.00412079,0.00510789,1.36833288,0.00000000,2.04270575
3.700,3,1,1,-531.748,190.698,49.753,40.805,-0.804,6.160,-34.645,-8.107,nan,1.197792,-0.483355,-2.357359,1.232323,1.237670,-0.193595,-3.771559,1.720292,1.705056,51.028627,-64.429784,100.000000,-13.401157,nan,0.000000,0.000000,0.000000,0.000000,0.000000,0.000000,0.000000,0.000000,0.000000,0.000000,0.000000,0.000000,1.56848147,0.02349083,0.00636896,0.01064403,0.00272905,1.24335446,0.00000000,0.28189413,0.00167792,0.00318448,0.00425761,0.00545811,1.40947065,0.00000000,2.07225744
3.800,3,1,1,-531.735,190.736,49.741,40.057,-0.847,5.999,-34.057,-7.277,nan,1.027862,-0.666210,-3.465356,1.220149,1.225719,-0.493880,-5.846995,1.698227,1.683790,51.301920,-64.225888,100.000000,-12.923968,nan,0.000000,0.000000,0.000000,0.000000,0.000000,0.000000,0.000000,0.000000,0.000000,0.000000,0.000000,0.000000,1.60149036,0.02368013,0.00638382,0.01155863,0.00324980,1.26455591,0.00000000,0.29206208,0.00169144,0.00319191,0.00462345,0.00649961,1.46031039,0.00000000,2.10759318
3.900,3,1,1,-531.722,190.774,49.728,39.310,-0.892,5.839,-33.471,-8.408,nan,0.935724,-0.834014,-4.925380,1.211333,1.217020,-0.786991,-8.879505,1.680110,1.666372,51.551690,-63.680192,100.000000,-12.128501,nan,0.000000,0.000000,0.000000,0.000000,0.000000,0.000000,0.000000,0.000000,0.000000,0.000000,0.000000,0.000000,1.63548441,0.02397667,0.00642154,0.01340548,0.00445030,1.28502455,0.00000000,0.30220587,0.00171262,0.00321077,0.00536219,0.00890060,1.51102933,0.00000000,2.14170759
4.000,3,1,1,-531.708,190.812,49.714,38.564,-0.936,5.679,-32.885,-8.623,nan,0.888063,-0.983678,-2.178036,1.205893,1.211593,-1.066222,-4.189874,1.666854,1.653693,51.773705,-63.295338,100.000000,-11.521633,nan,0.000000,0.000000,0.000000,0.000000,0.000000,0.000000,0.000000,0.000000,0.000000,0.000000,0.000000,0.000000,1.66649291,0.02438933,0.00649080,0.01376675,0.00471768,1.30478983,0.00000000,0.31233854,0.00174209,0.00324540,0.00550670,0.00943535,1.56169269,0.00000000,2.17464972
4.100,3,1,1,-531.692,190.851,49.699,37.819,-0.981,5.518,-32.301,-8.594,nan,0.866083,-1.113218,-1.901864,1.203606,1.209228,-1.323156,-3.876511,1.658931,1.646230,51.965936,-62.953975,100.000000,-10.988039,nan,0.000000,0.000000,0.000000,0.000000,0.000000,0.000000,0.000000,0.000000,0.000000,0.000000,0.000000,0.000000,1.69682481,0.02491785,0.00659746,0.01404222,0.00494657,1.32386089,0.00000000,0.32245982,0.00177985,0.00329873,0.00561689,0.00989314,1.61229912,0.00000000,2.20643481
4.239,3,1,1,-531.692,190.851,49.699,37.819,-0.981,5.518,-32.301,-8.594,nan,0.866083,-1.113218,-1.901864,1.198082,1.206127,-1.323156,-3.876511,1.664838,1.636413,51.994137,-62.953975,100.000000,-10.959838,nan,0.000000,0.000000,0.000000,0.000000,0.000000,0.000000,0.000000,0.000000,0.000000,0.000000,0.000000,0.000000,1.73895069,0.02565190,0.00674561,0.01442481,0.00526447,1.35034790,0.00000000,0.33651601,0.00183228,0.00337280,0.00576992,0.01052893,1.68258003,0.00000000,2.25057983
4.300,3,1,1,-531.657,190.931,49.666,36.336,-1.074,5.196,-31.139,-7.033,nan,0.811899,-1.310037,-1.386979,1.201008,1.207705,-1.747348,-3.196083,1.666951,1.638083,52.288191,-62.536884,100.000000,-10.248692,nan,0.000000,0.000000,0.000000,0.000000,0.000000,0.000000,0.000000,0.000000,0.000000,0.000000,0.000000,0.000000,1.75670183,0.02609917,0.00685928,0.01451434,0.00535954,1.36117826,0.00000000,0.34269125,0.00186423,0.00342964,0.00580573,0.01071909,1.71345623,0.00000000,2.26863043
4.400,3,1,1,-531.637,190.971,49.647,35.596,-1.120,5.035,-30.561,-7.262,nan,0.849911,-1.376871,-0.741772,1.205603,1.211910,-1.908483,-1.886201,1.673257,1.644882,52.399536,-62.153576,100.000000,-9.754040,nan,0.000000,0.000000,0.000000,0.000000,0.000000,0.000000,0.000000,0.000000,0.000000,0.000000,0.000000,0.000000,1.78498895,0.02690751,0.00708115,0.01455623,0.00541372,1.37824561,0.00000000,0.35278472,0.00192197,0.00354057,0.00582249,0.01082744,1.76392360,0.00000000,2.29707602
4.500,3,1,1,-531.616,191.011,49.627,34.858,-1.168,4.874,-29.984,-6.632,nan,0.880717,-1.421601,-0.477775,1.208273,1.217082,-2.031622,-1.456971,1.696005,1.654684,52.492328,-61.921307,100.000000,-9.428979,nan,0.000000,0.000000,0.000000,0.000000,0.000000,0.000000,0.000000,0.000000,0.000000,0.000000,0.000000,0.000000,1.81267112,0.02776932,0.00733259,0.01457361,0.00544605,1.39467653,0.00000000,0.36287301,0.00198352,0.00366630,0.00582945,0.01089210,1.81436506,0.00000000,2.32446088
4.600,3,1,1,-531.594,191.052,49.605,34.181,-1.216,4.723,-29.458,-8.566,nan,0.901317,-1.442888,-0.131377,1.231287,1.222563,-2.108341,-0.611048,1.747584,1.666128,52.557163,-61.271598,100.000000,-8.714435,nan,0.000000,0.000000,0.000000,0.000000,0.000000,0.000000,0.000000,0.000000,0.000000,0.000000,0.000000,0.000000,1.83979610,0.02865795,0.00760364,0.01457493,0.00545174,1.41055033,0.00000000,0.37295752,0.00204700,0.00380182,0.00582997,0.01090349,1.86478758,0.00000000,2.35091722
4.726,3,1,1,-531.594,191.052,49.605,34.181,-1.216,4.723,-29.458,-8.566,nan,0.901317,-1.442888,-0.131377,1.249761,1.229109,-2.108341,-0.611048,1.779053,1.679761,52.319095,-61.271598,100.000000,-8.952502,nan,0.000000,0.000000,0.000000,0.000000,0.000000,0.000000,0.000000,0.000000,0.000000,0.000000,0.000000,0.000000,1.87403776,0.02977954,0.00794574,0.01457659,0.00545893,1.43058577,0.00000000,0.38569119,0.00212711,0.00397287,0.00583064,0.01091785,1.92845596,0.00000000,2.38430962
4.800,3,1,1,-531.557,191.115,49.569,32.948,-1.289,4.458,-28.489,-7.076,nan,0.890608,-1.435474,0.246900,1.269439,1.232612,-2.154159,0.083771,1.811280,1.688230,52.367334,-60.956814,100.000000,-8.589480,nan,0.000000,0.000000,0.000000,0.000000,0.000000,0.000000,0.000000,0.000000,0.000000,0.000000,0.000000,0.000000,1.89323856,0.03042665,0.00815392,0.01458001,0.00545901,1.44150963,0.00000000,0.39310936,0.00217333,0.00407696,0.00583200,0.01091801,1.96554678,0.00000000,2.40251605
4.900,3,1,1,-531.531,191.157,49.544,32.274,-1.338,4.307,-27.967,-7.764,nan,0.891138,-1.408359,0.324498,1.273007,1.236533,-2.128815,0.388119,1.819684,1.698587,52.303345,-60.526894,100.000000,-8.223549,nan,0.000000,0.000000,0.000000,0.000000,0.000000,0.000000,0.000000,0.000000,0.000000,0.000000,0.000000,0.000000,1.91874369,0.03127285,0.00843012,0.01458803,0.00546130,1.45581060,0.00000000,0.40318079,0.00223377,0.00421506,0.00583521,0.01092260,2.01590396,0.00000000,2.42635100
5.000,3,1,1,-531.503,191.199,49.517,31.631,-1.387,4.161,-27.470,-7.434,nan,0.905602,-1.368535,0.510877,1.305644,1.239370,-2.072539,0.784059,1.869199,1.707047,52.378931,-60.289620,100.000000,-7.910689,nan,0.000000,0.000000,0.000000,0.000000,0.000000,0.000000,0.000000,0.000000,0.000000,0.000000,0.000000,0.000000,1.94369422,0.03207176,0.00869187,0.01460791,0.00547067,1.46960619,0.00000000,0.41324581,0.00229084,0.00434594,0.00584316,0.01094133,2.06622904,0.00000000,2.44934366
5.100,3,1,1,-531.474,191.240,49.489,30.902,-1.436,4.000,-26.902,-7.549,nan,0.915041,-1.307550,0.715205,1.319902,1.240771,-1.970724,1.259566,1.891206,1.712719,52.210154,-59.932315,100.000000,-7.722161,nan,0.000000,0.000000,0.000000,0.000000,0.000000,0.000000,0.000000,0.000000,0.000000,0.000000,0.000000,0.000000,1.96799172,0.03280033,0.00892831,0.01464684,0.00549481,1.48282359,0.00000000,0.42329785,0.00234288,0.00446415,0.00585873,0.01098962,2.11648923,0.00000000,2.47137265
5.200,3,1,1,-531.443,191.283,49.460,30.173,-1.486,3.839,-26.335,-6.961,nan,0.961612,-1.231049,0.861802,1.329746,1.240581,-1.828044,1.675512,1.906578,1.715056,52.207641,-59.698272,100.000000,-7.490631,nan,0.000000,0.000000,0.000000,0.000000,0.000000,0.000000,0.000000,0.000000,0.000000,0.000000,0.000000,0.000000,1.99167131,0.03344660,0.00913189,0.01470339,0.00553757,1.49549846,0.00000000,0.43335341,0.00238904,0.00456594,0.00588136,0.01107514,2.16676704,0.00000000,2.49249743
5.325,3,1,1,-531.443,191.283,49.460,30.173,-1.486,3.839,-26.335,-6.961,nan,0.961612,-1.231049,0.861802,1.336158,1.240353,-1.828044,1.675512,1.917721,1.717854,52.116886,-59.698272,100.000000,-7.581386,nan,0.000000,0.000000,0.000000,0.000000,0.000000,0.000000,0.000000,0.000000,0.000000,0.000000,0.000000,0.000000,2.02133218,0.03425605,0.00938687,0.01477423,0.00559112,1.51137399,0.00000000,0.44594991,0.00244686,0.00469344,0.00590969,0.01118224,2.22974957,0.00000000,2.51895664
5.400,3,1,1,-531.378,191.367,49.397,28.779,-1.586,3.526,-25.252,-7.520,nan,1.336966,-1.049218,1.057159,1.329896,1.237858,-1.443249,2.377253,1.907553,1.714280,52.300017,-58.958343,100.000000,-6.658326,nan,0.000000,0.000000,0.000000,0.000000,0.000000,0.000000,0.000000,0.000000,0.000000,0.000000,0.000000,0.000000,2.03814382,0.03460736,0.00948183,0.01483792,0.00565553,1.52009518,0.00000000,0.45346599,0.00247195,0.00474092,0.00593517,0.01131106,2.26732996,0.00000000,2.53349197
5.500,3,1,1,-531.343,191.409,49.363,28.054,-1.636,3.365,-24.688,-7.262,nan,1.228194,-0.941410,1.115511,1.330769,1.233013,-1.192430,2.649722,1.909567,1.706063,52.485987,-58.668701,100.000000,-6.182714,nan,0.000000,0.000000,0.000000,0.000000,0.000000,0.000000,0.000000,0.000000,0.000000,0.000000,0.000000,0.000000,2.05998423,0.03498524,0.00956844,0.01493266,0.00576245,1.53123315,0.00000000,0.46350229,0.00249895,0.00478422,0.00597307,0.01152489,2.31751147,0.00000000,2.55205524
5.600,3,1,1,-531.307,191.451,49.328,27.330,-1.686,3.205,-24.126,-7.764,nan,1.176328,-0.826801,1.162693,1.316174,1.226825,-0.913934,2.867705,1.890059,1.694962,52.603763,-58.247325,100.000000,-5.643562,nan,0.000000,0.000000,0.000000,0.000000,0.000000,0.000000,0.000000,0.000000,0.000000,0.000000,0.000000,0.000000,2.08122014,0.03527671,0.00961932,0.01503559,0.00588767,1.54186893,0.00000000,0.47353192,0.00251976,0.00480966,0.00601424,0.01177535,2.36765961,0.00000000,2.56978155
5.700,3,1,1,-531.269,191.494,49.292,26.609,-1.736,3.044,-23.564,-7.191,nan,1.149838,-0.706876,1.226081,1.304703,1.219481,-0.612163,3.130411,1.869314,1.681742,52.860888,-58.014250,100.000000,-5.153362,nan,0.000000,0.000000,0.000000,0.000000,0.000000,0.000000,0.000000,0.000000,0.000000,0.000000,0.000000,0.000000,2.10189443,0.03548979,0.00964215,0.01515007,0.00603692,1.55201743,0.00000000,0.48355808,0.00253499,0.00482108,0.00606003,0.01207384,2.41779038,0.00000000,2.58669571
5.820,3,1,1,-531.269,191.494,49.292,26.609,-1.736,3.044,-23.564,-7.191,nan,1.149838,-0.706876,1.226081,1.270628,1.210957,-0.612163,3.130411,1.832646,1.666367,52.972995,-58.014250,100.000000,-5.041255,nan,0.000000,0.000000,0.000000,0.000000,0.000000,0.000000,0.000000,0.000000,0.000000,0.000000,0.000000,0.000000,2.12668735,0.03574534,0.00966953,0.01528736,0.00621591,1.56418833,0.00000000,0.49558088,0.00255324,0.00483476,0.00611494,0.01243182,2.47790441,0.00000000,2.60698055
5.900,3,1,1,-531.191,191.577,49.216,25.170,-1.837,2.724,-22.446,-7.549,nan,1.298025,-0.460424,1.271919,1.257095,1.203777,0.045636,3.537141,1.810173,1.654820,53.517574,-57.288098,100.000000,-3.770524,nan,0.000000,0.000000,0.000000,0.000000,0.000000,0.000000,0.000000,0.000000,0.000000,0.000000,0.000000,0.000000,2.14240999,0.03581776,0.00966963,0.01538605,0.00636856,1.57156498,0.00000000,0.50360301,0.00255841,0.00483482,0.00615442,0.01273713,2.51801503,0.00000000,2.61927496
6.000,3,1,1,-531.150,191.619,49.177,24.454,-1.886,2.565,-21.889,-8.236,nan,1.232834,-0.339314,1.159142,1.228177,1.194339,0.392107,3.371663,1.777533,1.641516,53.774642,-56.837595,100.000000,-3.062953,nan,0.000000,0.000000,0.000000,0.000000,0.000000,0.000000,0.000000,0.000000,0.000000,0.000000,0.000000,0.000000,2.16151791,0.03586688,0.00967900,0.01548841,0.00654178,1.58032554,0.00000000,0.51361629,0.00256192,0.00483950,0.00619536,0.01308356,2.56808145,0.00000000,2.63387591
6.100,3,1,1,-531.108,191.660,49.136,23.740,-1.936,2.406,-21.334,-6.990,nan,1.204234,-0.221186,1.182312,1.191849,1.184684,0.742472,3.546548,1.737525,1.630593,54.153004,-56.725706,100.000000,-2.572702,nan,0.000000,0.000000,0.000000,0.000000,0.000000,0.000000,0.000000,0.000000,0.000000,0.000000,0.000000,0.000000,2.18019178,0.03588774,0.00971258,0.01559484,0.00673331,1.58864248,0.00000000,0.52362083,0.00256341,0.00485629,0.00623794,0.01346662,2.61810414,0.00000000,2.64773746
6.200,3,1,1,-531.066,191.701,49.095,23.028,-1.986,2.247,-20.781,-7.878,nan,1.167634,-0.106671,0.841489,1.152441,1.175014,1.091196,2.588677,1.696655,1.623198,54.595505,-56.242440,100.000000,-1.646936,nan,0.000000,0.000000,0.000000,0.000000,0.000000,0.000000,0.000000,0.000000,0.000000,0.000000,0.000000,0.000000,2.19830535,0.03589259,0.00978506,0.01564872,0.00683529,1.59652864,0.00000000,0.53361505,0.00256376,0.00489253,0.00625949,0.01367058,2.66807523,0.00000000,2.66088107
6.300,3,1,1,-531.023,191.742,49.054,22.319,-2.035,2.089,-20.230,-7.950,nan,1.175694,0.002287,0.854497,1.111508,1.165493,1.433195,2.714686,1.658419,1.620308,55.061950,-55.902866,100.000000,-0.840917,nan,0.000000,0.000000,0.000000,0.000000,0.000000,0.000000,0.000000,0.000000,0.000000,0.000000,0.000000,0.000000,2.21608018,0.03589259,0.00991021,0.01570433,0.00694754,1.60400897,0.00000000,0.54361653,0.00256376,0.00495510,0.00628173,0.01389509,2.71808265,0.00000000,2.67334829
6.423,3,1,1,-531.023,191.742,49.054,22.319,-2.035,2.089,-20.230,-7.950,nan,1.175694,0.002287,0.854497,1.043139,1.154101,1.433195,2.714686,1.582487,1.616875,55.407276,-55.902866,100.000000,-0.495590,nan,0.000000,0.000000,0.000000,0.000000,0.000000,0.000000,0.000000,0.000000,0.000000,0.000000,0.000000,0.000000,2.23792746,0.03589260,0.01006404,0.01577268,0.00708552,1.61320339,0.00000000,0.55590924,0.00256376,0.00503202,0.00630907,0.01417104,2.77954620,0.00000000,2.68867231
6.500,3,1,1,-530.935,191.822,48.968,20.909,-2.132,1.775,-19.134,-7.205,nan,1.374017,0.197606,0.724258,1.030801,1.147333,2.076898,2.449967,1.596368,1.623192,56.266881,-55.382598,100.000000,0.884283,nan,0.000000,0.000000,0.000000,0.000000,0.000000,0.000000,0.000000,0.000000,0.000000,0.000000,0.000000,0.000000,2.25110544,0.03590543,0.01026652,0.01580346,0.00715596,1.61835916,0.00000000,0.56361491,0.00256467,0.00513326,0.00632138,0.01431192,2.81807456,0.00000000,2.69726526
6.600,3,1,1,-530.890,191.861,48.925,20.209,-2.180,1.619,-18.590,-7.563,nan,1.295601,0.280413,0.672560,0.990077,1.138997,2.368238,2.348887,1.583763,1.637237,56.453738,-54.997017,100.000000,1.456722,nan,0.000000,0.000000,0.000000,0.000000,0.000000,0.000000,0.000000,0.000000,0.000000,0.000000,0.000000,0.000000,2.26792104,0.03593897,0.01060829,0.01583792,0.00724001,1.62467660,0.00000000,0.57361925,0.00256707,0.00530414,0.00633517,0.01448002,2.86809626,0.00000000,2.70779433
6.700,3,1,1,-530.845,191.900,48.882,19.596,-2.228,1.479,-18.117,-8.064,nan,1.241869,0.348443,0.706336,0.957087,1.131133,2.602565,2.390225,1.586124,1.656103,56.866596,-54.629064,100.000000,2.237532,nan,0.000000,0.000000,0.000000,0.000000,0.000000,0.000000,0.000000,0.000000,0.000000,0.000000,0.000000,0.000000,2.28453661,0.03599081,0.01102150,0.01587596,0.00732714,1.63068359,0.00000000,0.58363760,0.00257077,0.00551075,0.00635038,0.01465429,2.91818802,0.00000000,2.71780599
6.800,3,1,1,-530.824,191.919,48.861,18.902,-2.250,1.343,-17.558,-6.875,nan,1.261441,0.419402,0.609265,0.929563,1.123830,2.840500,2.028852,1.603157,1.679927,57.220411,-54.505113,100.000000,2.715298,nan,0.000000,0.000000,0.000000,0.000000,0.000000,0.000000,0.000000,0.000000,0.000000,0.000000,0.000000,0.000000,2.30082405,0.03606577,0.01151268,0.01590421,0.00738979,1.63631417,0.00000000,0.59363743,0.00257613,0.00575634,0.00636168,0.01477958,2.96818716,0.00000000,2.72719028
6.924,3,1,1,-530.824,191.919,48.861,18.625,-2.250,1.296,-17.329,-6.732,nan,1.261441,0.445150,0.186151,0.900244,1.115174,2.926602,0.622487,1.616741,1.710754,57.431271,-54.393854,100.000000,3.037417,nan,0.000000,0.000000,0.000000,0.000000,0.000000,0.000000,0.000000,0.000000,0.000000,0.000000,0.000000,0.000000,2.32082504,0.03617067,0.01216042,0.01590749,0.00739712,1.64312712,0.00000000,0.60606222,0.00258362,0.00608021,0.00636299,0.01479423,3.03031108,0.00000000,2.73854521
7.000,3,1,1,-530.710,192.014,48.752,17.442,-2.367,1.004,-16.437,-7.176,nan,1.385186,0.534453,0.356458,0.893106,1.110443,3.233003,1.239771,1.674823,1.734759,57.820019,-53.787307,100.000000,4.032712,nan,0.000000,0.000000,0.000000,0.000000,0.000000,0.000000,0.000000,0.000000,0.000000,0.000000,0.000000,0.000000,2.33275851,0.03626299,0.01264302,0.01591482,0.00741486,1.64686965,0.00000000,0.61365317,0.00259021,0.00632151,0.00636593,0.01482972,3.06826584,0.00000000,2.74478275
7.100,3,1,1,-530.689,192.032,48.731,16.840,-2.389,0.885,-15.955,-6.775,nan,1.353704,0.567868,0.326019,0.878606,1.104560,3.346839,1.054448,1.724421,1.768227,57.874049,-53.571100,100.000000,4.302949,nan,0.000000,0.000000,0.000000,0.000000,0.000000,0.000000,0.000000,0.000000,0.000000,0.000000,0.000000,0.000000,2.34829384,0.03640069,0.01332629,0.01592292,0.00743181,1.65152812,0.00000000,0.62368401,0.00260005,0.00666314,0.00636917,0.01486363,3.11842003,0.00000000,2.75254687
7.200,3,1,1,-530.645,192.068,48.688,16.159,-2.435,0.734,-15.426,-5.715,nan,1.275475,0.599909,0.292066,0.881228,1.099060,3.438377,0.714048,1.797315,1.802537,58.005706,-53.441894,100.000000,4.563812,nan,0.000000,0.000000,0.000000,0.000000,0.000000,0.000000,0.000000,0.000000,0.000000,0.000000,0.000000,0.000000,2.36354779,0.03655413,0.01404636,0.01592942,0.00743958,1.65587609,0.00000000,0.63370222,0.00261101,0.00702318,0.00637177,0.01487915,3.16851112,0.00000000,2.75979348
7.300,3,1,1,-530.600,192.104,48.646,15.482,-2.479,0.583,-14.899,-7.119,nan,1.224806,0.626372,0.213600,0.885088,1.093892,3.488456,0.281081,1.872617,1.836599,57.974252,-52.884052,100.000000,5.090200,nan,0.000000,0.000000,0.000000,0.000000,0.000000,0.000000,0.000000,0.000000,0.000000,0.000000,0.000000,0.000000,2.37854345,0.03672144,0.01478773,0.01593289,0.00744078,1.65993288,0.00000000,0.64372774,0.00262296,0.00739386,0.00637316,0.01488156,3.21863868,0.00000000,2.76655479
7.418,3,1,1,-530.600,192.104,48.646,15.482,-2.479,0.583,-14.899,-7.119,nan,1.224806,0.626372,0.213600,0.890382,1.087939,3.488456,0.281081,1.948632,1.874875,57.803296,-52.884052,100.000000,4.919243,nan,0.000000,0.000000,0.000000,0.000000,0.000000,0.000000,0.000000,0.000000,0.000000,0.000000,0.000000,0.000000,2.39625526,0.03691908,0.01566348,0.01593700,0.00744220,1.66472501,0.00000000,0.65556848,0.00263708,0.00783174,0.00637480,0.01488440,3.27784241,0.00000000,2.77454169
7.500,3,1,1,-530.513,192.175,48.561,14.136,-2.567,0.285,-13.851,-7.348,nan,1.246228,0.654929,0.052705,0.896284,1.084092,3.463238,-0.462845,2.022996,1.899744,57.870558,-52.222166,100.000000,5.648392,nan,0.000000,0.000000,0.000000,0.000000,0.000000,0.000000,0.000000,0.000000,0.000000,0.000000,0.000000,0.000000,2.40809183,0.03706887,0.01626182,0.01593717,0.00744487,1.66759616,0.00000000,0.66378295,0.00264778,0.00813091,0.00637487,0.01488975,3.31891475,0.00000000,2.77932693
7.600,3,1,1,-530.470,192.210,48.520,13.467,-2.610,0.137,-13.330,-7.320,nan,1.185512,0.656993,-0.004345,0.891212,1.079506,3.389315,-0.620828,2.067094,1.927213,57.810530,-51.917944,100.000000,5.892586,nan,0.000000,0.000000,0.000000,0.000000,0.000000,0.000000,0.000000,0.000000,0.000000,0.000000,0.000000,0.000000,2.42226642,0.03725298,0.01696180,0.01593717,0.00745075,1.67084429,0.00000000,0.67381944,0.00266093,0.00848090,0.00637487,0.01490149,3.36909720,0.00000000,2.78474049
7.700,3,1,1,-530.427,192.244,48.479,12.801,-2.653,-0.010,-12.811,-6.804,nan,1.146610,0.654706,-0.025220,0.904882,1.075005,3.276173,-0.937589,2.154667,1.951040,57.883144,-51.699876,100.000000,6.183268,nan,0.000000,0.000000,0.000000,0.000000,0.000000,0.000000,0.000000,0.000000,0.000000,0.000000,0.000000,0.000000,2.43615454,0.03743578,0.01761571,0.01593722,0.00746413,1.67384392,0.00000000,0.68385778,0.00267398,0.00880786,0.00637489,0.01492827,3.41928891,0.00000000,2.78973986
7.800,3,1,1,-530.384,192.278,48.438,12.137,-2.695,-0.157,-12.294,-6.589,nan,1.121281,0.649685,-0.042458,0.904582,1.070564,3.125745,-1.188826,2.209242,1.970793,57.742313,-51.430380,100.000000,6.311933,nan,0.000000,0.000000,0.000000,0.000000,0.000000,0.000000,0.000000,0.000000,0.000000,0.000000,0.000000,0.000000,2.44974973,0.03761573,0.01821079,0.01593736,0.00748565,1.67660542,0.00000000,0.69389478,0.00268684,0.00910539,0.00637494,0.01497131,3.46947392,0.00000000,2.79434237
7.900,3,1,1,-530.342,192.311,48.397,11.475,-2.737,-0.303,-11.778,-6.589,nan,1.104135,0.641026,-0.068153,0.900639,1.066152,2.940499,-1.244735,2.254202,1.986225,57.760139,-51.124360,100.000000,6.635779,nan,0.000000,0.000000,0.000000,0.000000,0.000000,0.000000,0.000000,0.000000,0.000000,0.000000,0.000000,0.000000,2.46304947,0.03779090,0.01873733,0.01593771,0.00750924,1.67913980,0.00000000,0.70393448,0.00269935,0.00936867,0.00637508,0.01501848,3.51967241,0.00000000,2.79856633
8.023,3,1,1,-530.342,192.311,48.397,11.475,-2.737,-0.303,-11.778,-6.589,nan,1.104135,0.641026,-0.068153,0.892879,1.060845,2.940499,-1.244735,2.295467,2.004547,57.699941,-51.124360,100.000000,6.575581,nan,0.000000,0.000000,0.000000,0.000000,0.000000,0.000000,0.000000,0.000000,0.000000,0.000000,0.000000,0.000000,2.47943533,0.03800672,0.01938611,0.01593815,0.00753831,1.68226245,0.00000000,0.71630360,0.00271477,0.00969305,0.00637526,0.01507661,3.58151802,0.00000000,2.80377075
8.100,3,1,1,-530.257,192.376,48.316,10.159,-2.818,-0.593,-10.752,-6.847,nan,1.168472,0.609472,-0.256018,0.880647,1.057425,2.477483,-3.527580,2.319235,2.009621,57.914158,-50.470088,100.000000,7.444070,nan,0.000000,0.000000,0.000000,0.000000,0.000000,0.000000,0.000000,0.000000,0.000000,0.000000,0.000000,0.000000,2.48934378,0.03812844,0.01967344,0.01594198,0.00768394,1.68388593,0.00000000,0.72403004,0.00272346,0.00983672,0.00637679,0.01536788,3.62015021,0.00000000,2.80647655
8.200,3,1,1,-530.215,192.408,48.276,9.556,-2.859,-0.728,-10.284,-5.730,nan,1.105239,0.591258,-0.148417,0.874728,1.052924,2.228898,-2.234310,2.317073,2.012477,58.061674,-50.387459,100.000000,7.674215,nan,0.000000,0.000000,0.000000,0.000000,0.000000,0.000000,0.000000,0.000000,0.000000,0.000000,0.000000,0.000000,2.50187218,0.03827761,0.01997628,0.01594366,0.00776001,1.68582007,0.00000000,0.73409455,0.00273412,0.00998814,0.00637746,0.01552003,3.67047275,0.00000000,2.80970011
8.300,3,1,1,-530.173,192.439,48.235,8.903,-2.898,-0.872,-9.775,-6.030,nan,1.043442,0.570947,-0.198298,0.847668,1.048379,1.937842,-2.986152,2.340263,2.011583,58.226475,-50.032487,100.000000,8.193988,nan,0.000000,0.000000,0.000000,0.000000,0.000000,0.000000,0.000000,0.000000,0.000000,0.000000,0.000000,0.000000,2.51419279,0.03841664,0.02020507,0.01594665,0.00789584,1.68756643,0.00000000,0.74416216,0.00274405,0.01010253,0.00637866,0.01579167,3.72081081,0.00000000,2.81261072
8.400,3,1,1,-530.131,192.470,48.195,8.330,-2.938,-1.002,-9.331,-7.262,nan,1.035381,0.552816,-0.216864,0.823885,1.043806,1.667091,-3.176443,2.335648,2.007781,58.471732,-49.554218,100.000000,8.917514,nan,0.000000,0.000000,0.000000,0.000000,0.000000,0.000000,0.000000,0.000000,0.000000,0.000000,0.000000,0.000000,2.52632591,0.03854703,0.02037446,0.01595024,0.00804958,1.68915857,0.00000000,0.75424604,0.00275336,0.01018723,0.00638009,0.01609916,3.77123018,0.00000000,2.81526428
8.515,3,1,1,-530.131,192.470,48.195,8.330,-2.938,-1.002,-9.331,-7.262,nan,1.035381,0.552816,-0.216864,0.797436,1.038666,1.667091,-3.176443,2.328421,2.003520,58.644734,-49.554218,100.000000,9.090516,nan,0.000000,0.000000,0.000000,0.000000,0.000000,0.000000,0.000000,0.000000,0.000000,0.000000,0.000000,0.000000,2.54025603,0.03869668,0.02056889,0.01595435,0.00822605,1.69098605,0.00000000,0.76582402,0.00276405,0.01028444,0.00638174,0.01645209,3.82912009,0.00000000,2.81831008
8.600,3,1,1,-530.046,192.531,48.113,7.034,-3.016,-1.286,-8.320,-7.491,nan,3.740011,0.505948,-0.237079,0.768281,1.034689,1.018508,-3.147575,2.310055,1.996061,59.081399,-48.913866,100.000000,10.167534,nan,0.000000,0.000000,0.000000,0.000000,0.000000,0.000000,0.000000,0.000000,0.000000,0.000000,0.000000,0.000000,2.55021498,0.03878964,0.02062270,0.01595799,0.00835453,1.69206340,0.00000000,0.77442672,0.00277069,0.01031135,0.00638320,0.01670906,3.87213361,0.00000000,2.82010567
8.700,3,1,1,-530.003,192.561,48.071,6.390,-3.054,-1.428,-7.818,-6.503,nan,2.560233,0.479752,-0.298064,0.762543,1.029955,0.686435,-3.217854,2.284226,1.985800,59.439749,-48.787774,100.000000,10.651975,nan,0.000000,0.000000,0.000000,0.000000,0.000000,0.000000,0.000000,0.000000,0.000000,0.000000,0.000000,0.000000,2.56173356,0.03888777,0.02065140,0.01596476,0.00851219,1.69318009,0.00000000,0.78453735,0.00277770,0.01032570,0.00638590,0.01702439,3.92268677,0.00000000,2.82196682
8.800,3,1,1,-529.959,192.590,48.029,5.749,-3.092,-1.568,-7.317,-6.532,nan,1.900806,0.454182,-0.256628,0.705410,1.025170,0.355410,-3.316743,2.263659,1.974708,59.650854,-48.485376,100.000000,11.165477,nan,0.000000,0.000000,0.000000,0.000000,0.000000,0.000000,0.000000,0.000000,0.000000,0.000000,0.000000,0.000000,2.57311385,0.03897581,0.02065910,0.01596978,0.00867988,1.69415936,0.00000000,0.79466992,0.00278399,0.01032955,0.00638791,0.01735975,3.97334962,0.00000000,2.82359894
8.900,3,1,1,-529.915,192.619,47.986,5.110,-3.129,-1.708,-6.818,-6.618,nan,1.528631,0.428786,-0.217482,0.672765,1.020353,0.030029,-2.989482,2.238499,1.963461,60.210014,-48.174084,100.000000,12.035930,nan,0.000000,0.000000,0.000000,0.000000,0.000000,0.000000,0.000000,0.000000,0.000000,0.000000,0.000000,0.000000,2.58431918,0.03905416,0.02065916,0.01597338,0.00881591,1.69500846,0.00000000,0.80480811,0.00278958,0.01032958,0.00638935,0.01763181,4.02404057,0.00000000,2.82501410
9.000,3,1,1,-529.870,192.648,47.943,4.474,-3.166,-1.848,-6.322,-7.119,nan,1.321005,0.402312,-0.253946,0.667474,1.015499,-0.285334,-2.851855,2.211481,1.952630,60.608957,-47.791538,100.000000,12.817419,nan,0.000000,0.000000,0.000000,0.000000,0.000000,0.000000,0.000000,0.000000,0.000000,0.000000,0.000000,0.000000,2.59541490,0.03912318,0.02066412,0.01597829,0.00893976,1.69573875,0.00000000,0.81497081,0.00279451,0.01033206,0.00639131,0.01787952,4.07485407,0.00000000,2.82623125
9.124,3,1,1,-529.870,192.648,47.943,4.474,-3.166,-1.848,-6.322,-7.119,nan,1.321005,0.402312,-0.253946,0.609214,1.009606,-0.285334,-2.851855,2.193278,1.939469,60.701043,-47.791538,100.000000,12.909505,nan,0.000000,0.000000,0.000000,0.000000,0.000000,0.000000,0.000000,0.000000,0.000000,0.000000,0.000000,0.000000,2.60915912,0.03920865,0.02067026,0.01598437,0.00909315,1.69664316,0.00000000,0.82755955,0.00280062,0.01033513,0.00639375,0.01818629,4.13779773,0.00000000,2.82773860
9.200,3,1,1,-529.777,192.704,47.853,3.211,-3.239,-2.124,-5.336,-6.718,nan,1.093002,0.343593,-0.272117,0.579832,1.005861,-0.869200,-2.449310,2.178489,1.932968,61.386788,-47.275690,100.000000,14.111098,nan,0.000000,0.000000,0.000000,0.000000,0.000000,0.000000,0.000000,0.000000,0.000000,0.000000,0.000000,0.000000,2.61747174,0.03924700,0.02070532,0.01598866,0.00916275,1.69703954,0.00000000,0.83532847,0.00280336,0.01035266,0.00639547,0.01832549,4.17664237,0.00000000,2.82839923
9.300,3,1,1,-529.729,192.731,47.807,2.585,-3.275,-2.262,-4.846,-6.747,nan,1.102702,0.311978,-0.330167,0.574786,1.000902,-1.129713,-2.255748,2.158979,1.926031,61.743850,-46.979767,100.000000,14.764083,nan,0.000000,0.000000,0.000000,0.000000,0.000000,0.000000,0.000000,0.000000,0.000000,0.000000,0.000000,0.000000,2.62833246,0.03928854,0.02078313,0.01599697,0.00924031,1.69746917,0.00000000,0.84555435,0.00280632,0.01039157,0.00639879,0.01848061,4.22777174,0.00000000,2.82911528
9.400,3,1,1,-529.681,192.758,47.760,1.961,-3.311,-2.398,-4.360,-6.317,nan,1.107782,0.279880,-0.230721,0.543440,0.995931,-1.364775,-1.554956,2.150608,1.920870,61.939165,-46.765241,100.000000,15.173923,nan,0.000000,0.000000,0.000000,0.000000,0.000000,0.000000,0.000000,0.000000,0.000000,0.000000,0.000000,0.000000,2.63908871,0.03932192,0.02089651,0.01600102,0.00927710,1.69781625,0.00000000,0.85577591,0.00280871,0.01044826,0.00640041,0.01855420,4.27887955,0.00000000,2.82969374
9.500,3,1,1,-529.631,192.785,47.712,1.342,-3.346,-2.534,-3.875,-5.830,nan,1.117333,0.246038,-0.322132,0.504525,0.990939,-1.571317,-1.776318,2.171370,1.917483,62.297359,-46.562299,100.000000,15.735060,nan,0.000000,0.000000,0.000000,0.000000,0.000000,0.000000,0.000000,0.000000,0.000000,0.000000,0.000000,0.000000,2.64984983,0.03934775,0.02104703,0.01600893,0.00932519,1.69809093,0.00000000,0.86603000,0.00281055,0.01052352,0.00640357,0.01865038,4.33015001,0.00000000,2.83015155
9.616,3,1,1,-529.631,192.785,47.712,1.342,-3.346,-2.534,-3.875,-5.830,nan,1.117333,0.246038,-0.322132,0.488845,0.985267,-1.571317,-1.776318,2.180755,1.913648,62.529639,-46.562299,100.000000,15.967340,nan,0.000000,0.000000,0.000000,0.000000,0.000000,0.000000,0.000000,0.000000,0.000000,0.000000,0.000000,0.000000,2.66230374,0.03937762,0.02122111,0.01601807,0.00938081,1.69840860,0.00000000,0.87789753,0.00281269,0.01061055,0.00640723,0.01876161,4.38948765,0.00000000,2.83068101
9.700,3,1,1,-529.528,192.836,47.613,0.112,-3.415,-2.803,-2.915,-6.546,nan,2.150819,0.169666,-0.357029,0.476652,0.981062,-1.888893,-1.101569,2.198982,1.913432,62.858538,-45.865586,100.000000,16.992953,nan,0.000000,0.000000,0.000000,0.000000,0.000000,0.000000,0.000000,0.000000,0.000000,0.000000,0.000000,0.000000,2.67131687,0.03938796,0.02140418,0.01602625,0.00939637,1.69853937,0.00000000,0.88656274,0.00281343,0.01070209,0.00641050,0.01879274,4.43281368,0.00000000,2.83089896
9.800,3,1,1,-529.475,192.861,47.561,-0.498,-3.449,-2.936,-2.438,-5.687,nan,1.733898,0.127282,-0.270900,0.471223,0.976079,-1.996494,-0.569765,2.194265,1.914307,63.024673,-45.731769,100.000000,17.292904,nan,0.000000,0.000000,0.000000,0.000000,0.000000,0.000000,0.000000,0.000000,0.000000,0.000000,0.000000,0.000000,2.68197739,0.03939487,0.02164685,0.01603184,0.00940131,1.69864794,0.00000000,0.89685459,0.00281392,0.01082342,0.00641273,0.01880262,4.48427295,0.00000000,2.83107989
9.900,3,1,1,-529.421,192.885,47.509,-1.104,-3.482,-3.068,-1.964,-6.073,nan,1.510825,0.083098,-0.293325,0.458292,0.971120,-2.068733,-0.363725,2.215861,1.915946,63.190649,-45.381981,100.000000,17.808668,nan,0.000000,0.000000,0.000000,0.000000,0.000000,0.000000,0.000000,0.000000,0.000000,0.000000,0.000000,0.000000,2.69263759,0.03939781,0.02190759,0.01603839,0.00940333,1.69871844,0.00000000,0.90717204,0.00281413,0.01095379,0.00641536,0.01880665,4.53586018,0.00000000,2.83119741
10.000,3,1,1,-529.366,192.909,47.455,-1.707,-3.514,-3.200,-1.493,-5.930,nan,1.385624,0.036822,-0.418712,0.452653,0.966206,-2.105149,-0.176592,2.240107,1.917952,63.353815,-45.126066,100.000000,18.227749,nan,0.000000,0.000000,0.000000,0.000000,0.000000,0.000000,0.000000,0.000000,0.000000,0.000000,0.000000,0.000000,2.70330078,0.03939839,0.02217772,0.01605175,0.00940380,1.69875919,0.00000000,0.91750993,0.00281417,0.01108886,0.00642070,0.01880760,4.58754966,0.00000000,2.83126532
10.100,3,1,1,-529.309,192.932,47.400,-2.307,-3.547,-3.331,-1.024,-6.632,nan,1.316317,-0.012297,-0.515120,0.449544,0.961364,-2.105746,0.161068,2.263290,1.919921,63.458681,-44.723916,100.000000,18.734765,nan,0.000000,0.000000,0.000000,0.000000,0.000000,0.000000,0.000000,0.000000,0.000000,0.000000,0.000000,0.000000,2.71395584,0.03939845,0.02244772,0.01607194,0.00940420,1.69877833,0.00000000,0.92785519,0.00281418,0.01122386,0.00642878,0.01880839,4.63927597,0.00000000,2.83129722
10.219,3,1,1,-529.309,192.932,47.400,-2.307,-3.547,-3.331,-1.024,-6.632,nan,1.316317,-0.012297,-0.515120,0.453474,0.955703,-2.105746,0.161068,2.306046,1.922207,63.431442,-44.723916,100.000000,18.707527,nan,0.000000,0.000000,0.000000,0.000000,0.000000,0.000000,0.000000,0.000000,0.000000,0.000000,0.000000,0.000000,2.72661749,0.03939853,0.02276859,0.01609594,0.00940467,1.69880108,0.00000000,0.94014868,0.00281418,0.01138430,0.00643838,0.01880933,4.70074340,0.00000000,2.83133513
10.300,3,1,1,-529.193,192.977,47.287,-3.496,-3.609,-3.589,-0.093,-5.858,nan,1.937353,-0.118879,-0.529791,0.453863,0.951947,-2.001938,0.811967,2.316612,1.922856,63.542281,-44.303528,100.000000,19.238753,nan,0.000000,0.000000,0.000000,0.000000,0.000000,0.000000,0.000000,0.000000,0.000000,0.000000,0.000000,0.000000,2.73527213,0.03940343,0.02296698,0.01611331,0.00941283,1.69880121,0.00000000,0.94857438,0.00281453,0.01148349,0.00644532,0.01882565,4.74287190,0.00000000,2.83133535
10.400,3,1,1,-529.134,192.998,47.229,-4.086,-3.639,-3.717,0.369,-5.500,nan,1.645484,-0.174676,-0.469493,0.449123,0.947471,-1.900108,0.975918,2.307348,1.922636,63.448673,-44.075692,100.000000,19.372982,nan,0.000000,0.000000,0.000000,0.000000,0.000000,0.000000,0.000000,0.000000,0.000000,0.000000,0.000000,0.000000,2.74591009,0.03941644,0.02318685,0.01613009,0.00942733,1.69880370,0.00000000,0.95894569,0.00281546,0.01159343,0.00645204,0.01885465,4.79472847,0.00000000,2.83133949
10.500,3,1,1,-529.073,193.018,47.170,-4.674,-3.669,-3.845,0.829,-6.403,nan,1.501481,-0.231281,-0.859542,0.455099,0.943175,-1.767644,2.202999,2.318594,1.921205,63.388552,-43.610810,100.000000,19.777742,nan,0.000000,0.000000,0.000000,0.000000,0.000000,0.000000,0.000000,0.000000,0.000000,0.000000,0.000000,0.000000,2.75665868,0.03943925,0.02337724,0.01618636,0.00950125,1.69881626,0.00000000,0.96933831,0.00281709,0.01168862,0.00647455,0.01900251,4.84669155,0.00000000,2.83136044
10.600,3,1,1,-529.011,193.038,47.109,-5.258,-3.698,-3.971,1.287,-5.329,nan,1.428414,-0.288700,-0.660045,0.451771,0.939095,-1.606964,1.968082,2.303853,1.918454,63.208702,-43.473902,100.000000,19.734800,nan,0.000000,0.000000,0.000000,0.000000,0.000000,0.000000,0.000000,0.000000,0.000000,0.000000,0.000000,0.000000,2.76736199,0.03947479,0.02353454,0.01621954,0.00956024,1.69884656,0.00000000,0.97972633,0.00281963,0.01176727,0.00648781,0.01912048,4.89863163,0.00000000,2.83141093
10.700,3,1,1,-528.948,193.057,47.048,-5.840,-3.726,-4.096,1.744,-5.500,nan,1.383177,-0.346592,-0.963296,0.452889,0.935257,-1.420687,3.279408,2.284770,1.914359,63.150943,-43.102360,100.000000,20.048583,nan,0.000000,0.000000,0.000000,0.000000,0.000000,0.000000,0.000000,0.000000,0.000000,0.000000,0.000000,0.000000,2.77823448,0.03952605,0.02365758,0.01629024,0.00972414,1.69890217,0.00000000,0.99013430,0.00282329,0.01182879,0.00651610,0.01944827,4.95067151,0.00000000,2.83150362
10.824,3,1,1,-528.948,193.057,47.048,-5.840,-3.726,-4.096,1.744,-5.500,nan,1.383177,-0.346592,-0.963296,0.453660,0.930567,-1.420687,3.279408,2.242787,1.909365,63.183565,-43.017815,100.000000,20.165751,nan,0.000000,0.000000,0.000000,0.000000,0.000000,0.000000,0.000000,0.000000,0.000000,0.000000,0.000000,0.000000,2.79175029,0.03958974,0.02381046,0.01637810,0.00992779,1.69897128,0.00000000,1.00307291,0.00282784,0.01190523,0.00655124,0.01985558,5.01536455,0.00000000,2.83161880
10.900,3,1,1,-528.820,193.093,46.923,-6.997,-3.779,-4.345,2.653,-5.873,nan,3.595195,-0.460597,-0.817596,0.453830,0.928103,-0.982867,3.351274,2.220579,1.904445,63.042259,-42.328442,100.000000,20.713818,nan,0.000000,0.000000,0.000000,0.000000,0.000000,0.000000,0.000000,0.000000,0.000000,0.000000,0.000000,0.000000,2.80001252,0.03965814,0.02385495,0.01641659,0.01005711,1.69906850,0.00000000,1.01095722,0.00283272,0.01192748,0.00656664,0.02011422,5.05478611,0.00000000,2.83178084
11.000,3,1,1,-528.755,193.110,46.859,-7.573,-3.805,-4.468,3.105,-5.214,nan,2.614299,-0.514121,-1.125353,0.453458,0.925146,-0.737854,5.366270,2.142994,1.897002,62.975947,-42.049125,100.000000,20.926821,nan,0.000000,0.000000,0.000000,0.000000,0.000000,0.000000,0.000000,0.000000,0.000000,0.000000,0.000000,0.000000,2.81130878,0.03977088,0.02388812,0.01651304,0.01049576,1.69924473,0.00000000,1.02139626,0.00284078,0.01194406,0.00660522,0.02099151,5.10698128,0.00000000,2.83207454
11.100,3,1,1,-528.689,193.125,46.794,-8.146,-3.830,-4.590,3.556,-5.329,nan,2.062714,-0.564498,-0.737758,0.456487,0.922502,-0.480135,4.383534,2.118026,1.888913,63.030544,-41.616806,100.000000,21.413738,nan,0.000000,0.000000,0.000000,0.000000,0.000000,0.000000,0.000000,0.000000,0.000000,0.000000,0.000000,0.000000,2.82248092,0.03990675,0.02390217,0.01655449,0.01078838,1.69947582,0.00000000,1.03185331,0.00285048,0.01195108,0.00662179,0.02157676,5.15926656,0.00000000,2.83245970
11.200,3,1,1,-528.623,193.140,46.728,-8.716,-3.853,-4.711,4.006,-6.675,nan,1.759606,-0.611685,-0.675357,0.457866,0.920170,-0.213340,4.049430,2.052789,1.880491,62.949889,-40.951142,100.000000,21.998747,nan,0.000000,0.000000,0.000000,0.000000,0.000000,0.000000,0.000000,0.000000,0.000000,0.000000,0.000000,0.000000,2.83370485,0.04006632,0.02390494,0.01658922,0.01103813,1.69976910,0.00000000,1.04233715,0.00286188,0.01195247,0.00663569,0.02207627,5.21168573,0.00000000,2.83294849
11.300,3,1,1,-528.556,193.154,46.663,-9.285,-3.876,-4.831,4.454,-5.715,nan,1.590079,-0.654319,-0.684977,0.459680,0.918135,0.058796,4.421349,1.981331,1.872077,62.965769,-40.669042,100.000000,22.296727,nan,0.000000,0.000000,0.000000,0.000000,0.000000,0.000000,0.000000,0.000000,0.000000,0.000000,0.000000,0.000000,2.84508826,0.04024902,0.02390515,0.01662497,0.01133606,1.70013196,0.00000000,1.05284110,0.00287493,0.01195258,0.00664999,0.02267213,5.26420549,0.00000000,2.83355326
11.421,3,1,1,-528.556,193.154,46.663,-9.285,-3.876,-4.831,4.454,-5.715,nan,1.590079,-0.654319,-0.684977,0.455713,0.915716,0.058796,4.421349,1.848090,1.862052,63.103113,-40.454889,100.000000,22.648223,nan,0.000000,0.000000,0.000000,0.000000,0.000000,0.000000,0.000000,0.000000,0.000000,0.000000,0.000000,0.000000,2.85887185,0.04046994,0.02390540,0.01666821,0.01169631,1.70057072,0.00000000,1.06556127,0.00289071,0.01195270,0.00666728,0.02339263,5.32780635,0.00000000,2.83428453
11.500,3,1,1,-528.420,193.180,46.529,-10.370,-3.919,-5.060,5.310,-6.532,nan,2.012651,-0.719742,-0.324535,0.463944,0.914502,0.583136,3.156880,1.827683,1.856220,63.196796,-39.618366,100.000000,23.578430,nan,0.000000,0.000000,0.000000,0.000000,0.000000,0.000000,0.000000,0.000000,0.000000,0.000000,0.000000,0.000000,2.86793860,0.04064453,0.02392178,0.01667455,0.01181627,1.70097799,0.00000000,1.07390349,0.00290318,0.01196089,0.00666982,0.02363254,5.36951746,0.00000000,2.83496331
11.600,3,1,1,-528.352,193.191,46.462,-10.864,-3.938,-5.165,5.699,-5.586,nan,1.723111,-0.741178,-0.113459,0.461351,0.913135,0.818760,1.793155,1.689278,1.849702,63.083295,-39.311748,100.000000,23.771546,nan,0.000000,0.000000,0.000000,0.000000,0.000000,0.000000,0.000000,0.000000,0.000000,0.000000,0.000000,0.000000,2.87942919,0.04087894,0.02396264,0.01667553,0.01186527,1.70157199,0.00000000,1.08447482,0.00291992,0.01198132,0.00667021,0.02373055,5.42237409,0.00000000,2.83595331
11.700,3,1,1,-528.284,193.202,46.394,-11.424,-3.957,-5.281,6.143,-5.443,nan,1.560966,-0.758762,-0.122633,0.465319,0.911916,1.078876,2.281395,1.616919,1.844433,63.279399,-38.808650,100.000000,24.470748,nan,0.000000,0.000000,0.000000,0.000000,0.000000,0.000000,0.000000,0.000000,0.000000,0.000000,0.000000,0.000000,2.89111252,0.04112442,0.02403354,0.01667667,0.01194453,1.70226150,0.00000000,1.09507185,0.00293746,0.01201677,0.00667067,0.02388907,5.47535926,0.00000000,2.83710250
11.800,3,1,1,-528.248,193.207,46.359,-11.980,-3.966,-5.388,6.592,-5.472,nan,1.487404,-0.768196,-0.047881,0.475009,0.910784,1.327944,1.517826,1.610488,1.840634,63.288647,-38.246896,100.000000,25.041751,nan,0.000000,0.000000,0.000000,0.000000,0.000000,0.000000,0.000000,0.000000,0.000000,0.000000,0.000000,0.000000,2.90291957,0.04137591,0.02414090,0.01667685,0.01197960,1.70305508,0.00000000,1.10569124,0.00295542,0.01207045,0.00667074,0.02395919,5.52845618,0.00000000,2.83842514
11.900,3,1,1,-528.180,193.216,46.291,-12.490,-3.983,-5.495,6.995,-5.443,nan,1.443749,-0.769377,0.040968,0.474603,0.909677,1.544833,2.349018,1.502583,1.838324,63.131085,-37.698638,100.000000,25.432447,nan,0.000000,0.000000,0.000000,0.000000,0.000000,0.000000,0.000000,0.000000,0.000000,0.000000,0.000000,0.000000,2.91495272,0.04162856,0.02428642,0.01667697,0.01206371,1.70395014,0.00000000,1.11634692,0.00297347,0.01214321,0.00667079,0.02412742,5.58173461,0.00000000,2.83991690
12.021,3,1,1,-528.180,193.216,46.291,-12.490,-3.983,-5.495,6.995,-5.443,nan,1.443749,-0.769377,0.040968,0.483934,0.908363,1.544833,2.349018,1.503627,1.835585,63.358152,-37.339269,100.000000,26.018882,nan,0.000000,0.000000,0.000000,0.000000,0.000000,0.000000,0.000000,0.000000,0.000000,0.000000,0.000000,0.000000,2.92951446,0.04193354,0.02446207,0.01667713,0.01216524,1.70503057,0.00000000,1.12924591,0.00299525,0.01223103,0.00667085,0.02433048,5.64622955,0.00000000,2.84171761
12.100,3,1,1,-528.043,193.231,46.156,-13.589,-4.014,-5.719,7.870,-5.214,nan,1.463008,-0.745102,0.194837,0.484115,0.907382,1.966258,1.914113,1.429846,1.836477,63.067990,-36.522191,99.590180,26.545799,nan,0.000000,0.000000,0.000000,0.000000,0.000000,0.000000,0.000000,0.000000,0.000000,0.000000,0.000000,0.000000,2.93923827,0.04212093,0.02464849,0.01667942,0.01220941,1.70592643,0.00000000,1.13765359,0.00300864,0.01232425,0.00667177,0.02441881,5.68826793,0.00000000,2.84321072
12.200,3,1,1,-527.974,193.237,46.088,-14.134,-4.028,-5.830,8.304,-5.343,nan,1.423551,-0.719256,0.271046,0.488427,0.905986,2.146966,1.624662,1.426708,1.839261,63.109099,-35.823129,98.932228,27.285970,nan,0.000000,0.000000,0.000000,0.000000,0.000000,0.000000,0.000000,0.000000,0.000000,0.000000,0.000000,0.000000,2.95158507,0.04234168,0.02492948,0.01668501,0.01224963,1.70718749,0.00000000,1.14819178,0.00302441,0.01246474,0.00667401,0.02449927,5.74095888,0.00000000,2.84531249
12.300,3,1,1,-527.907,193.243,46.021,-14.675,-4.041,-5.939,8.736,-5.486,nan,1.397888,-0.683806,0.362769,0.492037,0.904387,2.305324,1.372576,1.440305,1.843561,62.975247,-35.076192,98.051439,27.899054,nan,0.000000,0.000000,0.000000,0.000000,0.000000,0.000000,0.000000,0.000000,0.000000,0.000000,0.000000,0.000000,2.96393289,0.04254107,0.02525322,0.01669504,0.01227832,1.70858227,0.00000000,1.15858297,0.00303865,0.01262661,0.00667801,0.02455665,5.79291487,0.00000000,2.84763711
12.400,3,1,1,-527.839,193.247,45.954,-15.212,-4.052,-6.047,9.165,-6.618,nan,1.373214,-0.639212,0.500546,0.494647,0.902543,2.440010,1.247332,1.467597,1.849192,62.812871,-34.101570,96.914442,28.711301,nan,0.000000,0.000000,0.000000,0.000000,0.000000,0.000000,0.000000,0.000000,0.000000,0.000000,0.000000,0.000000,2.97627376,0.04271544,0.02561620,0.01671413,0.01230204,1.71011871,0.00000000,1.16880724,0.00305110,0.01280810,0.00668565,0.02460408,5.84403619,0.00000000,2.85019785
12.531,3,1,1,-527.839,193.247,45.954,-15.212,-4.052,-6.047,9.165,-6.618,nan,1.373214,-0.639212,0.500546,0.497242,0.900182,2.440010,1.247332,1.494390,1.856361,62.738254,-33.482262,96.220516,29.255992,nan,0.000000,0.000000,0.000000,0.000000,0.000000,0.000000,0.000000,0.000000,0.000000,0.000000,0.000000,0.000000,2.99220430,0.04294243,0.02608870,0.01673898,0.01233291,1.71211868,0.00000000,1.18198261,0.00306732,0.01304435,0.00669559,0.02466581,5.90991303,0.00000000,2.85353113
12.600,3,1,1,-527.705,193.254,45.821,-16.207,-4.072,-6.246,9.961,-5.128,nan,1.361126,-0.532186,0.656306,0.498124,0.898550,2.625756,0.776751,1.531958,1.861527,62.463785,-32.676832,95.140617,29.786952,nan,0.000000,0.000000,0.000000,0.000000,0.000000,0.000000,0.000000,0.000000,0.000000,0.000000,0.000000,0.000000,3.00079012,0.04302650,0.02638106,0.01676182,0.01233930,1.71338086,0.00000000,1.18890058,0.00307332,0.01319053,0.00670473,0.02467861,5.94450289,0.00000000,2.85563477
