t,controller_id,state_code,wp_idx,x,y,dist,yaw_deg,yaw_to_wp_deg,yaw_ref_deg,yaw_err_deg,yaw_rate_deg_s,speed_ref,speed_meas,roll_deg,roll_rate_deg_s,roll_rms_window_deg,roll_rms_total_deg,pitch_deg,pitch_rate_deg_s,pitch_rms_window_deg,pitch_rms_total_deg,base_cmd,diff_cmd,T_left,T_right,J_inst,J_goal,J_wave_roll,J_progress,J_smooth,J_mpc_distance,J_mpc_final,J_mpc_heading,J_mpc_wrong_way,J_mpc_pitch,J_mpc_control,J_mpc_slew,J_mpc_turn,J_total,J_roll,J_pitch,J_roll_rate,J_pitch_rate,J_goal_heading,J_no_progress,J_control,I_roll,I_pitch,I_roll_rate,I_pitch_rate,I_control,I_no_progress,I_goal_heading
0.500,3,1,1,-531.989,189.981,49.989,56.066,0.022,9.365,-46.702,-0.100,nan,0.000000,-0.246120,6.856214,0.246120,0.246120,-0.038298,6.425271,0.038298,0.038298,58.923579,-55.495672,8.000000,3.427907,nan,0.000000,0.000000,0.000000,0.000000,0.000000,0.000000,0.000000,0.000000,0.000000,0.000000,0.000000,0.000000,0.04414340,0.00002582,0.00000009,0.00357743,0.00062837,0.03983600,0.00000000,0.00007570,0.00000184,0.00000004,0.00143097,0.00125674,0.00037850,0.00000000,0.06639333
0.759,3,1,1,-531.989,189.981,49.989,56.066,0.022,9.365,-46.702,-0.100,nan,0.000000,-0.246120,6.856214,0.246120,0.246120,-0.038298,6.425271,0.038298,0.038298,57.301101,-60.153018,16.000000,-2.851917,nan,0.000000,0.000000,0.000000,0.000000,0.000000,0.000000,0.000000,0.000000,0.000000,0.000000,0.000000,0.000000,0.15883390,0.00009260,0.00000032,0.01283261,0.00225403,0.14289575,0.00000000,0.00075858,0.00000661,0.00000016,0.00513305,0.00450806,0.00379290,0.00000000,0.23815959
0.800,3,1,1,-531.973,189.968,49.973,55.927,0.036,9.356,-46.572,-0.215,nan,0.597780,0.971010,5.132614,0.595542,0.389938,1.157801,5.429909,0.669188,0.374566,57.336436,-60.800890,24.000000,-3.464454,nan,0.000000,0.000000,0.000000,0.000000,0.000000,0.000000,0.000000,0.000000,0.000000,0.000000,0.000000,0.000000,0.17673409,0.00025934,0.00003418,0.01366450,0.00244024,0.15933344,0.00000000,0.00100240,0.00001852,0.00001709,0.00546580,0.00488047,0.00501200,0.00000000,0.26555573
0.900,3,1,1,-531.968,189.965,49.968,55.865,0.040,9.349,-46.515,0.000,nan,0.394038,1.384138,3.951664,0.863112,0.710532,1.605571,4.348289,0.990113,0.792387,54.057928,-62.599223,32.000000,-8.541294,nan,0.000000,0.000000,0.000000,0.000000,0.000000,0.000000,0.000000,0.000000,0.000000,0.000000,0.000000,0.000000,0.21982839,0.00107638,0.00019124,0.01485370,0.00272822,0.19887950,0.00000000,0.00209936,0.00007688,0.00009562,0.00594148,0.00545643,0.01049679,0.00000000,0.33146583
1.000,3,1,1,-531.961,189.963,49.961,55.778,0.043,9.338,-46.440,-0.430,nan,0.280492,1.800257,7.477466,1.115417,0.980324,2.068028,8.367846,1.280471,1.111865,51.884403,-64.271206,40.000000,-12.386803,nan,0.000000,0.000000,0.000000,0.000000,0.000000,0.000000,0.000000,0.000000,0.000000,0.000000,0.000000,0.000000,0.26798139,0.00245894,0.00045187,0.01911300,0.00379503,0.23830921,0.00000000,0.00385334,0.00017564,0.00022594,0.00764520,0.00759005,0.01926668,0.00000000,0.39718201
1.122,3,1,1,-531.961,189.963,49.961,55.778,0.043,9.338,-46.440,-0.430,nan,0.280492,1.800257,7.477466,1.255766,1.160202,2.068028,8.367846,1.441918,1.322774,49.867564,-66.454997,48.000000,-16.587433,nan,0.000000,0.000000,0.000000,0.000000,0.000000,0.000000,0.000000,0.000000,0.000000,0.000000,0.000000,0.000000,0.32767451,0.00414395,0.00076952,0.02430403,0.00509520,0.28636417,0.00000000,0.00699764,0.00029600,0.00038476,0.00972161,0.01019040,0.03498821,0.00000000,0.47727362
1.200,3,1,1,-531.950,189.960,49.950,55.539,0.046,9.303,-46.236,-1.261,nan,0.188561,2.471033,3.271146,1.491294,1.345732,2.811440,3.519289,1.706248,1.533253,48.805445,-67.582682,56.000000,-18.777237,nan,0.000000,0.000000,0.000000,0.000000,0.000000,0.000000,0.000000,0.000000,0.000000,0.000000,0.000000,0.000000,0.36412769,0.00617876,0.00114581,0.02494079,0.00524261,0.31689604,0.00000000,0.00972369,0.00044134,0.00057291,0.00997632,0.01048521,0.04861843,0.00000000,0.52816007
1.300,3,1,1,-531.946,189.959,49.946,55.349,0.047,9.273,-46.076,-2.263,nan,0.141082,2.773452,2.889504,1.705130,1.570124,3.126539,2.920813,1.941462,1.782376,47.008133,-69.092631,64.000000,-20.000000,nan,0.000000,0.000000,0.000000,0.000000,0.000000,0.000000,0.000000,0.000000,0.000000,0.000000,0.000000,0.000000,0.41213891,0.00946400,0.00174224,0.02557756,0.00537274,0.35575602,0.00000000,0.01422635,0.00067600,0.00087112,0.01023103,0.01074547,0.07113175,0.00000000,0.59292670
1.400,3,1,1,-531.944,189.958,49.944,55.112,0.048,9.234,-45.878,-2.879,nan,0.103396,3.035352,2.581371,1.899506,1.771680,3.387756,2.582421,2.150739,2.001333,45.413859,-70.633893,72.000000,-20.000000,nan,0.000000,0.000000,0.000000,0.000000,0.000000,0.000000,0.000000,0.000000,0.000000,0.000000,0.000000,0.000000,0.46133800,0.01338584,0.00244015,0.02608407,0.00547412,0.39415387,0.00000000,0.01979994,0.00095613,0.00122007,0.01043363,0.01094824,0.09899970,0.00000000,0.65692312
1.500,3,1,1,-531.942,189.959,49.942,54.827,0.047,9.186,-45.641,-3.008,nan,0.075820,3.260045,2.112629,2.076078,1.954400,3.624765,2.383619,2.340300,2.199015,43.997816,-71.844921,80.000000,-20.000000,nan,0.000000,0.000000,0.000000,0.000000,0.000000,0.000000,0.000000,0.000000,0.000000,0.000000,0.000000,0.000000,0.51197028,0.01791824,0.00324061,0.02642396,0.00556066,0.43222692,0.00000000,0.02659990,0.00127987,0.00162031,0.01056958,0.01112131,0.13299950,0.00000000,0.72037819
1.618,3,1,1,-531.942,189.959,49.942,54.827,0.047,9.186,-45.641,-3.008,nan,0.075820,3.260045,2.112629,2.210078,2.116087,3.624765,2.383619,2.484661,2.374519,42.679982,-71.844921,88.000000,-20.000000,nan,0.000000,0.000000,0.000000,0.000000,0.000000,0.000000,0.000000,0.000000,0.000000,0.000000,0.000000,0.000000,0.57315406,0.02325353,0.00418288,0.02682406,0.00566252,0.47704453,0.00000000,0.03618654,0.00166097,0.00209144,0.01072962,0.01132504,0.18093270,0.00000000,0.79507422
1.700,3,1,1,-531.942,189.966,49.942,54.110,0.039,9.060,-45.050,-4.039,nan,0.087696,3.536423,0.507168,2.349382,2.232921,4.026739,1.142943,2.647697,2.511513,41.804546,-71.314124,96.000000,-20.000000,nan,0.000000,0.000000,0.000000,0.000000,0.000000,0.000000,0.000000,0.000000,0.000000,0.000000,0.000000,0.000000,0.61681656,0.02764156,0.00499561,0.02684018,0.00567889,0.50756240,0.00000000,0.04409792,0.00197440,0.00249781,0.01073607,0.01135778,0.22048959,0.00000000,0.84593733
1.800,3,1,1,-531.944,189.972,49.944,53.676,0.033,8.981,-44.694,-4.140,nan,0.098688,3.567823,0.012322,2.464588,2.353499,4.141865,0.579806,2.791176,2.661277,40.829005,-71.085410,100.000000,-20.000000,nan,0.000000,0.000000,0.000000,0.000000,0.000000,0.000000,0.000000,0.000000,0.000000,0.000000,0.000000,0.000000,0.67019558,0.03306922,0.00604057,0.02684019,0.00568401,0.54406551,0.00000000,0.05449608,0.00236209,0.00302029,0.01073608,0.01136802,0.27248040,0.00000000,0.90677585
1.900,3,1,1,-531.947,189.979,49.947,53.192,0.024,8.893,-44.298,-5.543,nan,0.120799,3.539941,-0.366868,2.556445,2.450501,4.178423,0.012821,2.912263,2.788183,40.033682,-70.605460,100.000000,-20.000000,nan,0.000000,0.000000,0.000000,0.000000,0.000000,0.000000,0.000000,0.000000,0.000000,0.000000,0.000000,0.000000,0.72285911,0.03841128,0.00710384,0.02685044,0.00568401,0.57991742,0.00000000,0.06489211,0.00274366,0.00355192,0.01074017,0.01136803,0.32446057,0.00000000,0.96652903
2.000,3,1,1,-531.952,189.987,49.952,52.663,0.015,8.797,-43.866,-5.558,nan,0.148027,3.462244,-1.057896,2.626568,2.525692,4.144617,-0.650045,3.010157,2.891737,39.414407,-70.346588,100.000000,-20.000000,nan,0.000000,0.000000,0.000000,0.000000,0.000000,0.000000,0.000000,0.000000,0.000000,0.000000,0.000000,0.000000,0.77471712,0.04352715,0.00815115,0.02693573,0.00569045,0.61511284,0.00000000,0.07529981,0.00310908,0.00407558,0.01077429,0.01138091,0.37649903,0.00000000,1.02518806
2.127,3,1,1,-531.952,189.987,49.952,52.663,0.015,8.797,-43.866,-5.558,nan,0.148027,3.462244,-1.057896,2.686424,2.606246,4.144617,-0.650045,3.093274,3.002000,38.875295,-70.346588,100.000000,-20.000000,nan,0.000000,0.000000,0.000000,0.000000,0.000000,0.000000,0.000000,0.000000,0.000000,0.000000,0.000000,0.000000,0.84069945,0.05003640,0.00948371,0.02704425,0.00569865,0.65989426,0.00000000,0.08854219,0.00357403,0.00474186,0.01081770,0.01139730,0.44271094,0.00000000,1.09982377
2.200,3,1,1,-531.965,190.008,49.965,51.541,-0.009,8.587,-42.954,-6.704,nan,0.345516,3.157892,-1.968530,2.716424,2.630769,3.920887,-1.538559,3.147986,3.044491,38.582215,-69.605200,100.000000,-20.000000,nan,0.000000,0.000000,0.000000,0.000000,0.000000,0.000000,0.000000,0.000000,0.000000,0.000000,0.000000,0.000000,0.87678902,0.05312817,0.01016461,0.02725879,0.00572486,0.68440969,0.00000000,0.09610291,0.00379487,0.00508231,0.01090352,0.01144972,0.48051454,0.00000000,1.14068281
2.300,3,1,1,-531.973,190.021,49.973,50.911,-0.024,8.469,-42.442,-6.689,nan,0.322728,2.913700,-2.499721,2.727758,2.646408,3.720326,-2.136355,3.182484,3.083741,38.427003,-69.303945,100.000000,-20.000000,nan,0.000000,0.000000,0.000000,0.000000,0.000000,0.000000,0.000000,0.000000,0.000000,0.000000,0.000000,0.000000,0.92510208,0.05674729,0.01100751,0.02773446,0.00579435,0.71731962,0.00000000,0.10649885,0.00405338,0.00550376,0.01109378,0.01158869,0.53249425,0.00000000,1.19553270
2.400,3,1,1,-531.982,190.035,49.982,50.254,-0.041,8.344,-41.909,-5.844,nan,0.323886,2.623949,-2.887090,2.722393,2.645289,3.457668,-2.730639,3.197558,3.103519,38.410346,-69.135441,100.000000,-20.000000,nan,0.000000,0.000000,0.000000,0.000000,0.000000,0.000000,0.000000,0.000000,0.000000,0.000000,0.000000,0.000000,0.97204579,0.05968535,0.01173633,0.02836962,0.00590798,0.74944123,0.00000000,0.11690527,0.00426324,0.00586817,0.01134785,0.01181597,0.58452634,0.00000000,1.24906872
2.500,3,1,1,-531.991,190.051,49.991,49.574,-0.058,8.215,-41.359,-7.434,nan,0.335516,2.301190,-3.138244,2.702892,2.629932,3.137654,-3.207539,3.194590,3.105153,38.519664,-68.531401,100.000000,-20.000000,nan,0.000000,0.000000,0.000000,0.000000,0.000000,0.000000,0.000000,0.000000,0.000000,0.000000,0.000000,0.000000,1.01745264,0.06194257,0.01233582,0.02911926,0.00606461,0.78069022,0.00000000,0.12730016,0.00442447,0.00616791,0.01164771,0.01212921,0.63650081,0.00000000,1.30115036
2.624,3,1,1,-531.991,190.051,49.991,49.574,-0.058,8.215,-41.359,-7.434,nan,0.335516,2.301190,-3.138244,2.685126,2.612712,3.137654,-3.207539,3.191901,3.106972,38.637270,-68.531401,100.000000,-20.000000,nan,0.000000,0.000000,0.000000,0.000000,0.000000,0.000000,0.000000,0.000000,0.000000,0.000000,0.000000,0.000000,1.07371499,0.06473944,0.01307863,0.03004813,0.00625867,0.81940994,0.00000000,0.14018018,0.00462425,0.00653932,0.01201925,0.01251735,0.70090089,0.00000000,1.36568324
2.700,3,1,1,-532.010,190.086,50.010,48.159,-0.098,7.943,-40.215,-6.918,nan,0.507063,1.572458,-2.875078,2.644725,2.584989,2.358348,-3.171981,3.158788,3.085102,38.949769,-67.942698,100.000000,-20.000000,nan,0.000000,0.000000,0.000000,0.000000,0.000000,0.000000,0.000000,0.000000,0.000000,0.000000,0.000000,0.000000,1.10578996,0.06554215,0.01333657,0.03052733,0.00637533,0.84191151,0.00000000,0.14809707,0.00468158,0.00666829,0.01221093,0.01275066,0.74048536,0.00000000,1.40318584
2.800,3,1,1,-532.019,190.105,50.019,47.428,-0.120,7.802,-39.626,-7.162,nan,0.475341,1.172440,-3.788112,2.598120,2.541834,1.905888,-4.379812,3.114811,3.045081,39.338077,-67.550520,100.000000,-20.000000,nan,0.000000,0.000000,0.000000,0.000000,0.000000,0.000000,0.000000,0.000000,0.000000,0.000000,0.000000,0.000000,1.14710023,0.06612864,0.01355797,0.03162062,0.00666763,0.87062362,0.00000000,0.15850175,0.00472347,0.00677899,0.01264825,0.01333526,0.79250875,0.00000000,1.45103936
2.900,3,1,1,-532.028,190.125,50.029,46.685,-0.143,7.658,-39.028,-6.718,nan,0.456659,0.760984,-3.494320,2.548155,2.495127,1.413702,-4.295469,3.062853,2.996927,39.781759,-67.272807,100.000000,-20.000000,nan,0.000000,0.000000,0.000000,0.000000,0.000000,0.000000,0.000000,0.000000,0.000000,0.000000,0.000000,0.000000,1.18691694,0.06637559,0.01367973,0.03255044,0.00694865,0.89846119,0.00000000,0.16890134,0.00474111,0.00683986,0.01302018,0.01389729,0.84450668,0.00000000,1.49743532
3.000,3,1,1,-532.037,190.147,50.037,45.932,-0.168,7.511,-38.421,-7.348,nan,0.449263,0.349077,-2.930450,2.497648,2.447651,0.890311,-3.813114,3.006249,2.943933,40.260596,-66.802927,100.000000,-20.000000,nan,0.000000,0.000000,0.000000,0.000000,0.000000,0.000000,0.000000,0.000000,0.000000,0.000000,0.000000,0.000000,1.22525620,0.06642754,0.01372800,0.03320414,0.00717000,0.92542970,0.00000000,0.17929682,0.00474482,0.00686400,0.01328166,0.01434001,0.89648409,0.00000000,1.54238283
3.100,3,1,1,-532.044,190.169,50.044,45.169,-0.194,7.361,-37.808,-7.219,nan,0.459006,-0.056344,-3.101720,2.449171,2.401916,0.350502,-4.192982,2.948671,2.889684,40.753525,-66.461668,100.000000,-20.000000,nan,0.000000,0.000000,0.000000,0.000000,0.000000,0.000000,0.000000,0.000000,0.000000,0.000000,0.000000,0.000000,1.26279492,0.06642889,0.01373548,0.03393686,0.00743780,0.95155816,0.00000000,0.18969773,0.00474492,0.00686774,0.01357474,0.01487561,0.94848864,0.00000000,1.58593027
3.216,3,1,1,-532.044,190.169,50.044,45.169,-0.194,7.361,-37.808,-7.219,nan,0.459006,-0.056344,-3.101720,2.403412,2.351970,0.350502,-4.192982,2.894337,2.830455,41.124048,-66.461668,100.000000,-20.000000,nan,0.000000,0.000000,0.000000,0.000000,0.000000,0.000000,0.000000,0.000000,0.000000,0.000000,0.000000,0.000000,1.30631969,0.06643046,0.01374416,0.03478642,0.00774831,0.98185314,0.00000000,0.20175720,0.00474503,0.00687208,0.01391457,0.01549661,1.00878600,0.00000000,1.63642190
3.300,3,1,1,-532.055,190.217,50.056,43.623,-0.249,7.056,-36.567,-7.721,nan,0.534819,-0.830030,-3.426491,2.365311,2.321945,-0.724161,-4.893030,2.845476,2.791865,41.709541,-65.637572,100.000000,-20.000000,nan,0.000000,0.000000,0.000000,0.000000,0.000000,0.000000,0.000000,0.000000,0.000000,0.000000,0.000000,0.000000,1.33692847,0.06667737,0.01377101,0.03553780,0.00805475,1.00239059,0.00000000,0.21049696,0.00476267,0.00688550,0.01421512,0.01610949,1.05248479,0.00000000,1.67065098
3.400,3,1,1,-532.058,190.243,50.059,42.841,-0.278,6.901,-35.940,-7.477,nan,0.518019,-1.185876,-2.539693,2.334581,2.293174,-1.245020,-3.801301,2.805527,2.754352,42.128637,-65.308144,100.000000,-20.000000,nan,0.000000,0.000000,0.000000,0.000000,0.000000,0.000000,0.000000,0.000000,0.000000,0.000000,0.000000,0.000000,1.37232584,0.06727683,0.01386540,0.03602877,0.00827473,1.02598794,0.00000000,0.22089216,0.00480549,0.00693270,0.01441151,0.01654946,1.10446082,0.00000000,1.70997990
3.500,3,1,1,-532.060,190.270,50.061,42.054,-0.309,6.745,-35.310,-6.833,nan,0.528545,-1.511867,-2.898480,2.311879,2.272160,-1.748897,-4.600624,2.776792,2.727699,42.493111,-65.046728,100.000000,-20.000000,nan,0.000000,0.000000,0.000000,0.000000,0.000000,0.000000,0.000000,0.000000,0.000000,0.000000,0.000000,0.000000,1.40764947,0.06825197,0.01405181,0.03666879,0.00859722,1.04878379,0.00000000,0.23129590,0.00487514,0.00702591,0.01466752,0.01719444,1.15647948,0.00000000,1.74797298
3.600,3,1,1,-532.061,190.297,50.061,41.264,-0.340,6.587,-34.677,-8.680,nan,0.526243,-1.803853,-1.991327,2.297245,2.258999,-2.227274,-3.343117,2.760773,2.713463,42.794672,-64.348606,100.000000,-20.000000,nan,0.000000,0.000000,0.000000,0.000000,0.000000,0.000000,0.000000,0.000000,0.000000,0.000000,0.000000,0.000000,1.44217772,0.06963916,0.01435393,0.03697067,0.00876739,1.07075424,0.00000000,0.24169233,0.00497423,0.00717697,0.01478827,0.01753477,1.20846166,0.00000000,1.78459041
3.700,3,1,1,-532.059,190.326,50.060,40.469,-0.373,6.427,-34.042,-7.649,nan,0.549250,-2.059723,-3.098124,2.290196,2.253219,-2.668316,-5.450632,2.757931,2.712105,43.029925,-64.151535,100.000000,-20.000000,nan,0.000000,0.000000,0.000000,0.000000,0.000000,0.000000,0.000000,0.000000,0.000000,0.000000,0.000000,0.000000,1.47718670,0.07144855,0.01478773,0.03770168,0.00921992,1.09193571,0.00000000,0.25209310,0.00510347,0.00739387,0.01508067,0.01843984,1.26046549,0.00000000,1.81989286
3.823,3,1,1,-532.059,190.326,50.060,40.469,-0.373,6.427,-34.042,-7.649,nan,0.549250,-2.059723,-3.098124,2.283553,2.246569,-2.668316,-5.450632,2.755258,2.710547,43.077225,-64.151535,100.000000,-20.000000,nan,0.000000,0.000000,0.000000,0.000000,0.000000,0.000000,0.000000,0.000000,0.000000,0.000000,0.000000,0.000000,1.52015084,0.07366910,0.01532011,0.03859880,0.00977528,1.11793030,0.00000000,0.26485725,0.00526208,0.00766006,0.01543952,0.01955057,1.32428627,0.00000000,1.86321716
3.900,3,1,1,-532.051,190.385,50.052,38.870,-0.441,6.105,-32.764,-7.248,nan,0.694040,-2.454051,-1.887683,2.288749,2.251355,-3.397400,-3.711998,2.776265,2.727577,43.368632,-63.463692,100.000000,-20.000000,nan,0.000000,0.000000,0.000000,0.000000,0.000000,0.000000,0.000000,0.000000,0.000000,0.000000,0.000000,0.000000,1.54624429,0.07565340,0.01586341,0.03880846,0.00993743,1.13308925,0.00000000,0.27289235,0.00540381,0.00793170,0.01552338,0.01987485,1.36446176,0.00000000,1.88848209
4.000,3,1,1,-532.044,190.416,50.046,38.066,-0.476,5.943,-32.123,-8.881,nan,0.661574,-2.587528,-1.374116,2.297825,2.261368,-3.673342,-2.985740,2.805879,2.758230,43.429328,-62.798083,100.000000,-19.368755,nan,0.000000,0.000000,0.000000,0.000000,0.000000,0.000000,0.000000,0.000000,0.000000,0.000000,0.000000,0.000000,1.57943467,0.07850856,0.01668543,0.03895225,0.01007320,1.15194823,0.00000000,0.28326699,0.00560775,0.00834272,0.01558090,0.02014639,1.41633497,0.00000000,1.91991372
4.100,3,1,1,-532.036,190.447,50.038,37.259,-0.512,5.779,-31.480,-7.778,nan,0.653122,-2.677650,-0.871765,2.309219,2.273625,-3.884543,-2.218271,2.841377,2.794656,43.453224,-62.609064,100.000000,-19.155839,nan,0.000000,0.000000,0.000000,0.000000,0.000000,0.000000,0.000000,0.000000,0.000000,0.000000,0.000000,0.000000,1.61203222,0.08156701,0.01760498,0.03901014,0.01014816,1.17006536,0.00000000,0.29363658,0.00582621,0.00880249,0.01560405,0.02029633,1.46818288,0.00000000,1.95010893
4.200,3,1,1,-532.025,190.479,50.028,36.451,-0.549,5.615,-30.836,-8.666,nan,0.657219,-2.725642,-0.336391,2.321456,2.286662,-4.025798,-1.223924,2.879800,2.833907,43.453769,-62.071863,100.000000,-18.618094,nan,0.000000,0.000000,0.000000,0.000000,0.000000,0.000000,0.000000,0.000000,0.000000,0.000000,0.000000,0.000000,1.64393778,0.08473456,0.01859215,0.03901875,0.01017097,1.18744044,0.00000000,0.30398091,0.00605247,0.00929608,0.01560750,0.02034195,1.51990453,0.00000000,1.97906739
4.300,3,1,1,-532.013,190.512,50.016,35.641,-0.586,5.450,-30.191,-7.420,nan,0.670623,-2.733397,0.126648,2.333229,2.299201,-4.092137,-0.429652,2.918164,2.873058,43.444362,-61.906651,100.000000,-18.462289,nan,0.000000,0.000000,0.000000,0.000000,0.000000,0.000000,0.000000,0.000000,0.000000,0.000000,0.000000,0.000000,1.67514608,0.08792060,0.01961226,0.03901997,0.01017378,1.20409859,0.00000000,0.31432087,0.00628004,0.00980613,0.01560799,0.02034757,1.57160434,0.00000000,2.00683098
4.423,3,1,1,-532.013,190.512,50.016,35.641,-0.586,5.450,-30.191,-7.420,nan,0.670623,-2.733397,0.126648,2.344343,2.313717,-4.092137,-0.429652,2.954099,2.917990,43.314283,-61.906651,100.000000,-18.592368,nan,0.000000,0.000000,0.000000,0.000000,0.000000,0.000000,0.000000,0.000000,0.000000,0.000000,0.000000,0.000000,1.71363058,0.09184885,0.02087002,0.03902148,0.01017725,1.22463742,0.00000000,0.32707556,0.00656063,0.01043501,0.01560859,0.02035450,1.63537782,0.00000000,2.04106237
4.500,3,1,1,-531.991,190.561,49.994,34.114,-0.643,5.150,-28.964,-7.277,nan,0.759145,-2.644139,0.635716,2.352304,2.320332,-4.008442,0.888861,2.985000,2.942109,43.425543,-61.203679,100.000000,-17.778135,nan,0.000000,0.000000,0.000000,0.000000,0.000000,0.000000,0.000000,0.000000,0.000000,0.000000,0.000000,0.000000,1.73638116,0.09413645,0.02162106,0.03904509,0.01018648,1.23640164,0.00000000,0.33499042,0.00672403,0.01081053,0.01561804,0.02037297,1.67495211,0.00000000,2.06066940
4.600,3,1,1,-531.974,190.595,49.978,33.301,-0.683,4.983,-28.317,-7.549,nan,0.749029,-2.545558,0.985117,2.386172,2.325950,-3.856784,1.600482,3.046647,2.967174,43.452790,-60.772260,100.000000,-17.319470,nan,0.000000,0.000000,0.000000,0.000000,0.000000,0.000000,0.000000,0.000000,0.000000,0.000000,0.000000,0.000000,1.76512901,0.09690079,0.02252758,0.03911902,0.01022551,1.25106235,0.00000000,0.34529376,0.00692149,0.01126379,0.01564761,0.02045102,1.72646879,0.00000000,2.08510392
4.700,3,1,1,-531.955,190.630,49.959,32.552,-0.722,4.827,-27.725,-8.179,nan,0.746366,-2.427369,1.318976,2.387185,2.328360,-3.654905,2.329024,3.062920,2.984979,43.261897,-60.310473,100.000000,-17.048576,nan,0.000000,0.000000,0.000000,0.000000,0.000000,0.000000,0.000000,0.000000,0.000000,0.000000,0.000000,0.000000,1.79302681,0.09941508,0.02334191,0.03925158,0.01030818,1.26511948,0.00000000,0.35559059,0.00710108,0.01167095,0.01570063,0.02061636,1.77795293,0.00000000,2.10853247
4.800,3,1,1,-531.934,190.665,49.939,31.737,-0.763,4.660,-27.078,-7.162,nan,0.761519,-2.272827,1.217540,2.438273,2.327113,-3.369500,2.319394,3.141068,2.994261,43.353202,-60.104010,100.000000,-16.750807,nan,0.000000,0.000000,0.000000,0.000000,0.000000,0.000000,0.000000,0.000000,0.000000,0.000000,0.000000,0.000000,1.81978238,0.10161684,0.02403321,0.03936441,0.01039007,1.27851250,0.00000000,0.36586535,0.00725835,0.01201661,0.01574576,0.02078014,1.82932676,0.00000000,2.13085416
4.915,3,1,1,-531.934,190.665,49.939,31.737,-0.763,4.660,-27.078,-7.162,nan,0.761519,-2.272827,1.217540,2.454877,2.325750,-3.369500,2.319394,3.175799,3.004375,42.918125,-60.104010,100.000000,-17.185884,nan,0.000000,0.000000,0.000000,0.000000,0.000000,0.000000,0.000000,0.000000,0.000000,0.000000,0.000000,0.000000,1.85050549,0.10414370,0.02482659,0.03949390,0.01048405,1.29388307,0.00000000,0.37767418,0.00743884,0.01241330,0.01579756,0.02096810,1.88837090,0.00000000,2.15647179
5.000,3,1,1,-531.886,190.735,49.891,30.108,-0.844,4.324,-25.784,-8.021,nan,0.699956,-1.897535,1.493210,2.442797,2.318534,-2.603853,3.198766,3.163079,2.997439,43.003719,-59.186281,100.000000,-16.182562,nan,0.000000,0.000000,0.000000,0.000000,0.000000,0.000000,0.000000,0.000000,0.000000,0.000000,0.000000,0.000000,1.87154970,0.10545267,0.02517871,0.03963864,0.01061690,1.30424089,0.00000000,0.38642190,0.00753233,0.01258935,0.01585546,0.02123379,1.93210950,0.00000000,2.17373481
5.100,3,1,1,-531.859,190.771,49.865,29.293,-0.886,4.156,-25.137,-7.506,nan,0.767018,-1.684639,2.003937,2.440785,2.306852,-2.135392,4.491473,3.164171,2.981681,43.218737,-58.892473,100.000000,-15.673736,nan,0.000000,0.000000,0.000000,0.000000,0.000000,0.000000,0.000000,0.000000,0.000000,0.000000,0.000000,0.000000,1.89546375,0.10666391,0.02545673,0.03994470,0.01092439,1.31579854,0.00000000,0.39667549,0.00761885,0.01272836,0.01597788,0.02184878,1.98337744,0.00000000,2.19299756
5.200,3,1,1,-531.830,190.806,49.836,28.576,-0.927,4.004,-24.572,-8.079,nan,0.827917,-1.487737,2.182068,2.434754,2.292766,-1.684993,5.067859,3.166818,2.960454,43.334984,-58.457239,100.000000,-15.122255,nan,0.000000,0.000000,0.000000,0.000000,0.000000,0.000000,0.000000,0.000000,0.000000,0.000000,0.000000,0.000000,1.91861085,0.10760833,0.02562979,0.04030749,0.01131578,1.32683986,0.00000000,0.40690959,0.00768631,0.01281490,0.01612300,0.02263155,2.03454797,0.00000000,2.21139976
5.300,3,1,1,-531.799,190.842,49.806,27.664,-0.969,3.819,-23.845,-7.964,nan,0.889648,-1.229018,2.072472,2.412526,2.276047,-1.069850,5.021846,3.132419,2.934097,43.504506,-58.045762,100.000000,-14.541256,nan,0.000000,0.000000,0.000000,0.000000,0.000000,0.000000,0.000000,0.000000,0.000000,0.000000,0.000000,0.000000,1.94061938,0.10825191,0.02569946,0.04063429,0.01169953,1.33722244,0.00000000,0.41711174,0.00773228,0.01284973,0.01625372,0.02339907,2.08555871,0.00000000,2.22870406
5.400,3,1,1,-531.766,190.878,49.774,26.948,-1.010,3.667,-23.281,-8.165,nan,0.914147,-1.023027,2.424105,2.359940,2.257796,-0.560696,6.083911,3.087702,2.905666,43.802341,-57.676226,100.000000,-13.873885,nan,0.000000,0.000000,0.000000,0.000000,0.000000,0.000000,0.000000,0.000000,0.000000,0.000000,0.000000,0.000000,1.96221340,0.10869862,0.02571863,0.04108217,0.01226377,1.34713733,0.00000000,0.42731288,0.00776419,0.01285932,0.01643287,0.02452753,2.13656440,0.00000000,2.24522888
5.521,3,1,1,-531.766,190.878,49.774,26.948,-1.010,3.667,-23.281,-8.165,nan,0.914147,-1.023027,2.424105,2.308633,2.236475,-0.560696,6.083911,3.035340,2.872390,44.203526,-57.676226,100.000000,-13.472700,nan,0.000000,0.000000,0.000000,0.000000,0.000000,0.000000,0.000000,0.000000,0.000000,0.000000,0.000000,0.000000,1.98833586,0.10923929,0.02574183,0.04162426,0.01294667,1.35913754,0.00000000,0.43964626,0.00780281,0.01287092,0.01664970,0.02589334,2.19823131,0.00000000,2.26522924
5.600,3,1,1,-531.696,190.948,49.705,25.325,-1.093,3.331,-21.994,-8.566,nan,0.845210,-0.560467,1.530919,2.281984,2.220525,0.646125,4.129899,2.999793,2.851637,44.854995,-56.842190,100.000000,-11.987195,nan,0.000000,0.000000,0.000000,0.000000,0.000000,0.000000,0.000000,0.000000,0.000000,0.000000,0.000000,0.000000,2.00377840,0.10934493,0.02576189,0.04176501,0.01315153,1.36610955,0.00000000,0.44764550,0.00781035,0.01288094,0.01670600,0.02630306,2.23822748,0.00000000,2.27684925
5.700,3,1,1,-531.658,190.984,49.668,24.516,-1.135,3.164,-21.352,-7.305,nan,0.921852,-0.338587,2.208216,2.182235,2.199971,1.255555,6.147255,2.920497,2.829869,45.203524,-56.681103,100.000000,-11.477579,nan,0.000000,0.000000,0.000000,0.000000,0.000000,0.000000,0.000000,0.000000,0.000000,0.000000,0.000000,0.000000,2.02333224,0.10939381,0.02585792,0.04213632,0.01372703,1.37444100,0.00000000,0.45777616,0.00781384,0.01292896,0.01685453,0.02745405,2.28888082,0.00000000,2.29073500
5.800,3,1,1,-531.620,191.018,49.630,23.708,-1.176,2.997,-20.711,-8.265,nan,0.957921,-0.126409,2.056686,2.108155,2.179570,1.855186,5.884738,2.861200,2.814886,46.093240,-56.133376,100.000000,-10.040135,nan,0.000000,0.000000,0.000000,0.000000,0.000000,0.000000,0.000000,0.000000,0.000000,0.000000,0.000000,0.000000,2.04234219,0.10940063,0.02606764,0.04245850,0.01425457,1.38228212,0.00000000,0.46787873,0.00781433,0.01303382,0.01698340,0.02850913,2.33939365,0.00000000,2.30380354
5.900,3,1,1,-531.580,191.053,49.592,22.903,-1.216,2.831,-20.072,-7.993,nan,1.017767,0.073338,1.931090,2.032528,2.159685,2.435840,5.680892,2.810395,2.808450,46.791843,-55.801604,100.000000,-9.009761,nan,0.000000,0.000000,0.000000,0.000000,0.000000,0.000000,0.000000,0.000000,0.000000,0.000000,0.000000,0.000000,2.06092817,0.10940292,0.02642916,0.04274252,0.01474616,1.38964634,0.00000000,0.47796107,0.00781449,0.01321458,0.01709701,0.02949232,2.38980534,0.00000000,2.31607723
6.021,3,1,1,-531.580,191.053,49.592,22.903,-1.216,2.831,-20.072,-7.993,nan,1.017767,0.073338,1.931090,1.957454,2.136377,2.435840,5.680892,2.759929,2.800962,47.364055,-55.801604,100.000000,-8.437549,nan,0.000000,0.000000,0.000000,0.000000,0.000000,0.000000,0.000000,0.000000,0.000000,0.000000,0.000000,0.000000,2.08336737,0.10940569,0.02686586,0.04308561,0.01533999,1.39854207,0.00000000,0.49012814,0.00781469,0.01343293,0.01723424,0.03067998,2.45064071,0.00000000,2.33090346
6.100,3,1,1,-531.500,191.120,49.513,21.301,-1.296,2.501,-18.800,-6.990,nan,0.910538,0.428358,1.116280,1.934593,2.122087,3.506343,3.433468,2.780519,2.811973,48.191064,-55.221606,100.000000,-7.030542,nan,0.000000,0.000000,0.000000,0.000000,0.000000,0.000000,0.000000,0.000000,0.000000,0.000000,0.000000,0.000000,2.09731186,0.10946766,0.02745895,0.04316075,0.01548217,1.40365684,0.00000000,0.49808549,0.00781912,0.01372948,0.01726430,0.03096433,2.49042744,0.00000000,2.33942807
6.200,3,1,1,-531.459,191.152,49.473,20.504,-1.335,2.337,-18.167,-7.105,nan,0.968281,0.580969,1.008938,1.859707,2.105102,3.979814,3.139556,2.774640,2.836177,48.434668,-54.826007,100.000000,-6.391338,nan,0.000000,0.000000,0.000000,0.000000,0.000000,0.000000,0.000000,0.000000,0.000000,0.000000,0.000000,0.000000,2.11471524,0.10961155,0.02842359,0.04323825,0.01563224,1.40968669,0.00000000,0.50812293,0.00782940,0.01421179,0.01729530,0.03126448,2.54061463,0.00000000,2.34947782
6.300,3,1,1,-531.419,191.184,49.433,19.711,-1.373,2.174,-17.536,-8.680,nan,1.011345,0.716597,0.913149,1.759620,2.089269,4.401751,2.829708,2.764982,2.869838,49.063835,-54.176852,100.000000,-5.113018,nan,0.000000,0.000000,0.000000,0.000000,0.000000,0.000000,0.000000,0.000000,0.000000,0.000000,0.000000,0.000000,2.13194737,0.10983055,0.02960405,0.04330175,0.01575420,1.41530738,0.00000000,0.51814943,0.00784504,0.01480202,0.01732070,0.03150841,2.59074717,0.00000000,2.35884564
6.400,3,1,1,-531.379,191.216,49.394,18.921,-1.411,2.013,-16.908,-9.210,nan,1.025443,0.834901,0.963887,1.742913,2.074587,4.765899,2.928846,2.830663,2.911575,49.867667,-53.711723,100.000000,-3.844056,nan,0.000000,0.000000,0.000000,0.000000,0.000000,0.000000,0.000000,0.000000,0.000000,0.000000,0.000000,0.000000,2.14906999,0.11012783,0.03098786,0.04337250,0.01588486,1.42053264,0.00000000,0.52816430,0.00786627,0.01549393,0.01734900,0.03176972,2.64082151,0.00000000,2.36755440
6.500,3,1,1,-531.339,191.247,49.355,18.135,-1.447,1.852,-16.283,-8.322,nan,1.018122,0.936004,0.734240,1.682581,2.060997,5.067298,2.128958,2.882689,2.959610,49.995106,-53.495843,100.000000,-3.500737,nan,0.000000,0.000000,0.000000,0.000000,0.000000,0.000000,0.000000,0.000000,0.000000,0.000000,0.000000,0.000000,2.16597957,0.11050152,0.03255252,0.04341357,0.01595390,1.42537964,0.00000000,0.53817842,0.00789297,0.01627626,0.01736543,0.03190781,2.69089212,0.00000000,2.37563273
6.621,3,1,1,-531.339,191.247,49.355,18.135,-1.447,1.852,-16.283,-8.322,nan,1.018122,0.936004,0.734240,1.668351,2.045073,5.067298,2.128958,2.955249,3.014526,50.302612,-53.495843,100.000000,-3.193231,nan,0.000000,0.000000,0.000000,0.000000,0.000000,0.000000,0.000000,0.000000,0.000000,0.000000,0.000000,0.000000,2.18637142,0.11095223,0.03443962,0.04346309,0.01603718,1.43122551,0.00000000,0.55025379,0.00792516,0.01721981,0.01738524,0.03207436,2.75126894,0.00000000,2.38537585
6.700,3,1,1,-531.263,191.307,49.280,16.575,-1.519,1.533,-15.042,-8.680,nan,2.501535,1.089621,0.495746,1.639652,2.035829,5.468284,1.073568,3.051921,3.057706,50.529609,-52.696785,100.000000,-2.167176,nan,0.000000,0.000000,0.000000,0.000000,0.000000,0.000000,0.000000,0.000000,0.000000,0.000000,0.000000,0.000000,2.19946920,0.11135405,0.03588532,0.04347794,0.01605111,1.43450741,0.00000000,0.55819336,0.00795386,0.01794266,0.01739118,0.03210222,2.79096680,0.00000000,2.39084569
6.800,3,1,1,-531.226,191.335,49.244,15.801,-1.554,1.375,-14.426,-8.322,nan,1.825680,1.142757,0.498330,1.639128,2.024905,5.562947,0.655216,3.161815,3.112399,50.678684,-52.393465,100.000000,-1.714781,nan,0.000000,0.000000,0.000000,0.000000,0.000000,0.000000,0.000000,0.000000,0.000000,0.000000,0.000000,0.000000,2.21574422,0.11191099,0.03777078,0.04349686,0.01605765,1.43831116,0.00000000,0.56819679,0.00799364,0.01888539,0.01739874,0.03211530,2.84098393,0.00000000,2.39718527
6.900,3,1,1,-531.190,191.364,49.209,15.031,-1.588,1.219,-13.812,-7.549,nan,1.437156,1.182244,0.303690,1.629510,2.014614,5.585000,-0.102169,3.242534,3.165094,50.617344,-52.164368,100.000000,-1.547025,nan,0.000000,0.000000,0.000000,0.000000,0.000000,0.000000,0.000000,0.000000,0.000000,0.000000,0.000000,0.000000,2.23173418,0.11250695,0.03967076,0.04350388,0.01605781,1.44179747,0.00000000,0.57819731,0.00803621,0.01983538,0.01740155,0.03211562,2.89098654,0.00000000,2.40299578
7.000,3,1,1,-531.155,191.392,49.174,14.265,-1.622,1.063,-13.202,-7.162,nan,1.206016,1.209839,0.338260,1.655522,2.004829,5.534711,-1.253633,3.387170,3.214076,50.665607,-51.869383,100.000000,-1.203776,nan,0.000000,0.000000,0.000000,0.000000,0.000000,0.000000,0.000000,0.000000,0.000000,0.000000,0.000000,0.000000,2.24744990,0.11313140,0.04153771,0.04351260,0.01608175,1.44498405,0.00000000,0.58820239,0.00808081,0.02076885,0.01740504,0.03216351,2.94101195,0.00000000,2.40830675
7.122,3,1,1,-531.155,191.392,49.174,14.265,-1.622,1.063,-13.202,-7.162,nan,1.206016,1.209839,0.338260,1.666513,1.993270,5.534711,-1.253633,3.497953,3.270693,50.240568,-51.869383,100.000000,-1.628815,nan,0.000000,0.000000,0.000000,0.000000,0.000000,0.000000,0.000000,0.000000,0.000000,0.000000,0.000000,0.000000,2.26654724,0.11389015,0.04380620,0.04352319,0.01611085,1.44885601,0.00000000,0.60036084,0.00813501,0.02190310,0.01740927,0.03222170,3.00180419,0.00000000,2.41476001
7.200,3,1,1,-531.088,191.446,49.109,12.742,-1.687,0.754,-11.988,-7.506,nan,2.985981,1.232215,0.018617,1.657275,1.986157,5.225404,-2.537811,3.550101,3.299836,50.223122,-51.088734,100.000000,-0.865612,nan,0.000000,0.000000,0.000000,0.000000,0.000000,0.000000,0.000000,0.000000,0.000000,0.000000,0.000000,0.000000,2.27833640,0.11439784,0.04511046,0.04352321,0.01618776,1.45091528,0.00000000,0.60820185,0.00817127,0.02255523,0.01740928,0.03237552,3.04100926,0.00000000,2.41819213
7.300,3,1,1,-531.056,191.472,49.078,11.984,-1.719,0.601,-11.384,-6.575,nan,2.052935,1.228270,-0.087303,1.683936,1.977246,4.972851,-3.191679,3.677003,3.330100,50.315268,-50.892772,100.000000,-0.577503,nan,0.000000,0.000000,0.000000,0.000000,0.000000,0.000000,0.000000,0.000000,0.000000,0.000000,0.000000,0.000000,2.29301550,0.11504142,0.04661752,0.04352379,0.01634296,1.45328455,0.00000000,0.61820527,0.00821724,0.02330876,0.01740952,0.03268592,3.09102634,0.00000000,2.42214091
7.400,3,1,1,-531.025,191.498,49.048,11.230,-1.750,0.448,-10.782,-6.575,nan,1.515173,1.216788,-0.240942,1.684487,1.968447,4.660031,-5.803727,3.744929,3.352829,50.039079,-50.535561,100.000000,-0.496483,nan,0.000000,0.000000,0.000000,0.000000,0.000000,0.000000,0.000000,0.000000,0.000000,0.000000,0.000000,0.000000,2.30762119,0.11567321,0.04794133,0.04352821,0.01685630,1.45541059,0.00000000,0.62821155,0.00826237,0.02397066,0.01741128,0.03371259,3.14105777,0.00000000,2.42568432
7.500,3,1,1,-530.995,191.524,49.018,10.478,-1.781,0.296,-10.182,-7.577,nan,1.204122,1.200001,-0.203936,1.678199,1.959726,4.291639,-4.224684,3.795851,3.367854,50.036990,-50.004495,100.000000,0.032495,nan,0.000000,0.000000,0.000000,0.000000,0.000000,0.000000,0.000000,0.000000,0.000000,0.000000,0.000000,0.000000,2.32151336,0.11628670,0.04906230,0.04353138,0.01712786,1.45730364,0.00000000,0.63820148,0.00830619,0.02453115,0.01741255,0.03425572,3.19100740,0.00000000,2.42883941
7.600,3,1,1,-530.965,191.549,48.989,9.729,-1.812,0.144,-9.584,-7.219,nan,1.023186,1.177011,-0.281587,1.664223,1.951004,3.873130,-5.020370,3.828772,3.375391,50.108882,-49.712033,99.820915,0.396849,nan,0.000000,0.000000,0.000000,0.000000,0.000000,0.000000,0.000000,0.000000,0.000000,0.000000,0.000000,0.000000,2.33505509,0.11687767,0.04997647,0.04353742,0.01751185,1.45898308,0.00000000,0.64816860,0.00834841,0.02498823,0.01741497,0.03502370,3.24084302,0.00000000,2.43163846
7.727,3,1,1,-530.965,191.549,48.989,9.729,-1.812,0.144,-9.584,-7.219,nan,1.023186,1.177011,-0.281587,1.642623,1.940232,3.873130,-5.020370,3.854416,3.384632,50.141770,-49.712033,99.853803,0.429737,nan,0.000000,0.000000,0.000000,0.000000,0.000000,0.000000,0.000000,0.000000,0.000000,0.000000,0.000000,0.000000,2.35223705,0.11762714,0.05113582,0.04354508,0.01799882,1.46111294,0.00000000,0.66081726,0.00840194,0.02556791,0.01741803,0.03599764,3.30408628,0.00000000,2.43518823
7.800,3,1,1,-530.905,191.599,48.932,8.386,-1.872,-0.132,-8.518,-6.646,nan,1.432696,1.126377,-0.301713,1.631976,1.933857,3.014022,-5.026606,3.836110,3.381164,50.453650,-49.178719,99.632369,1.274931,nan,0.000000,0.000000,0.000000,0.000000,0.000000,0.000000,0.000000,0.000000,0.000000,0.000000,0.000000,0.000000,2.36156643,0.11802333,0.05154109,0.04355015,0.01828062,1.46208398,0.00000000,0.66808725,0.00843024,0.02577054,0.01742006,0.03656123,3.34043627,0.00000000,2.43680664
7.900,3,1,1,-530.876,191.623,48.903,7.644,-1.902,-0.281,-7.925,-7.993,nan,1.118954,1.093272,-0.336608,1.582147,1.925068,2.490798,-5.225032,3.843459,3.370843,50.676863,-48.591769,99.268632,2.085094,nan,0.000000,0.000000,0.000000,0.000000,0.000000,0.000000,0.000000,0.000000,0.000000,0.000000,0.000000,0.000000,2.37388144,0.11853291,0.05191895,0.04355878,0.01869631,1.46323164,0.00000000,0.67794286,0.00846664,0.02595947,0.01742351,0.03739262,3.38971431,0.00000000,2.43871940
8.000,3,1,1,-530.860,191.636,48.888,6.964,-1.917,-0.409,-7.373,-6.918,nan,1.000587,1.059822,-0.391933,1.537494,1.916230,1.988927,-5.826958,3.812314,3.356370,51.104511,-48.451018,99.555529,2.653492,nan,0.000000,0.000000,0.000000,0.000000,0.000000,0.000000,0.000000,0.000000,0.000000,0.000000,0.000000,0.000000,2.38602988,0.11901144,0.05215971,0.04357047,0.01921293,1.46422412,0.00000000,0.68785122,0.00850082,0.02607985,0.01742819,0.03842586,3.43925608,0.00000000,2.44037354
8.100,3,1,1,-530.830,191.660,48.858,6.315,-1.947,-0.543,-6.858,-6.260,nan,0.879428,1.026084,-0.442124,1.486931,1.907331,1.496531,-6.411306,3.769945,3.338857,51.561831,-48.260176,99.822007,3.301655,nan,0.000000,0.000000,0.000000,0.000000,0.000000,0.000000,0.000000,0.000000,0.000000,0.000000,0.000000,0.000000,2.39809538,0.11946060,0.05229620,0.04358536,0.01983921,1.46508401,0.00000000,0.69783001,0.00853290,0.02614810,0.01743414,0.03967841,3.48915005,0.00000000,2.44180668
8.200,3,1,1,-530.799,191.683,48.828,5.580,-1.976,-0.691,-6.272,-5.959,nan,0.826971,0.986173,-0.647808,1.431625,1.898356,0.929632,-9.083395,3.718725,3.319063,52.096006,-47.964337,100.000000,4.131669,nan,0.000000,0.000000,0.000000,0.000000,0.000000,0.000000,0.000000,0.000000,0.000000,0.000000,0.000000,0.000000,2.41058177,0.11987516,0.05234883,0.04361730,0.02109531,1.46580258,0.00000000,0.70784259,0.00856251,0.02617441,0.01744692,0.04219063,3.53921293,0.00000000,2.44300430
8.332,3,1,1,-530.799,191.683,48.828,5.580,-1.976,-0.691,-6.272,-5.959,nan,0.826971,0.986173,-0.647808,1.373709,1.886778,0.929632,-9.083395,3.664953,3.293492,52.558400,-47.964337,100.000000,4.594062,nan,0.000000,0.000000,0.000000,0.000000,0.000000,0.000000,0.000000,0.000000,0.000000,0.000000,0.000000,0.000000,2.42709071,0.12042311,0.05241839,0.04365952,0.02275554,1.46675234,0.00000000,0.72108181,0.00860165,0.02620919,0.01746381,0.04551108,3.60540905,0.00000000,2.44458723
8.400,3,1,1,-530.735,191.730,48.766,4.119,-2.033,-0.986,-5.105,-7.749,nan,0.775800,0.900181,-0.610243,1.364117,1.880584,-0.195414,-7.417165,3.620111,3.279537,53.290953,-46.958488,100.000000,6.332465,nan,0.000000,0.000000,0.000000,0.000000,0.000000,0.000000,0.000000,0.000000,0.000000,0.000000,0.000000,0.000000,2.43505484,0.12065772,0.05241997,0.04367878,0.02332442,1.46707573,0.00000000,0.72789823,0.00861841,0.02620998,0.01747151,0.04664884,3.63949114,0.00000000,2.44512621
8.500,3,1,1,-530.701,191.753,48.733,3.393,-2.061,-1.132,-4.525,-6.747,nan,0.791344,0.852589,-0.510382,1.302426,1.871343,-0.737694,-5.589459,3.565115,3.260269,53.562584,-46.788657,100.000000,6.773928,nan,0.000000,0.000000,0.000000,0.000000,0.000000,0.000000,0.000000,0.000000,0.000000,0.000000,0.000000,0.000000,2.44630863,0.12096758,0.05245310,0.04369860,0.02380004,1.46744980,0.00000000,0.73793949,0.00864054,0.02622655,0.01747944,0.04760009,3.68969745,0.00000000,2.44574967
8.600,3,1,1,-530.667,191.775,48.699,2.669,-2.089,-1.278,-3.948,-7.592,nan,0.798172,0.802610,-0.544506,1.241572,1.862005,-1.256558,-5.403443,3.515205,3.243293,54.205428,-46.297760,100.000000,7.907669,nan,0.000000,0.000000,0.000000,0.000000,0.000000,0.000000,0.000000,0.000000,0.000000,0.000000,0.000000,0.000000,2.45749751,0.12124239,0.05254933,0.04372119,0.02424488,1.46773472,0.00000000,0.74800501,0.00866017,0.02627466,0.01748848,0.04848975,3.74002506,0.00000000,2.44622454
8.700,3,1,1,-530.630,191.797,48.664,1.950,-2.116,-1.423,-3.373,-7.635,nan,0.818638,0.749799,-0.606268,1.182018,1.852585,-1.744886,-5.292864,3.473921,3.229383,54.836225,-45.948319,100.000000,8.887906,nan,0.000000,0.000000,0.000000,0.000000,0.000000,0.000000,0.000000,0.000000,0.000000,0.000000,0.000000,0.000000,2.46866185,0.12148209,0.05273477,0.04374917,0.02467146,1.46794261,0.00000000,0.75808174,0.00867729,0.02636739,0.01749967,0.04934293,3.79040870,0.00000000,2.44657102
8.800,3,1,1,-530.593,191.819,48.627,1.234,-2.144,-1.568,-2.801,-7.821,nan,0.837729,0.693443,-0.588413,1.124805,1.843078,-2.196201,-4.378672,3.443828,3.219034,55.444525,-45.575464,100.000000,9.869061,nan,0.000000,0.000000,0.000000,0.000000,0.000000,0.000000,0.000000,0.000000,0.000000,0.000000,0.000000,0.000000,2.47972005,0.12168716,0.05302863,0.04377554,0.02496348,1.46808602,0.00000000,0.76817922,0.00869194,0.02651431,0.01751022,0.04992697,3.84089608,0.00000000,2.44681003
8.922,3,1,1,-530.593,191.819,48.627,1.234,-2.144,-1.568,-2.801,-7.821,nan,0.837729,0.693443,-0.588413,1.024963,1.831750,-2.196201,-4.378672,3.421894,3.206729,55.892587,-45.575464,100.000000,10.317123,nan,0.000000,0.000000,0.000000,0.000000,0.000000,0.000000,0.000000,0.000000,0.000000,0.000000,0.000000,0.000000,2.49318376,0.12193664,0.05338611,0.04380762,0.02531874,1.46826048,0.00000000,0.78047417,0.00870976,0.02669306,0.01752305,0.05063747,3.90237086,0.00000000,2.44710080
9.000,3,1,1,-530.513,191.861,48.549,-0.130,-2.197,-1.844,-1.714,-6.675,nan,0.752664,0.572292,-0.748544,0.984237,1.824189,-2.938170,-3.792132,3.428655,3.204378,56.857961,-45.127700,100.000000,11.730261,nan,0.000000,0.000000,0.000000,0.000000,0.000000,0.000000,0.000000,0.000000,0.000000,0.000000,0.000000,0.000000,2.50191374,0.12204631,0.05379907,0.04384112,0.02549071,1.46830261,0.00000000,0.78843392,0.00871759,0.02689953,0.01753645,0.05098142,3.94216959,0.00000000,2.44717102
9.100,3,1,1,-530.471,191.881,48.507,-0.834,-2.223,-1.985,-1.151,-7.148,nan,0.826423,0.501532,-0.800681,0.950821,1.814480,-3.250833,-3.171959,3.450490,3.204916,57.248989,-44.709785,100.000000,12.539203,nan,0.000000,0.000000,0.000000,0.000000,0.000000,0.000000,0.000000,0.000000,0.000000,0.000000,0.000000,0.000000,2.51303789,0.12215348,0.05444230,0.04388990,0.02564381,1.46832680,0.00000000,0.79858161,0.00872525,0.02722115,0.01755596,0.05128761,3.99290806,0.00000000,2.44721133
9.200,3,1,1,-530.427,191.901,48.464,-1.534,-2.248,-2.126,-0.592,-6.661,nan,0.882018,0.425674,-0.918841,0.941504,1.804715,-3.508408,-2.738647,3.451914,3.208525,57.559633,-44.461279,100.000000,13.098354,nan,0.000000,0.000000,0.000000,0.000000,0.000000,0.000000,0.000000,0.000000,0.000000,0.000000,0.000000,0.000000,2.52421778,0.12223073,0.05519195,0.04395417,0.02575800,1.46833320,0.00000000,0.80874973,0.00873077,0.02759597,0.01758167,0.05151600,4.04374867,0.00000000,2.44722200
9.300,3,1,1,-530.382,191.920,48.420,-2.229,-2.273,-2.265,-0.036,-7.706,nan,0.923186,0.344586,-1.160752,0.904689,1.794921,-3.708180,-2.415383,3.529557,3.214569,57.745502,-43.947152,100.000000,13.798350,nan,0.000000,0.000000,0.000000,0.000000,0.000000,0.000000,0.000000,0.000000,0.000000,0.000000,0.000000,0.000000,2.53548657,0.12228136,0.05602957,0.04405676,0.02584685,1.46833322,0.00000000,0.81893880,0.00873438,0.02801479,0.01762271,0.05169370,4.09469401,0.00000000,2.44722204
9.421,3,1,1,-530.382,191.920,48.420,-2.229,-2.273,-2.265,-0.036,-7.706,nan,0.923186,0.344586,-1.160752,0.891777,1.783269,-3.708180,-2.415383,3.576825,3.221702,57.841089,-43.947152,100.000000,13.893937,nan,0.000000,0.000000,0.000000,0.000000,0.000000,0.000000,0.000000,0.000000,0.000000,0.000000,0.000000,0.000000,2.54914961,0.12234273,0.05704493,0.04418113,0.02595455,1.46833325,0.00000000,0.83129302,0.00873877,0.02852246,0.01767245,0.05190909,4.15646511,0.00000000,2.44722209
9.500,3,1,1,-530.286,191.957,48.326,-3.605,-2.320,-2.541,1.064,-6.346,nan,0.831005,0.164539,-1.340501,0.881209,1.775598,-3.927701,-0.737130,3.585792,3.228479,57.602305,-43.494213,100.000000,14.108093,nan,0.000000,0.000000,0.000000,0.000000,0.000000,0.000000,0.000000,0.000000,0.000000,0.000000,0.000000,0.000000,2.55806671,0.12235183,0.05778553,0.04428896,0.02596107,1.46834956,0.00000000,0.83932977,0.00873942,0.02889276,0.01771558,0.05192214,4.19664884,0.00000000,2.44724927
9.600,3,1,1,-530.236,191.974,48.276,-4.286,-2.343,-2.677,1.609,-6.217,nan,0.909010,0.065651,-1.077907,0.866665,1.765936,-3.946425,0.082823,3.637320,3.237137,57.533440,-43.127445,100.000000,14.405995,nan,0.000000,0.000000,0.000000,0.000000,0.000000,0.000000,0.000000,0.000000,0.000000,0.000000,0.000000,0.000000,2.56935939,0.12235367,0.05873424,0.04437743,0.02596117,1.46839690,0.00000000,0.84953597,0.00873955,0.02936712,0.01775097,0.05192235,4.24767987,0.00000000,2.44732817
9.700,3,1,1,-530.184,191.990,48.225,-4.963,-2.365,-2.812,2.152,-6.646,nan,0.987453,-0.038250,-1.419815,0.862254,1.756420,-3.905525,0.894100,3.686725,3.245057,57.405819,-42.643127,100.000000,14.762692,nan,0.000000,0.000000,0.000000,0.000000,0.000000,0.000000,0.000000,0.000000,0.000000,0.000000,0.000000,0.000000,2.58075785,0.12235429,0.05966354,0.04453095,0.02597335,1.46848153,0.00000000,0.85975418,0.00873959,0.02983177,0.01781238,0.05194670,4.29877092,0.00000000,2.44746922
9.800,3,1,1,-530.131,192.006,48.173,-5.637,-2.387,-2.946,2.691,-6.073,nan,1.031887,-0.146286,-1.527901,0.860935,1.747117,-3.807157,1.712822,3.729211,3.251548,57.214343,-42.313546,99.527889,14.900797,nan,0.000000,0.000000,0.000000,0.000000,0.000000,0.000000,0.000000,0.000000,0.000000,0.000000,0.000000,0.000000,2.59213291,0.12236342,0.06054661,0.04470873,0.02601803,1.46861394,0.00000000,0.86988218,0.00874024,0.03027330,0.01788349,0.05203607,4.34941088,0.00000000,2.44768990
9.900,3,1,1,-530.076,192.021,48.119,-6.307,-2.407,-3.078,3.228,-6.474,nan,1.074309,-0.257752,-1.320632,0.861649,1.738099,-3.654194,2.061424,3.761483,3.256046,57.016833,-41.793474,98.810306,15.223359,nan,0.000000,0.000000,0.000000,0.000000,0.000000,0.000000,0.000000,0.000000,0.000000,0.000000,0.000000,0.000000,2.60335781,0.12239175,0.06136011,0.04484155,0.02608276,1.46880442,0.00000000,0.87987722,0.00874227,0.03068006,0.01793662,0.05216551,4.39938609,0.00000000,2.44800737
10.029,3,1,1,-530.076,192.021,48.119,-6.307,-2.407,-3.078,3.228,-6.474,nan,1.074309,-0.257752,-1.320632,0.873151,1.726702,-3.654194,2.061424,3.813087,3.261688,56.946943,-41.630367,98.577310,15.316576,nan,0.000000,0.000000,0.000000,0.000000,0.000000,0.000000,0.000000,0.000000,0.000000,0.000000,0.000000,0.000000,2.61774811,0.12242821,0.06240704,0.04501248,0.02616605,1.46904957,0.00000000,0.89268475,0.00874487,0.03120352,0.01800499,0.05233210,4.46342376,0.00000000,2.44841595
10.100,3,1,1,-529.963,192.049,48.006,-7.634,-2.446,-3.340,4.293,-5.572,nan,0.973491,-0.488279,-1.177653,0.865801,1.720852,-3.198282,2.742541,3.799276,3.261226,56.527601,-41.021517,97.549118,15.506085,nan,0.000000,0.000000,0.000000,0.000000,0.000000,0.000000,0.000000,0.000000,0.000000,0.000000,0.000000,0.000000,2.62562016,0.12250072,0.06285148,0.04508780,0.02624775,1.46928984,0.00000000,0.89964257,0.00875005,0.03142574,0.01803512,0.05249550,4.49821287,0.00000000,2.44881640
10.200,3,1,1,-529.904,192.061,47.948,-8.291,-2.464,-3.470,4.821,-6.474,nan,1.059771,-0.604705,-1.183610,0.868364,1.713139,-2.903295,3.191372,3.786849,3.257773,56.486204,-40.350646,96.836850,16.135558,nan,0.000000,0.000000,0.000000,0.000000,0.000000,0.000000,0.000000,0.000000,0.000000,0.000000,0.000000,0.000000,2.63661330,0.12265666,0.06336497,0.04519448,0.02640286,1.46971469,0.00000000,0.90927963,0.00876119,0.03168249,0.01807779,0.05280572,4.54639817,0.00000000,2.44952449
10.300,3,1,1,-529.844,192.073,47.889,-8.944,-2.481,-3.597,5.346,-7.191,nan,1.143857,-0.719726,-1.137816,0.870895,1.705999,-2.569564,3.492007,3.756987,3.251549,56.376497,-39.689984,96.066481,16.686513,nan,0.000000,0.000000,0.000000,0.000000,0.000000,0.000000,0.000000,0.000000,0.000000,0.000000,0.000000,0.000000,2.64755140,0.12287759,0.06376727,0.04529308,0.02658861,1.47023715,0.00000000,0.91878771,0.00877697,0.03188363,0.01811723,0.05317721,4.59393853,0.00000000,2.45039525
10.400,3,1,1,-529.782,192.084,47.828,-9.591,-2.497,-3.724,5.867,-6.188,nan,1.185383,-0.831614,-1.122877,0.873384,1.699485,-2.202234,3.884592,3.709537,3.242739,56.302513,-39.306209,95.608723,16.996304,nan,0.000000,0.000000,0.000000,0.000000,0.000000,0.000000,0.000000,0.000000,0.000000,0.000000,0.000000,0.000000,2.65852353,0.12317244,0.06406265,0.04538907,0.02681837,1.47086619,0.00000000,0.92821481,0.00879803,0.03203132,0.01815563,0.05363674,4.64107406,0.00000000,2.45144365
10.500,3,1,1,-529.720,192.093,47.766,-10.233,-2.512,-3.848,6.385,-6.761,nan,1.206210,-0.938809,-1.034178,0.875954,1.693629,-1.806817,4.012087,3.645037,3.231650,56.264393,-38.622630,94.887023,17.641763,nan,0.000000,0.000000,0.000000,0.000000,0.000000,0.000000,0.000000,0.000000,0.000000,0.000000,0.000000,0.000000,2.66948564,0.12354834,0.06426155,0.04547052,0.02706356,1.47161137,0.00000000,0.93753029,0.00882488,0.03213078,0.01818821,0.05412712,4.68765146,0.00000000,2.45268561
10.626,3,1,1,-529.720,192.093,47.766,-10.233,-2.512,-3.848,6.385,-6.761,nan,1.206210,-0.938809,-1.034178,0.874475,1.686388,-1.806817,4.012087,3.523662,3.217941,56.375542,-38.292218,94.667761,18.083324,nan,0.000000,0.000000,0.000000,0.000000,0.000000,0.000000,0.000000,0.000000,0.000000,0.000000,0.000000,0.000000,2.68325798,0.12402171,0.06451204,0.04557310,0.02737233,1.47254979,0.00000000,0.94922901,0.00885869,0.03225602,0.01822924,0.05474466,4.74614507,0.00000000,2.45424964
10.700,3,1,1,-529.593,192.109,47.639,-11.501,-2.537,-4.093,7.409,-5.744,nan,1.047258,-1.133044,-0.883785,0.881684,1.683059,-0.955373,4.357657,3.483622,3.207375,56.395534,-37.582459,93.977993,18.813076,nan,0.000000,0.000000,0.000000,0.000000,0.000000,0.000000,0.000000,0.000000,0.000000,0.000000,0.000000,0.000000,2.69150883,0.12442718,0.06455322,0.04561716,0.02758653,1.47329280,0.00000000,0.95603195,0.00888766,0.03227661,0.01824686,0.05517305,4.78015976,0.00000000,2.45548800
10.800,3,1,1,-529.528,192.115,47.575,-12.127,-2.548,-4.212,7.915,-5.486,nan,1.175723,-1.216343,-0.777515,0.885717,1.679189,-0.511571,4.433012,3.378266,3.192309,56.312267,-36.953993,93.266260,19.358273,nan,0.000000,0.000000,0.000000,0.000000,0.000000,0.000000,0.000000,0.000000,0.000000,0.000000,0.000000,0.000000,2.70272135,0.12505823,0.06456917,0.04566320,0.02788588,1.47443810,0.00000000,0.96510676,0.00893273,0.03228458,0.01826528,0.05577177,4.82553381,0.00000000,2.45739684
10.900,3,1,1,-529.462,192.120,47.510,-12.673,-2.558,-4.317,8.357,-6.589,nan,1.231701,-1.279948,-0.751343,0.881745,1.675833,-0.117410,5.016022,3.185103,3.177082,56.393312,-36.093587,92.486899,20.299724,nan,0.000000,0.000000,0.000000,0.000000,0.000000,0.000000,0.000000,0.000000,0.000000,0.000000,0.000000,0.000000,2.71409643,0.12575733,0.06457001,0.04570622,0.02826934,1.47571527,0.00000000,0.97407826,0.00898267,0.03228500,0.01828249,0.05653868,4.87039131,0.00000000,2.45952544
11.000,3,1,1,-529.396,192.124,47.444,-13.288,-2.566,-4.432,8.856,-5.801,nan,1.265239,-1.339946,-0.554554,0.895713,1.672979,0.329455,4.604687,3.146441,3.162223,56.686666,-35.475965,92.162631,21.210701,nan,0.000000,0.000000,0.000000,0.000000,0.000000,0.000000,0.000000,0.000000,0.000000,0.000000,0.000000,0.000000,2.72559158,0.12652298,0.06457662,0.04572964,0.02859226,1.47714853,0.00000000,0.98302155,0.00903736,0.03228831,0.01829185,0.05718452,4.91510775,0.00000000,2.46191422
11.128,3,1,1,-529.396,192.124,47.444,-13.288,-2.566,-4.432,8.856,-5.801,nan,1.265239,-1.339946,-0.554554,0.891101,1.669409,0.329455,4.604687,2.935754,3.143568,56.668907,-34.940120,91.609028,21.728787,nan,0.000000,0.000000,0.000000,0.000000,0.000000,0.000000,0.000000,0.000000,0.000000,0.000000,0.000000,0.000000,2.74015712,0.12749989,0.06458506,0.04575952,0.02900429,1.47897727,0.00000000,0.99433109,0.00910714,0.03229253,0.01830381,0.05800857,4.97165546,0.00000000,2.46496212
11.200,3,1,1,-529.264,192.128,47.312,-14.450,-2.578,-4.649,9.801,-5.944,nan,1.960643,-1.414135,-0.294173,0.907452,1.667829,1.164548,5.096848,2.905430,3.134474,56.896439,-33.831190,90.727629,23.065248,nan,0.000000,0.000000,0.000000,0.000000,0.000000,0.000000,0.000000,0.000000,0.000000,0.000000,0.000000,0.000000,2.74873218,0.12811667,0.06464481,0.04576428,0.02929044,1.48024703,0.00000000,1.00066895,0.00915119,0.03232241,0.01830571,0.05858087,5.00334475,0.00000000,2.46707838
11.300,3,1,1,-529.232,192.128,47.280,-14.975,-2.580,-4.744,10.231,-5.529,nan,1.812955,-1.428413,-0.077354,0.914440,1.665788,1.529179,3.396431,2.798675,3.123493,56.746684,-32.991201,89.737885,23.755483,nan,0.000000,0.000000,0.000000,0.000000,0.000000,0.000000,0.000000,0.000000,0.000000,0.000000,0.000000,0.000000,2.76045713,0.12898725,0.06478735,0.04576474,0.02946622,1.48216111,0.00000000,1.00929047,0.00921337,0.03239367,0.01830590,0.05893245,5.04645235,0.00000000,2.47026851
11.400,3,1,1,-529.166,192.127,47.214,-15.516,-2.583,-4.843,10.673,-6.403,nan,1.572177,-1.428804,0.052178,0.912914,1.663783,1.893418,2.952376,2.637593,3.114488,56.805803,-31.808372,88.614176,24.997431,nan,0.000000,0.000000,0.000000,0.000000,0.000000,0.000000,0.000000,0.000000,0.000000,0.000000,0.000000,0.000000,2.77225409,0.12985902,0.06500605,0.04576495,0.02959916,1.48424585,0.00000000,1.01777907,0.00927564,0.03250302,0.01830598,0.05919832,5.08889533,0.00000000,2.47374308
11.500,3,1,1,-529.100,192.126,47.148,-16.027,-2.584,-4.936,11.091,-5.400,nan,1.413737,-1.414917,0.247015,0.920577,1.661708,2.222635,3.876329,2.572925,3.107596,57.032628,-30.841348,87.873976,26.191280,nan,0.000000,0.000000,0.000000,0.000000,0.000000,0.000000,0.000000,0.000000,0.000000,0.000000,0.000000,0.000000,2.78429775,0.13071275,0.06530700,0.04576959,0.02982801,1.48649397,0.00000000,1.02618643,0.00933663,0.03265350,0.01830784,0.05965601,5.13093215,0.00000000,2.47748995
11.624,3,1,1,-529.100,192.126,47.148,-16.027,-2.584,-4.936,11.091,-5.400,nan,1.413737,-1.414917,0.247015,0.928912,1.659196,2.222635,3.876329,2.523572,3.099248,57.106221,-29.854313,86.960534,27.251908,nan,0.000000,0.000000,0.000000,0.000000,0.000000,0.000000,0.000000,0.000000,0.000000,0.000000,0.000000,0.000000,2.79901996,0.13176536,0.06567806,0.04577532,0.03011016,1.48926579,0.00000000,1.03642527,0.00941181,0.03283903,0.01831013,0.06022032,5.18212633,0.00000000,2.48210965
11.700,3,1,1,-528.970,192.118,47.018,-17.118,-2.582,-5.132,11.986,-6.388,nan,3.846697,-1.335610,0.359848,0.940926,1.657217,2.862853,1.900599,2.532388,3.097707,56.937433,-27.784892,84.722325,29.152541,nan,0.000000,0.000000,0.000000,0.000000,0.000000,0.000000,0.000000,0.000000,0.000000,0.000000,0.000000,0.000000,2.80819005,0.13234775,0.06606032,0.04578287,0.03015228,1.49127595,0.00000000,1.04257088,0.00945341,0.03303016,0.01831315,0.06030456,5.21285441,0.00000000,2.48545991
11.800,3,1,1,-528.906,192.113,46.954,-17.670,-2.579,-5.229,12.441,-3.839,nan,2.685602,-1.268057,0.835535,0.943806,1.654201,3.148026,2.979478,2.507752,3.098152,56.733522,-26.325032,83.058554,30.408490,nan,0.000000,0.000000,0.000000,0.000000,0.000000,0.000000,0.000000,0.000000,0.000000,0.000000,0.000000,0.000000,2.82031840,0.13303339,0.06666398,0.04583603,0.03028747,1.49410448,0.00000000,1.05039306,0.00950238,0.03333199,0.01833441,0.06057493,5.25196530,0.00000000,2.49017413
11.900,3,1,1,-528.843,192.107,46.890,-18.210,-2.575,-5.323,12.887,-5.887,nan,2.052010,-1.182537,1.286508,0.945480,1.650681,3.397070,3.203768,2.519666,3.100875,56.658092,-23.682206,80.340298,32.975886,nan,0.000000,0.000000,0.000000,0.000000,0.000000,0.000000,0.000000,0.000000,0.000000,0.000000,0.000000,0.000000,2.83247680,0.13362972,0.06736700,0.04596206,0.03044379,1.49713959,0.00000000,1.05793464,0.00954498,0.03368350,0.01838483,0.06088758,5.28967319,0.00000000,2.49523265
12.000,3,1,1,-528.781,192.099,46.828,-18.736,-2.569,-5.414,13.321,-5.529,nan,1.706217,-1.079854,1.414205,0.945104,1.646606,3.608154,2.488841,2.552436,3.105603,56.523144,-20.996942,77.520086,35.526202,nan,0.000000,0.000000,0.000000,0.000000,0.000000,0.000000,0.000000,0.000000,0.000000,0.000000,0.000000,0.000000,2.84452899,0.13412702,0.06816016,0.04611437,0.03053814,1.50038310,0.00000000,1.06520620,0.00958050,0.03408008,0.01844575,0.06107627,5.32603101,0.00000000,2.50063850
12.100,3,1,1,-528.719,192.091,46.766,-19.184,-2.562,-5.490,13.694,-5.486,nan,1.512243,-0.976099,1.262565,0.940728,1.642030,3.761363,1.606217,2.622329,3.111800,56.376685,-17.862717,74.239402,38.513968,nan,0.000000,0.000000,0.000000,0.000000,0.000000,0.000000,0.000000,0.000000,0.000000,0.000000,0.000000,0.000000,2.85639395,0.13453382,0.06902312,0.04623591,0.03057748,1.50381433,0.00000000,1.07220929,0.00960956,0.03451156,0.01849436,0.06115495,5.36104647,0.00000000,2.50635722
12.220,3,1,1,-528.719,192.091,46.766,-19.184,-2.562,-5.490,13.694,-5.486,nan,1.512243,-0.976099,1.262565,0.940466,1.636624,3.761363,1.606217,2.684903,3.119085,56.272215,-14.815906,71.088120,41.456309,nan,0.000000,0.000000,0.000000,0.000000,0.000000,0.000000,0.000000,0.000000,0.000000,0.000000,0.000000,0.000000,2.87036799,0.13502211,0.07005893,0.04638180,0.03062470,1.50793287,0.00000000,1.08034758,0.00964444,0.03502947,0.01855272,0.06124940,5.40173790,0.00000000,2.51322145
12.300,3,1,1,-528.600,192.071,46.646,-20.145,-2.545,-5.652,14.493,-4.784,nan,1.457780,-0.698944,1.937263,0.935317,1.632135,3.993027,0.982784,2.724291,3.125754,55.969664,-9.913384,65.883048,46.056279,nan,0.000000,0.000000,0.000000,0.000000,0.000000,0.000000,0.000000,0.000000,0.000000,0.000000,0.000000,0.000000,2.87976145,0.13518822,0.07083344,0.04660968,0.03063643,1.51099393,0.00000000,1.08549974,0.00965630,0.03541672,0.01864387,0.06127286,5.42749870,0.00000000,2.51832322
12.400,3,1,1,-528.543,192.060,46.588,-20.589,-2.534,-5.725,14.864,-4.927,nan,1.343765,-0.541843,3.868323,0.926422,1.626072,4.047689,0.860026,2.792900,3.134557,55.843235,-5.077185,60.920421,50.766050,nan,0.000000,0.000000,0.000000,0.000000,0.000000,0.000000,0.000000,0.000000,0.000000,0.000000,0.000000,0.000000,2.89236258,0.13531343,0.07183162,0.04774927,0.03064769,1.51503222,0.00000000,1.09178835,0.00966525,0.03591581,0.01909971,0.06129539,5.45894173,0.00000000,2.52505369
12.500,3,1,1,-528.486,192.048,46.531,-21.002,-2.523,-5.792,15.211,-3.409,nan,1.259156,-0.374993,1.922086,0.919130,1.619697,4.062043,-0.045198,2.897109,3.143345,55.691579,-0.273022,55.964601,55.418557,nan,0.000000,0.000000,0.000000,0.000000,0.000000,0.000000,0.000000,0.000000,0.000000,0.000000,0.000000,0.000000,2.90414169,0.13537341,0.07283691,0.04803062,0.03064773,1.51926115,0.00000000,1.09799187,0.00966953,0.03641846,0.01921225,0.06129545,5.48995936,0.00000000,2.53210191
12.600,3,1,1,-528.431,192.035,46.476,-21.381,-2.510,-5.852,15.530,-2.736,nan,1.212946,-0.200989,1.935018,0.908394,1.613148,4.036844,-0.472463,2.930187,3.151698,55.467781,4.692469,50.775312,60.160251,nan,0.000000,0.000000,0.000000,0.000000,0.000000,0.000000,0.000000,0.000000,0.000000,0.000000,0.000000,0.000000,2.91604571,0.13539063,0.07382974,0.04831577,0.03065113,1.52366914,0.00000000,1.10418930,0.00967076,0.03691487,0.01932631,0.06130225,5.52094651,0.00000000,2.53944857
12.700,3,1,1,-528.377,192.022,46.421,-21.722,-2.497,-5.904,15.818,-3.080,nan,1.174151,-0.022448,3.663969,0.903140,1.606578,3.973320,-1.644795,3.013260,3.159241,55.409220,9.604377,45.804843,65.013597,nan,0.000000,0.000000,0.000000,0.000000,0.000000,0.000000,0.000000,0.000000,0.000000,0.000000,0.000000,0.000000,2.92897130,0.13539085,0.07479170,0.04933827,0.03069234,1.52824302,0.00000000,1.11051512,0.00967077,0.03739585,0.01973531,0.06138467,5.55257561,0.00000000,2.54707170
12.823,3,1,1,-528.377,192.022,46.421,-21.722,-2.497,-5.904,15.818,-3.080,nan,1.174151,-0.022448,3.663969,0.896467,1.598636,3.973320,-1.644795,3.058404,3.168293,55.285331,13.900605,41.384726,69.185936,nan,0.000000,0.000000,0.000000,0.000000,0.000000,0.000000,0.000000,0.000000,0.000000,0.000000,0.000000,0.000000,2.94502130,0.13539111,0.07597027,0.05059102,0.03074283,1.53384683,0.00000000,1.11847923,0.00967079,0.03798514,0.02023641,0.06148565,5.59239617,0.00000000,2.55641138
12.900,3,1,1,-528.272,191.994,46.315,-22.279,-2.467,-5.985,16.294,-2.249,nan,1.247553,0.337203,1.971306,0.887032,1.593897,3.737898,-1.670005,3.076763,3.172137,55.133986,17.708588,37.425398,72.842574,nan,0.000000,0.000000,0.000000,0.000000,0.000000,0.000000,0.000000,0.000000,0.000000,0.000000,0.000000,0.000000,2.95493194,0.13542867,0.07662948,0.05082021,0.03077572,1.53760475,0.00000000,1.12367311,0.00967348,0.03831474,0.02032808,0.06155145,5.61836557,0.00000000,2.56267458
